{"type":"FeatureCollection","crs":{"type":"name","properties":{"name":"EPSG:4326"}},"features":[{"type":"Feature","id":4447,"geometry":{"type":"Point","coordinates":[77.007531295840138,10.66528313232158]},"properties":{"OBJECTID":4447,"stname":"TAMIL NADU","dtname":"Coimbatore","STCODE11":"33","DTCODE11":"632","SDTCODE11":"05774","NAME11":"Pollachi","LOC_NAME":"Pollachi"}},{"type":"Feature","id":4448,"geometry":{"type":"Point","coordinates":[77.284576902860309,10.995511677250063]},"properties":{"OBJECTID":4448,"stname":"TAMIL NADU","dtname":"Tiruppur","STCODE11":"33","DTCODE11":"633","SDTCODE11":"05780","NAME11":"Palladam","LOC_NAME":"Palladam"}},{"type":"Feature","id":4449,"geometry":{"type":"Point","coordinates":[77.525679271445881,10.737069733613454]},"properties":{"OBJECTID":4449,"stname":"TAMIL NADU","dtname":"Tiruppur","STCODE11":"33","DTCODE11":"633","SDTCODE11":"05777","NAME11":"Dharapuram","LOC_NAME":"Dharapuram"}},{"type":"Feature","id":4450,"geometry":{"type":"Point","coordinates":[77.245085725990236,10.584510559367535]},"properties":{"OBJECTID":4450,"stname":"TAMIL NADU","dtname":"Tiruppur","STCODE11":"33","DTCODE11":"633","SDTCODE11":"05781","NAME11":"Udumalaipettai","LOC_NAME":"Udumalaipettai"}},{"type":"Feature","id":4451,"geometry":{"type":"Point","coordinates":[77.660175915234902,8.4905879882571398]},"properties":{"OBJECTID":4451,"stname":"TAMIL NADU","dtname":"Tirunelveli","STCODE11":"33","DTCODE11":"628","SDTCODE11":"05902","NAME11":"Nanguneri","LOC_NAME":"Nanguneri"}},{"type":"Feature","id":4452,"geometry":{"type":"Point","coordinates":[77.453059329130355,8.7045894692861072]},"properties":{"OBJECTID":4452,"stname":"TAMIL NADU","dtname":"Tirunelveli","STCODE11":"33","DTCODE11":"628","SDTCODE11":"05901","NAME11":"Ambasamudram","LOC_NAME":"Ambasamudram"}},{"type":"Feature","id":4453,"geometry":{"type":"Point","coordinates":[78.591355381304339,9.5453453183868007]},"properties":{"OBJECTID":4453,"stname":"TAMIL NADU","dtname":"Ramanathapuram","STCODE11":"33","DTCODE11":"626","SDTCODE11":"05879","NAME11":"Paramakudi","LOC_NAME":"Paramakudi"}},{"type":"Feature","id":4454,"geometry":{"type":"Point","coordinates":[78.918417579851521,9.7830382579141357]},"properties":{"OBJECTID":4454,"stname":"TAMIL NADU","dtname":"Ramanathapuram","STCODE11":"33","DTCODE11":"626","SDTCODE11":"05878","NAME11":"Tiruvadanai","LOC_NAME":"Tiruvadanai"}},{"type":"Feature","id":4455,"geometry":{"type":"Point","coordinates":[78.601101254127428,10.110358661331283]},"properties":{"OBJECTID":4455,"stname":"TAMIL NADU","dtname":"Sivaganga","STCODE11":"33","DTCODE11":"622","SDTCODE11":"05852","NAME11":"Tirupathur","LOC_NAME":"Tirupathur"}},{"type":"Feature","id":4456,"geometry":{"type":"Point","coordinates":[78.749253897321111,10.245318407985177]},"properties":{"OBJECTID":4456,"stname":"TAMIL NADU","dtname":"Pudukkottai","STCODE11":"33","DTCODE11":"621","SDTCODE11":"05845","NAME11":"Thirumayam","LOC_NAME":"Thirumayam"}},{"type":"Feature","id":4457,"geometry":{"type":"Point","coordinates":[77.852808718773545,10.165306675378185]},"properties":{"OBJECTID":4457,"stname":"TAMIL NADU","dtname":"Dindigul","STCODE11":"33","DTCODE11":"612","SDTCODE11":"05790","NAME11":"Nilakkottai","LOC_NAME":"Nilakkottai"}},{"type":"Feature","id":4458,"geometry":{"type":"Point","coordinates":[77.491145368419524,10.234386160099264]},"properties":{"OBJECTID":4458,"stname":"TAMIL NADU","dtname":"Dindigul","STCODE11":"33","DTCODE11":"612","SDTCODE11":"05789","NAME11":"Kodaikanal","LOC_NAME":"Kodaikanal"}},{"type":"Feature","id":4459,"geometry":{"type":"Point","coordinates":[77.513430141573977,10.452009056506208]},"properties":{"OBJECTID":4459,"stname":"TAMIL NADU","dtname":"Dindigul","STCODE11":"33","DTCODE11":"612","SDTCODE11":"05783","NAME11":"Palani","LOC_NAME":"Palani"}},{"type":"Feature","id":4460,"geometry":{"type":"Point","coordinates":[77.279328355675659,11.188272426963783]},"properties":{"OBJECTID":4460,"stname":"TAMIL NADU","dtname":"Tiruppur","STCODE11":"33","DTCODE11":"633","SDTCODE11":"05778","NAME11":"Avanashi","LOC_NAME":"Avanashi"}},{"type":"Feature","id":4461,"geometry":{"type":"Point","coordinates":[77.535847521335768,9.1736094066250207]},"properties":{"OBJECTID":4461,"stname":"TAMIL NADU","dtname":"Tirunelveli","STCODE11":"33","DTCODE11":"628","SDTCODE11":"05894","NAME11":"Sankarankoil","LOC_NAME":"Sankarankoil"}},{"type":"Feature","id":4462,"geometry":{"type":"Point","coordinates":[78.189883420899875,11.460853873888441]},"properties":{"OBJECTID":4462,"stname":"TAMIL NADU","dtname":"Namakkal","STCODE11":"33","DTCODE11":"609","SDTCODE11":"05756","NAME11":"Rasipuram","LOC_NAME":"Rasipuram"}},{"type":"Feature","id":4463,"geometry":{"type":"Point","coordinates":[79.543606135818266,12.658138950941632]},"properties":{"OBJECTID":4463,"stname":"TAMIL NADU","dtname":"Tiruvannamalai","STCODE11":"33","DTCODE11":"606","SDTCODE11":"05732","NAME11":"Cheyyar","LOC_NAME":"Cheyyar"}},{"type":"Feature","id":4464,"geometry":{"type":"Point","coordinates":[79.119635949971439,12.513265083641279]},"properties":{"OBJECTID":4464,"stname":"TAMIL NADU","dtname":"Tiruvannamalai","STCODE11":"33","DTCODE11":"606","SDTCODE11":"05734","NAME11":"Polur","LOC_NAME":"Polur"}},{"type":"Feature","id":4465,"geometry":{"type":"Point","coordinates":[79.285286738243911,12.6699407898465]},"properties":{"OBJECTID":4465,"stname":"TAMIL NADU","dtname":"Tiruvannamalai","STCODE11":"33","DTCODE11":"606","SDTCODE11":"05731","NAME11":"Arani","LOC_NAME":"Arani"}},{"type":"Feature","id":4466,"geometry":{"type":"Point","coordinates":[79.605712926378771,12.507693961365728]},"properties":{"OBJECTID":4466,"stname":"TAMIL NADU","dtname":"Tiruvannamalai","STCODE11":"33","DTCODE11":"606","SDTCODE11":"05733","NAME11":"Vandavasi","LOC_NAME":"Vandavasi"}},{"type":"Feature","id":4467,"geometry":{"type":"Point","coordinates":[79.652984513434177,12.237206216127886]},"properties":{"OBJECTID":4467,"stname":"TAMIL NADU","dtname":"Viluppuram","STCODE11":"33","DTCODE11":"607","SDTCODE11":"05739","NAME11":"Tindivanam","LOC_NAME":"Tindivanam"}},{"type":"Feature","id":4468,"geometry":{"type":"Point","coordinates":[79.376592902398755,10.958993378792288]},"properties":{"OBJECTID":4468,"stname":"TAMIL NADU","dtname":"Thanjavur","STCODE11":"33","DTCODE11":"620","SDTCODE11":"05834","NAME11":"Kumbakonam","LOC_NAME":"Kumbakonam"}},{"type":"Feature","id":4469,"geometry":{"type":"Point","coordinates":[79.612241721065303,10.879330137537981]},"properties":{"OBJECTID":4469,"stname":"TAMIL NADU","dtname":"Thiruvarur","STCODE11":"33","DTCODE11":"619","SDTCODE11":"05828","NAME11":"Nannilam","LOC_NAME":"Nannilam"}},{"type":"Feature","id":4470,"geometry":{"type":"Point","coordinates":[77.351278222162861,11.100291275432298]},"properties":{"OBJECTID":4470,"stname":"TAMIL NADU","dtname":"Tiruppur","STCODE11":"33","DTCODE11":"633","SDTCODE11":"05779","NAME11":"Tiruppur","LOC_NAME":"Tiruppur"}},{"type":"Feature","id":4471,"geometry":{"type":"Point","coordinates":[78.338070684266341,10.031940620623148]},"properties":{"OBJECTID":4471,"stname":"TAMIL NADU","dtname":"Madurai","STCODE11":"33","DTCODE11":"623","SDTCODE11":"05858","NAME11":"Melur","LOC_NAME":"Melur"}},{"type":"Feature","id":4472,"geometry":{"type":"Point","coordinates":[77.899016956552416,11.380669910073005]},"properties":{"OBJECTID":4472,"stname":"TAMIL NADU","dtname":"Namakkal","STCODE11":"33","DTCODE11":"609","SDTCODE11":"05755","NAME11":"Tiruchengode","LOC_NAME":"Tiruchengode"}},{"type":"Feature","id":4473,"geometry":{"type":"Point","coordinates":[78.427032992927906,10.933062370779169]},"properties":{"OBJECTID":4473,"stname":"TAMIL NADU","dtname":"Karur","STCODE11":"33","DTCODE11":"613","SDTCODE11":"05794","NAME11":"Kulithalai","LOC_NAME":"Kulithalai"}},{"type":"Feature","id":4474,"geometry":{"type":"Point","coordinates":[78.600373341167838,11.594789594876211]},"properties":{"OBJECTID":4474,"stname":"TAMIL NADU","dtname":"Salem","STCODE11":"33","DTCODE11":"608","SDTCODE11":"05753","NAME11":"Attur","LOC_NAME":"Attur"}},{"type":"Feature","id":4475,"geometry":{"type":"Point","coordinates":[77.86872709108529,11.477209312038283]},"properties":{"OBJECTID":4475,"stname":"TAMIL NADU","dtname":"Salem","STCODE11":"33","DTCODE11":"608","SDTCODE11":"05749","NAME11":"Sankari","LOC_NAME":"Sankari"}},{"type":"Feature","id":4476,"geometry":{"type":"Point","coordinates":[77.681643021156518,11.445107999090407]},"properties":{"OBJECTID":4476,"stname":"TAMIL NADU","dtname":"Erode","STCODE11":"33","DTCODE11":"610","SDTCODE11":"05760","NAME11":"Bhavani","LOC_NAME":"Bhavani"}},{"type":"Feature","id":4477,"geometry":{"type":"Point","coordinates":[79.322041785997399,11.513370931559786]},"properties":{"OBJECTID":4477,"stname":"TAMIL NADU","dtname":"Cuddalore","STCODE11":"33","DTCODE11":"617","SDTCODE11":"05816","NAME11":"Virudhachalam","LOC_NAME":"Virudhachalam"}},{"type":"Feature","id":4478,"geometry":{"type":"Point","coordinates":[78.567329359617204,12.494012587620769]},"properties":{"OBJECTID":4478,"stname":"TAMIL NADU","dtname":"Vellore","STCODE11":"33","DTCODE11":"605","SDTCODE11":"05720","NAME11":"Tirupathur","LOC_NAME":"Tirupathur"}},{"type":"Feature","id":4479,"geometry":{"type":"Point","coordinates":[77.983646188440446,9.8232993216732005]},"properties":{"OBJECTID":4479,"stname":"TAMIL NADU","dtname":"Madurai","STCODE11":"33","DTCODE11":"623","SDTCODE11":"05863","NAME11":"Thirumangalam","LOC_NAME":"Thirumangalam"}},{"type":"Feature","id":4480,"geometry":{"type":"Point","coordinates":[78.979239417534671,10.361137941866204]},"properties":{"OBJECTID":4480,"stname":"TAMIL NADU","dtname":"Pudukkottai","STCODE11":"33","DTCODE11":"621","SDTCODE11":"05847","NAME11":"Alangudi","LOC_NAME":"Alangudi"}},{"type":"Feature","id":4481,"geometry":{"type":"Point","coordinates":[78.999357232339989,10.174253362781766]},"properties":{"OBJECTID":4481,"stname":"TAMIL NADU","dtname":"Pudukkottai","STCODE11":"33","DTCODE11":"621","SDTCODE11":"05849","NAME11":"Aranthangi","LOC_NAME":"Aranthangi"}},{"type":"Feature","id":4482,"geometry":{"type":"Point","coordinates":[79.315738304953811,10.428465949578058]},"properties":{"OBJECTID":4482,"stname":"TAMIL NADU","dtname":"Thanjavur","STCODE11":"33","DTCODE11":"620","SDTCODE11":"05839","NAME11":"Pattukkottai","LOC_NAME":"Pattukkottai"}},{"type":"Feature","id":4483,"geometry":{"type":"Point","coordinates":[79.444584111719422,10.662786106948692]},"properties":{"OBJECTID":4483,"stname":"TAMIL NADU","dtname":"Thiruvarur","STCODE11":"33","DTCODE11":"619","SDTCODE11":"05831","NAME11":"Mannargudi","LOC_NAME":"Mannargudi"}},{"type":"Feature","id":4484,"geometry":{"type":"Point","coordinates":[79.265918862190645,10.927135854706822]},"properties":{"OBJECTID":4484,"stname":"TAMIL NADU","dtname":"Thanjavur","STCODE11":"33","DTCODE11":"620","SDTCODE11":"05835","NAME11":"Papanasam","LOC_NAME":"Papanasam"}},{"type":"Feature","id":4485,"geometry":{"type":"Point","coordinates":[79.693117030823245,11.399153314723405]},"properties":{"OBJECTID":4485,"stname":"TAMIL NADU","dtname":"Cuddalore","STCODE11":"33","DTCODE11":"617","SDTCODE11":"05814","NAME11":"Chidambaram","LOC_NAME":"Chidambaram"}},{"type":"Feature","id":4486,"geometry":{"type":"Point","coordinates":[79.417168886602525,12.252726262214003]},"properties":{"OBJECTID":4486,"stname":"TAMIL NADU","dtname":"Viluppuram","STCODE11":"33","DTCODE11":"607","SDTCODE11":"05738","NAME11":"Gingee","LOC_NAME":"Gingee"}},{"type":"Feature","id":4487,"geometry":{"type":"Point","coordinates":[79.202791066241147,11.966870136124186]},"properties":{"OBJECTID":4487,"stname":"TAMIL NADU","dtname":"Viluppuram","STCODE11":"33","DTCODE11":"607","SDTCODE11":"05742","NAME11":"Tirukkoyilur","LOC_NAME":"Tirukkoyilur"}},{"type":"Feature","id":4488,"geometry":{"type":"Point","coordinates":[78.792991652185989,12.311689525867806]},"properties":{"OBJECTID":4488,"stname":"TAMIL NADU","dtname":"Tiruvannamalai","STCODE11":"33","DTCODE11":"606","SDTCODE11":"05735","NAME11":"Chengam","LOC_NAME":"Chengam"}},{"type":"Feature","id":4489,"geometry":{"type":"Point","coordinates":[77.31484506682682,8.9567108434683522]},"properties":{"OBJECTID":4489,"stname":"TAMIL NADU","dtname":"Tirunelveli","STCODE11":"33","DTCODE11":"628","SDTCODE11":"05896","NAME11":"Tenkasi","LOC_NAME":"Tenkasi"}},{"type":"Feature","id":4490,"geometry":{"type":"Point","coordinates":[78.045106778596264,11.744595430873263]},"properties":{"OBJECTID":4490,"stname":"TAMIL NADU","dtname":"Salem","STCODE11":"33","DTCODE11":"608","SDTCODE11":"05747","NAME11":"Omalur","LOC_NAME":"Omalur"}},{"type":"Feature","id":4491,"geometry":{"type":"Point","coordinates":[78.962301688242476,11.737681536328333]},"properties":{"OBJECTID":4491,"stname":"TAMIL NADU","dtname":"Viluppuram","STCODE11":"33","DTCODE11":"607","SDTCODE11":"05744","NAME11":"Kallakkurichi","LOC_NAME":"Kallakkurichi"}},{"type":"Feature","id":4492,"geometry":{"type":"Point","coordinates":[78.870236178178018,12.948498503146993]},"properties":{"OBJECTID":4492,"stname":"TAMIL NADU","dtname":"Vellore","STCODE11":"33","DTCODE11":"605","SDTCODE11":"05712","NAME11":"Gudiyatham","LOC_NAME":"Gudiyatham"}},{"type":"Feature","id":4493,"geometry":{"type":"Point","coordinates":[78.514600729992949,9.3494035715620214]},"properties":{"OBJECTID":4493,"stname":"TAMIL NADU","dtname":"Ramanathapuram","STCODE11":"33","DTCODE11":"626","SDTCODE11":"05880","NAME11":"Mudukulathur","LOC_NAME":"Mudukulathur"}},{"type":"Feature","id":4494,"geometry":{"type":"Point","coordinates":[79.363955626662261,12.9252610045687]},"properties":{"OBJECTID":4494,"stname":"TAMIL NADU","dtname":"Vellore","STCODE11":"33","DTCODE11":"605","SDTCODE11":"05714","NAME11":"Wallajah","LOC_NAME":"Wallajah"}},{"type":"Feature","id":4495,"geometry":{"type":"Point","coordinates":[77.912367537743648,8.6320735739443624]},"properties":{"OBJECTID":4495,"stname":"TAMIL NADU","dtname":"Thoothukkudi","STCODE11":"33","DTCODE11":"627","SDTCODE11":"05890","NAME11":"Srivaikuntam","LOC_NAME":"Srivaikuntam"}},{"type":"Feature","id":4496,"geometry":{"type":"Point","coordinates":[77.543022430188728,10.122190704511896]},"properties":{"OBJECTID":4496,"stname":"TAMIL NADU","dtname":"Theni","STCODE11":"33","DTCODE11":"624","SDTCODE11":"05866","NAME11":"Periyakulam","LOC_NAME":"Periyakulam"}},{"type":"Feature","id":4497,"geometry":{"type":"Point","coordinates":[76.491538336380145,11.501050000301035]},"properties":{"OBJECTID":4497,"stname":"TAMIL NADU","dtname":"The Nilgiris","STCODE11":"33","DTCODE11":"611","SDTCODE11":"05765","NAME11":"Gudalur","LOC_NAME":"Gudalur"}},{"type":"Feature","id":4498,"geometry":{"type":"Point","coordinates":[77.829073531151195,12.732443513208477]},"properties":{"OBJECTID":4498,"stname":"TAMIL NADU","dtname":"Krishnagiri","STCODE11":"33","DTCODE11":"631","SDTCODE11":"05726","NAME11":"Hosur","LOC_NAME":"Hosur"}},{"type":"Feature","id":4499,"geometry":{"type":"Point","coordinates":[77.923088909998341,9.355757923655311]},"properties":{"OBJECTID":4499,"stname":"TAMIL NADU","dtname":"Virudhunagar","STCODE11":"33","DTCODE11":"625","SDTCODE11":"05877","NAME11":"Sattur","LOC_NAME":"Sattur"}},{"type":"Feature","id":4500,"geometry":{"type":"Point","coordinates":[78.218481849416875,12.532365291570351]},"properties":{"OBJECTID":4500,"stname":"TAMIL NADU","dtname":"Krishnagiri","STCODE11":"33","DTCODE11":"631","SDTCODE11":"05727","NAME11":"Krishnagiri","LOC_NAME":"Krishnagiri"}},{"type":"Feature","id":4501,"geometry":{"type":"Point","coordinates":[79.977825675052088,12.68887862089729]},"properties":{"OBJECTID":4501,"stname":"TAMIL NADU","dtname":"Kancheepuram","STCODE11":"33","DTCODE11":"604","SDTCODE11":"05706","NAME11":"Chengalpattu","LOC_NAME":"Chengalpattu"}},{"type":"Feature","id":4502,"geometry":{"type":"Point","coordinates":[79.886229867998551,12.509888245670712]},"properties":{"OBJECTID":4502,"stname":"TAMIL NADU","dtname":"Kancheepuram","STCODE11":"33","DTCODE11":"604","SDTCODE11":"05710","NAME11":"Maduranthakam","LOC_NAME":"Maduranthakam"}},{"type":"Feature","id":4503,"geometry":{"type":"Point","coordinates":[78.118534262334762,8.4987013986280751]},"properties":{"OBJECTID":4503,"stname":"TAMIL NADU","dtname":"Thoothukkudi","STCODE11":"33","DTCODE11":"627","SDTCODE11":"05891","NAME11":"Tiruchendur","LOC_NAME":"Tiruchendur"}},{"type":"Feature","id":4504,"geometry":{"type":"Point","coordinates":[78.441800264034555,10.951557730793446]},"properties":{"OBJECTID":4504,"stname":"TAMIL NADU","dtname":"Tiruchirappalli","STCODE11":"33","DTCODE11":"614","SDTCODE11":"05797","NAME11":"Musiri","LOC_NAME":"Musiri"}},{"type":"Feature","id":4505,"geometry":{"type":"Point","coordinates":[78.481422665902997,12.052881403051154]},"properties":{"OBJECTID":4505,"stname":"TAMIL NADU","dtname":"Dharmapuri","STCODE11":"33","DTCODE11":"630","SDTCODE11":"05722","NAME11":"Harur","LOC_NAME":"Harur"}},{"type":"Feature","id":4506,"geometry":{"type":"Point","coordinates":[78.093219514846055,9.5095045030236331]},"properties":{"OBJECTID":4506,"stname":"TAMIL NADU","dtname":"Virudhunagar","STCODE11":"33","DTCODE11":"625","SDTCODE11":"05876","NAME11":"Aruppukkottai","LOC_NAME":"Aruppukkottai"}},{"type":"Feature","id":4507,"geometry":{"type":"Point","coordinates":[77.633346278495509,9.512323509695916]},"properties":{"OBJECTID":4507,"stname":"TAMIL NADU","dtname":"Virudhunagar","STCODE11":"33","DTCODE11":"625","SDTCODE11":"05871","NAME11":"Srivilliputhur","LOC_NAME":"Srivilliputhur"}},{"type":"Feature","id":4508,"geometry":{"type":"Point","coordinates":[77.873759174829189,9.1781627562293142]},"properties":{"OBJECTID":4508,"stname":"TAMIL NADU","dtname":"Thoothukkudi","STCODE11":"33","DTCODE11":"627","SDTCODE11":"05885","NAME11":"Kovilpatti","LOC_NAME":"Kovilpatti"}},{"type":"Feature","id":4509,"geometry":{"type":"Point","coordinates":[78.819765417307991,10.871400023010715]},"properties":{"OBJECTID":4509,"stname":"TAMIL NADU","dtname":"Tiruchirappalli","STCODE11":"33","DTCODE11":"614","SDTCODE11":"05800","NAME11":"Lalgudi","LOC_NAME":"Lalgudi"}},{"type":"Feature","id":4510,"geometry":{"type":"Point","coordinates":[79.737825802526501,11.23879735821739]},"properties":{"OBJECTID":4510,"stname":"TAMIL NADU","dtname":"Nagapattinam","STCODE11":"33","DTCODE11":"618","SDTCODE11":"05818","NAME11":"Sirkali","LOC_NAME":"Sirkali"}},{"type":"Feature","id":4511,"geometry":{"type":"Point","coordinates":[80.189657680678067,13.334340210414208]},"properties":{"OBJECTID":4511,"stname":"TAMIL NADU","dtname":"Thiruvallur","STCODE11":"33","DTCODE11":"602","SDTCODE11":"05694","NAME11":"Ponneri","LOC_NAME":"Ponneri"}},{"type":"Feature","id":4512,"geometry":{"type":"Point","coordinates":[79.614659300395601,13.176217649038502]},"properties":{"OBJECTID":4512,"stname":"TAMIL NADU","dtname":"Thiruvallur","STCODE11":"33","DTCODE11":"602","SDTCODE11":"05696","NAME11":"Tiruttani","LOC_NAME":"Tiruttani"}},{"type":"Feature","id":4513,"geometry":{"type":"Point","coordinates":[79.946771826571791,12.968412742709949]},"properties":{"OBJECTID":4513,"stname":"TAMIL NADU","dtname":"Kancheepuram","STCODE11":"33","DTCODE11":"604","SDTCODE11":"05702","NAME11":"Sriperumbudur","LOC_NAME":"Sriperumbudur"}},{"type":"Feature","id":4514,"geometry":{"type":"Point","coordinates":[76.935644504560599,11.307756984441344]},"properties":{"OBJECTID":4514,"stname":"TAMIL NADU","dtname":"Coimbatore","STCODE11":"33","DTCODE11":"632","SDTCODE11":"05770","NAME11":"Mettupalayam","LOC_NAME":"Mettupalayam"}},{"type":"Feature","id":4515,"geometry":{"type":"Point","coordinates":[77.50117216329653,8.8664620855687399]},"properties":{"OBJECTID":4515,"stname":"TAMIL NADU","dtname":"Tirunelveli","STCODE11":"33","DTCODE11":"628","SDTCODE11":"05898","NAME11":"Alangulam","LOC_NAME":"Alangulam"}},{"type":"Feature","id":4516,"geometry":{"type":"Point","coordinates":[77.427511588301414,9.3432352452490832]},"properties":{"OBJECTID":4516,"stname":"TAMIL NADU","dtname":"Tirunelveli","STCODE11":"33","DTCODE11":"628","SDTCODE11":"05893","NAME11":"Sivagiri","LOC_NAME":"Sivagiri"}},{"type":"Feature","id":4517,"geometry":{"type":"Point","coordinates":[77.511089979953212,8.0981726578320803]},"properties":{"OBJECTID":4517,"stname":"TAMIL NADU","dtname":"Kanniyakumari","STCODE11":"33","DTCODE11":"629","SDTCODE11":"05907","NAME11":"Agastheeswaram","LOC_NAME":"Agastheeswaram"}},{"type":"Feature","id":4518,"geometry":{"type":"Point","coordinates":[77.687207967560681,8.2656536698033225]},"properties":{"OBJECTID":4518,"stname":"TAMIL NADU","dtname":"Tirunelveli","STCODE11":"33","DTCODE11":"628","SDTCODE11":"05903","NAME11":"Radhapuram","LOC_NAME":"Radhapuram"}},{"type":"Feature","id":4519,"geometry":{"type":"Point","coordinates":[78.496662465222158,9.2227039166389257]},"properties":{"OBJECTID":4519,"stname":"TAMIL NADU","dtname":"Ramanathapuram","STCODE11":"33","DTCODE11":"626","SDTCODE11":"05882","NAME11":"Kadaladi","LOC_NAME":"Kadaladi"}},{"type":"Feature","id":4520,"geometry":{"type":"Point","coordinates":[78.367487673839889,9.408473643900324]},"properties":{"OBJECTID":4520,"stname":"TAMIL NADU","dtname":"Ramanathapuram","STCODE11":"33","DTCODE11":"626","SDTCODE11":"05881","NAME11":"Kamuthi","LOC_NAME":"Kamuthi"}},{"type":"Feature","id":4521,"geometry":{"type":"Point","coordinates":[78.455149239936375,9.695863581313743]},"properties":{"OBJECTID":4521,"stname":"TAMIL NADU","dtname":"Sivaganga","STCODE11":"33","DTCODE11":"622","SDTCODE11":"05856","NAME11":"Manamadurai","LOC_NAME":"Manamadurai"}},{"type":"Feature","id":4522,"geometry":{"type":"Point","coordinates":[78.625366528615729,9.6277307829124705]},"properties":{"OBJECTID":4522,"stname":"TAMIL NADU","dtname":"Sivaganga","STCODE11":"33","DTCODE11":"622","SDTCODE11":"05857","NAME11":"Ilayangudi","LOC_NAME":"Ilayangudi"}},{"type":"Feature","id":4523,"geometry":{"type":"Point","coordinates":[78.769180079916737,10.066468317149914]},"properties":{"OBJECTID":4523,"stname":"TAMIL NADU","dtname":"Sivaganga","STCODE11":"33","DTCODE11":"622","SDTCODE11":"05853","NAME11":"Karaikkudi","LOC_NAME":"Karaikkudi"}},{"type":"Feature","id":4524,"geometry":{"type":"Point","coordinates":[78.229150263290663,10.225675811923765]},"properties":{"OBJECTID":4524,"stname":"TAMIL NADU","dtname":"Dindigul","STCODE11":"33","DTCODE11":"612","SDTCODE11":"05786","NAME11":"Natham","LOC_NAME":"Natham"}},{"type":"Feature","id":4525,"geometry":{"type":"Point","coordinates":[77.240411394511611,11.504910024812343]},"properties":{"OBJECTID":4525,"stname":"TAMIL NADU","dtname":"Erode","STCODE11":"33","DTCODE11":"610","SDTCODE11":"05759","NAME11":"Sathyamangalam","LOC_NAME":"Sathyamangalam"}},{"type":"Feature","id":4526,"geometry":{"type":"Point","coordinates":[79.324239053504272,12.904643966111829]},"properties":{"OBJECTID":4526,"stname":"TAMIL NADU","dtname":"Vellore","STCODE11":"33","DTCODE11":"605","SDTCODE11":"05716","NAME11":"Arcot","LOC_NAME":"Arcot"}},{"type":"Feature","id":4527,"geometry":{"type":"Point","coordinates":[78.614679248324393,12.679321880335934]},"properties":{"OBJECTID":4527,"stname":"TAMIL NADU","dtname":"Vellore","STCODE11":"33","DTCODE11":"605","SDTCODE11":"05718","NAME11":"Vaniyambadi","LOC_NAME":"Vaniyambadi"}},{"type":"Feature","id":4528,"geometry":{"type":"Point","coordinates":[79.733444747631921,12.024642614611912]},"properties":{"OBJECTID":4528,"stname":"TAMIL NADU","dtname":"Viluppuram","STCODE11":"33","DTCODE11":"607","SDTCODE11":"05740","NAME11":"Vanur","LOC_NAME":"Vanur"}},{"type":"Feature","id":4529,"geometry":{"type":"Point","coordinates":[79.172141114685587,11.252422443143717]},"properties":{"OBJECTID":4529,"stname":"TAMIL NADU","dtname":"Ariyalur","STCODE11":"33","DTCODE11":"616","SDTCODE11":"05808","NAME11":"Sendurai","LOC_NAME":"Sendurai"}},{"type":"Feature","id":4530,"geometry":{"type":"Point","coordinates":[78.824038464162669,9.9456860638722251]},"properties":{"OBJECTID":4530,"stname":"TAMIL NADU","dtname":"Sivaganga","STCODE11":"33","DTCODE11":"622","SDTCODE11":"05854","NAME11":"Devakottai","LOC_NAME":"Devakottai"}},{"type":"Feature","id":4531,"geometry":{"type":"Point","coordinates":[76.95542089218425,10.328664922310086]},"properties":{"OBJECTID":4531,"stname":"TAMIL NADU","dtname":"Coimbatore","STCODE11":"33","DTCODE11":"632","SDTCODE11":"05775","NAME11":"Valparai","LOC_NAME":"Valparai"}},{"type":"Feature","id":4532,"geometry":{"type":"Point","coordinates":[77.579639764412519,11.279294507649738]},"properties":{"OBJECTID":4532,"stname":"TAMIL NADU","dtname":"Erode","STCODE11":"33","DTCODE11":"610","SDTCODE11":"05762","NAME11":"Perundurai","LOC_NAME":"Perundurai"}},{"type":"Feature","id":4533,"geometry":{"type":"Point","coordinates":[77.561011565655747,11.006182081630826]},"properties":{"OBJECTID":4533,"stname":"TAMIL NADU","dtname":"Tiruppur","STCODE11":"33","DTCODE11":"633","SDTCODE11":"05776","NAME11":"Kangeyam","LOC_NAME":"Kangeyam"}},{"type":"Feature","id":4534,"geometry":{"type":"Point","coordinates":[77.96133524556511,10.08437898316331]},"properties":{"OBJECTID":4534,"stname":"TAMIL NADU","dtname":"Madurai","STCODE11":"33","DTCODE11":"623","SDTCODE11":"05860","NAME11":"Vadipatti","LOC_NAME":"Vadipatti"}},{"type":"Feature","id":4535,"geometry":{"type":"Point","coordinates":[78.021238918789621,11.155912291592335]},"properties":{"OBJECTID":4535,"stname":"TAMIL NADU","dtname":"Namakkal","STCODE11":"33","DTCODE11":"609","SDTCODE11":"05758","NAME11":"Paramathi-Velur","LOC_NAME":"Paramathi-Velur"}},{"type":"Feature","id":4536,"geometry":{"type":"Point","coordinates":[78.621514723357336,10.5133467154096]},"properties":{"OBJECTID":4536,"stname":"TAMIL NADU","dtname":"Pudukkottai","STCODE11":"33","DTCODE11":"621","SDTCODE11":"05841","NAME11":"Iluppur","LOC_NAME":"Iluppur"}},{"type":"Feature","id":4537,"geometry":{"type":"Point","coordinates":[77.789099849379127,9.9652779349144485]},"properties":{"OBJECTID":4537,"stname":"TAMIL NADU","dtname":"Madurai","STCODE11":"33","DTCODE11":"623","SDTCODE11":"05861","NAME11":"Usilampatti","LOC_NAME":"Usilampatti"}},{"type":"Feature","id":4538,"geometry":{"type":"Point","coordinates":[78.914107033723596,11.888574570478722]},"properties":{"OBJECTID":4538,"stname":"TAMIL NADU","dtname":"Viluppuram","STCODE11":"33","DTCODE11":"607","SDTCODE11":"05743","NAME11":"Sankarapuram","LOC_NAME":"Sankarapuram"}},{"type":"Feature","id":4539,"geometry":{"type":"Point","coordinates":[78.21166393554941,11.781398190014961]},"properties":{"OBJECTID":4539,"stname":"TAMIL NADU","dtname":"Salem","STCODE11":"33","DTCODE11":"608","SDTCODE11":"05751","NAME11":"Yercaud","LOC_NAME":"Yercaud"}},{"type":"Feature","id":4540,"geometry":{"type":"Point","coordinates":[78.646064788943576,11.497828115766296]},"properties":{"OBJECTID":4540,"stname":"TAMIL NADU","dtname":"Salem","STCODE11":"33","DTCODE11":"608","SDTCODE11":"05754","NAME11":"Gangavalli","LOC_NAME":"Gangavalli"}},{"type":"Feature","id":4541,"geometry":{"type":"Point","coordinates":[78.401556680740427,11.655798561746145]},"properties":{"OBJECTID":4541,"stname":"TAMIL NADU","dtname":"Salem","STCODE11":"33","DTCODE11":"608","SDTCODE11":"05752","NAME11":"Vazhapadi","LOC_NAME":"Vazhapadi"}},{"type":"Feature","id":4542,"geometry":{"type":"Point","coordinates":[79.118934774467959,11.401085927546898]},"properties":{"OBJECTID":4542,"stname":"TAMIL NADU","dtname":"Cuddalore","STCODE11":"33","DTCODE11":"617","SDTCODE11":"05817","NAME11":"Tittakudi","LOC_NAME":"Tittakudi"}},{"type":"Feature","id":4543,"geometry":{"type":"Point","coordinates":[79.015880098074376,10.573339780977163]},"properties":{"OBJECTID":4543,"stname":"TAMIL NADU","dtname":"Pudukkottai","STCODE11":"33","DTCODE11":"621","SDTCODE11":"05843","NAME11":"Gandarvakkottai","LOC_NAME":"Gandarvakkottai"}},{"type":"Feature","id":4544,"geometry":{"type":"Point","coordinates":[79.199346213077817,10.284805584429545]},"properties":{"OBJECTID":4544,"stname":"TAMIL NADU","dtname":"Thanjavur","STCODE11":"33","DTCODE11":"620","SDTCODE11":"05840","NAME11":"Peravurani","LOC_NAME":"Peravurani"}},{"type":"Feature","id":4545,"geometry":{"type":"Point","coordinates":[79.293242610065562,11.187493836531631]},"properties":{"OBJECTID":4545,"stname":"TAMIL NADU","dtname":"Ariyalur","STCODE11":"33","DTCODE11":"616","SDTCODE11":"05809","NAME11":"Udayarpalayam","LOC_NAME":"Udayarpalayam"}},{"type":"Feature","id":4546,"geometry":{"type":"Point","coordinates":[79.551478786813632,11.773004716683305]},"properties":{"OBJECTID":4546,"stname":"TAMIL NADU","dtname":"Cuddalore","STCODE11":"33","DTCODE11":"617","SDTCODE11":"05811","NAME11":"Panruti","LOC_NAME":"Panruti"}},{"type":"Feature","id":4547,"geometry":{"type":"Point","coordinates":[79.288263688620162,11.691487036616619]},"properties":{"OBJECTID":4547,"stname":"TAMIL NADU","dtname":"Viluppuram","STCODE11":"33","DTCODE11":"607","SDTCODE11":"05745","NAME11":"Ulundurpettai","LOC_NAME":"Ulundurpettai"}},{"type":"Feature","id":4548,"geometry":{"type":"Point","coordinates":[77.909055318137064,10.776766155006955]},"properties":{"OBJECTID":4548,"stname":"TAMIL NADU","dtname":"Karur","STCODE11":"33","DTCODE11":"613","SDTCODE11":"05791","NAME11":"Aravakurichi","LOC_NAME":"Aravakurichi"}},{"type":"Feature","id":4549,"geometry":{"type":"Point","coordinates":[77.797785074159719,11.787817950770766]},"properties":{"OBJECTID":4549,"stname":"TAMIL NADU","dtname":"Salem","STCODE11":"33","DTCODE11":"608","SDTCODE11":"05746","NAME11":"Mettur","LOC_NAME":"Mettur"}},{"type":"Feature","id":4550,"geometry":{"type":"Point","coordinates":[77.947660775899905,10.531020284278455]},"properties":{"OBJECTID":4550,"stname":"TAMIL NADU","dtname":"Dindigul","STCODE11":"33","DTCODE11":"612","SDTCODE11":"05785","NAME11":"Vedasandur","LOC_NAME":"Vedasandur"}},{"type":"Feature","id":4551,"geometry":{"type":"Point","coordinates":[79.043535028743406,10.07658962609427]},"properties":{"OBJECTID":4551,"stname":"TAMIL NADU","dtname":"Pudukkottai","STCODE11":"33","DTCODE11":"621","SDTCODE11":"05851","NAME11":"Avudayarkoil","LOC_NAME":"Avudayarkoil"}},{"type":"Feature","id":4552,"geometry":{"type":"Point","coordinates":[76.62558739727379,11.27529426053589]},"properties":{"OBJECTID":4552,"stname":"TAMIL NADU","dtname":"The Nilgiris","STCODE11":"33","DTCODE11":"611","SDTCODE11":"05769","NAME11":"Kundah","LOC_NAME":"Kundah"}},{"type":"Feature","id":4553,"geometry":{"type":"Point","coordinates":[78.021937293346042,8.9151664766337131]},"properties":{"OBJECTID":4553,"stname":"TAMIL NADU","dtname":"Thoothukkudi","STCODE11":"33","DTCODE11":"627","SDTCODE11":"05888","NAME11":"Ottapidaram","LOC_NAME":"Ottapidaram"}},{"type":"Feature","id":4554,"geometry":{"type":"Point","coordinates":[77.790134278293422,12.526929094923021]},"properties":{"OBJECTID":4554,"stname":"TAMIL NADU","dtname":"Krishnagiri","STCODE11":"33","DTCODE11":"631","SDTCODE11":"05728","NAME11":"Denkanikottai","LOC_NAME":"Denkanikottai"}},{"type":"Feature","id":4555,"geometry":{"type":"Point","coordinates":[79.89861494441395,13.335448125504573]},"properties":{"OBJECTID":4555,"stname":"TAMIL NADU","dtname":"Thiruvallur","STCODE11":"33","DTCODE11":"602","SDTCODE11":"05695","NAME11":"Uthukkottai","LOC_NAME":"Uthukkottai"}},{"type":"Feature","id":4556,"geometry":{"type":"Point","coordinates":[80.0977638871734,13.050000374065725]},"properties":{"OBJECTID":4556,"stname":"TAMIL NADU","dtname":"Thiruvallur","STCODE11":"33","DTCODE11":"602","SDTCODE11":"05699","NAME11":"Poonamallee","LOC_NAME":"Poonamallee"}},{"type":"Feature","id":4557,"geometry":{"type":"Point","coordinates":[80.056855282871055,12.609762102079831]},"properties":{"OBJECTID":4557,"stname":"TAMIL NADU","dtname":"Kancheepuram","STCODE11":"33","DTCODE11":"604","SDTCODE11":"05709","NAME11":"Tirukalukundram","LOC_NAME":"Tirukalukundram"}},{"type":"Feature","id":4558,"geometry":{"type":"Point","coordinates":[80.004802728922897,12.349796010902027]},"properties":{"OBJECTID":4558,"stname":"TAMIL NADU","dtname":"Kancheepuram","STCODE11":"33","DTCODE11":"604","SDTCODE11":"05711","NAME11":"Cheyyur","LOC_NAME":"Cheyyur"}},{"type":"Feature","id":4559,"geometry":{"type":"Point","coordinates":[79.758350971872105,12.614892471758289]},"properties":{"OBJECTID":4559,"stname":"TAMIL NADU","dtname":"Kancheepuram","STCODE11":"33","DTCODE11":"604","SDTCODE11":"05708","NAME11":"Uthiramerur","LOC_NAME":"Uthiramerur"}},{"type":"Feature","id":4560,"geometry":{"type":"Point","coordinates":[78.42369881849578,10.608547683411198]},"properties":{"OBJECTID":4560,"stname":"TAMIL NADU","dtname":"Tiruchirappalli","STCODE11":"33","DTCODE11":"614","SDTCODE11":"05804","NAME11":"Manapparai","LOC_NAME":"Manapparai"}},{"type":"Feature","id":4561,"geometry":{"type":"Point","coordinates":[79.850630197430874,10.375328266467854]},"properties":{"OBJECTID":4561,"stname":"TAMIL NADU","dtname":"Nagapattinam","STCODE11":"33","DTCODE11":"618","SDTCODE11":"05825","NAME11":"Vedaranyam","LOC_NAME":"Vedaranyam"}},{"type":"Feature","id":4562,"geometry":{"type":"Point","coordinates":[77.351785126206295,10.012414362002188]},"properties":{"OBJECTID":4562,"stname":"TAMIL NADU","dtname":"Theni","STCODE11":"33","DTCODE11":"624","SDTCODE11":"05865","NAME11":"Bodinayakanur","LOC_NAME":"Bodinayakanur"}},{"type":"Feature","id":4563,"geometry":{"type":"Point","coordinates":[77.914802880360341,8.4434765278695743]},"properties":{"OBJECTID":4563,"stname":"TAMIL NADU","dtname":"Thoothukkudi","STCODE11":"33","DTCODE11":"627","SDTCODE11":"05892","NAME11":"Sathankulam","LOC_NAME":"Sathankulam"}},{"type":"Feature","id":4564,"geometry":{"type":"Point","coordinates":[78.199972425008667,9.5356426070899634]},"properties":{"OBJECTID":4564,"stname":"TAMIL NADU","dtname":"Virudhunagar","STCODE11":"33","DTCODE11":"625","SDTCODE11":"05875","NAME11":"Tiruchuli","LOC_NAME":"Tiruchuli"}},{"type":"Feature","id":4565,"geometry":{"type":"Point","coordinates":[78.53258889527946,12.265477076807549]},"properties":{"OBJECTID":4565,"stname":"TAMIL NADU","dtname":"Krishnagiri","STCODE11":"33","DTCODE11":"631","SDTCODE11":"05730","NAME11":"Uthangarai","LOC_NAME":"Uthangarai"}},{"type":"Feature","id":4566,"geometry":{"type":"Point","coordinates":[77.337729431297475,9.806924186314248]},"properties":{"OBJECTID":4566,"stname":"TAMIL NADU","dtname":"Theni","STCODE11":"33","DTCODE11":"624","SDTCODE11":"05868","NAME11":"Uthamapalayam","LOC_NAME":"Uthamapalayam"}},{"type":"Feature","id":4567,"geometry":{"type":"Point","coordinates":[78.692743029770668,10.858997131052849]},"properties":{"OBJECTID":4567,"stname":"TAMIL NADU","dtname":"Tiruchirappalli","STCODE11":"33","DTCODE11":"614","SDTCODE11":"05801","NAME11":"Srirangam","LOC_NAME":"Srirangam"}},{"type":"Feature","id":4568,"geometry":{"type":"Point","coordinates":[78.168332710571434,9.1305998772743777]},"properties":{"OBJECTID":4568,"stname":"TAMIL NADU","dtname":"Thoothukkudi","STCODE11":"33","DTCODE11":"627","SDTCODE11":"05887","NAME11":"Vilathikulam","LOC_NAME":"Vilathikulam"}},{"type":"Feature","id":4569,"geometry":{"type":"Point","coordinates":[77.989112353400984,9.1474919947928814]},"properties":{"OBJECTID":4569,"stname":"TAMIL NADU","dtname":"Thoothukkudi","STCODE11":"33","DTCODE11":"627","SDTCODE11":"05886","NAME11":"Ettayapuram","LOC_NAME":"Ettayapuram"}},{"type":"Feature","id":4570,"geometry":{"type":"Point","coordinates":[77.797591398282776,9.4484486388044129]},"properties":{"OBJECTID":4570,"stname":"TAMIL NADU","dtname":"Virudhunagar","STCODE11":"33","DTCODE11":"625","SDTCODE11":"05872","NAME11":"Sivakasi","LOC_NAME":"Sivakasi"}},{"type":"Feature","id":4571,"geometry":{"type":"Point","coordinates":[79.740373977136159,10.766840164399147]},"properties":{"OBJECTID":4571,"stname":"TAMIL NADU","dtname":"Nagapattinam","STCODE11":"33","DTCODE11":"618","SDTCODE11":"05823","NAME11":"Kilvelur","LOC_NAME":"Kilvelur"}},{"type":"Feature","id":4572,"geometry":{"type":"Point","coordinates":[79.853821050151012,11.027640597244947]},"properties":{"OBJECTID":4572,"stname":"TAMIL NADU","dtname":"Nagapattinam","STCODE11":"33","DTCODE11":"618","SDTCODE11":"05821","NAME11":"Tharangambadi","LOC_NAME":"Tharangambadi"}},{"type":"Feature","id":4573,"geometry":{"type":"Point","coordinates":[80.118588772227042,13.398590254397357]},"properties":{"OBJECTID":4573,"stname":"TAMIL NADU","dtname":"Thiruvallur","STCODE11":"33","DTCODE11":"602","SDTCODE11":"05693","NAME11":"Gummidipoondi","LOC_NAME":"Gummidipoondi"}},{"type":"Feature","id":4574,"geometry":{"type":"Point","coordinates":[78.072607727245824,12.305401869220754]},"properties":{"OBJECTID":4574,"stname":"TAMIL NADU","dtname":"Dharmapuri","STCODE11":"33","DTCODE11":"630","SDTCODE11":"05721","NAME11":"Palakkodu","LOC_NAME":"Palakkodu"}},{"type":"Feature","id":4575,"geometry":{"type":"Point","coordinates":[78.366019480814259,11.913612923723285]},"properties":{"OBJECTID":4575,"stname":"TAMIL NADU","dtname":"Dharmapuri","STCODE11":"33","DTCODE11":"630","SDTCODE11":"05723","NAME11":"Pappireddipatti","LOC_NAME":"Pappireddipatti"}},{"type":"Feature","id":4576,"geometry":{"type":"Point","coordinates":[77.894351996298852,12.134407881533697]},"properties":{"OBJECTID":4576,"stname":"TAMIL NADU","dtname":"Dharmapuri","STCODE11":"33","DTCODE11":"630","SDTCODE11":"05725","NAME11":"Pennagaram","LOC_NAME":"Pennagaram"}},{"type":"Feature","id":4577,"geometry":{"type":"Point","coordinates":[78.103701706164813,9.6761349081417318]},"properties":{"OBJECTID":4577,"stname":"TAMIL NADU","dtname":"Virudhunagar","STCODE11":"33","DTCODE11":"625","SDTCODE11":"05874","NAME11":"Kariapatti","LOC_NAME":"Kariapatti"}},{"type":"Feature","id":4578,"geometry":{"type":"Point","coordinates":[76.953541847476913,11.009019790785246]},"properties":{"OBJECTID":4578,"stname":"TAMIL NADU","dtname":"Coimbatore","STCODE11":"33","DTCODE11":"632","SDTCODE11":"05773","NAME11":"Coimbatore South","LOC_NAME":"Coimbatore South"}},{"type":"Feature","id":4579,"geometry":{"type":"Point","coordinates":[78.161625486214959,11.654179320000553]},"properties":{"OBJECTID":4579,"stname":"TAMIL NADU","dtname":"Salem","STCODE11":"33","DTCODE11":"608","SDTCODE11":"05750","NAME11":"Salem","LOC_NAME":"Salem"}},{"type":"Feature","id":4580,"geometry":{"type":"Point","coordinates":[78.820994020664216,10.383155471992989]},"properties":{"OBJECTID":4580,"stname":"TAMIL NADU","dtname":"Pudukkottai","STCODE11":"33","DTCODE11":"621","SDTCODE11":"05844","NAME11":"Pudukkottai","LOC_NAME":"Pudukkottai"}},{"type":"Feature","id":4581,"geometry":{"type":"Point","coordinates":[78.109219404778273,9.9168389404367474]},"properties":{"OBJECTID":4581,"stname":"TAMIL NADU","dtname":"Madurai","STCODE11":"33","DTCODE11":"623","SDTCODE11":"05864","NAME11":"Madurai South","LOC_NAME":"Madurai South"}},{"type":"Feature","id":4582,"geometry":{"type":"Point","coordinates":[78.839724106340498,9.3651101819506586]},"properties":{"OBJECTID":4582,"stname":"TAMIL NADU","dtname":"Ramanathapuram","STCODE11":"33","DTCODE11":"626","SDTCODE11":"05883","NAME11":"Ramanathapuram","LOC_NAME":"Ramanathapuram"}},{"type":"Feature","id":4583,"geometry":{"type":"Point","coordinates":[79.134823871582938,10.790625195440663]},"properties":{"OBJECTID":4583,"stname":"TAMIL NADU","dtname":"Thanjavur","STCODE11":"33","DTCODE11":"620","SDTCODE11":"05837","NAME11":"Thanjavur","LOC_NAME":"Thanjavur"}},{"type":"Feature","id":4584,"geometry":{"type":"Point","coordinates":[79.07077014973072,12.23091715267692]},"properties":{"OBJECTID":4584,"stname":"TAMIL NADU","dtname":"Tiruvannamalai","STCODE11":"33","DTCODE11":"606","SDTCODE11":"05737","NAME11":"Tiruvannamalai","LOC_NAME":"Tiruvannamalai"}},{"type":"Feature","id":4585,"geometry":{"type":"Point","coordinates":[78.168056832557795,11.218695406170898]},"properties":{"OBJECTID":4585,"stname":"TAMIL NADU","dtname":"Namakkal","STCODE11":"33","DTCODE11":"609","SDTCODE11":"05757","NAME11":"Namakkal","LOC_NAME":"Namakkal"}},{"type":"Feature","id":4586,"geometry":{"type":"Point","coordinates":[78.08233393145575,10.960964280277107]},"properties":{"OBJECTID":4586,"stname":"TAMIL NADU","dtname":"Karur","STCODE11":"33","DTCODE11":"613","SDTCODE11":"05792","NAME11":"Karur","LOC_NAME":"Karur"}},{"type":"Feature","id":4587,"geometry":{"type":"Point","coordinates":[79.492955604093567,11.943712003152454]},"properties":{"OBJECTID":4587,"stname":"TAMIL NADU","dtname":"Viluppuram","STCODE11":"33","DTCODE11":"607","SDTCODE11":"05741","NAME11":"Viluppuram","LOC_NAME":"Viluppuram"}},{"type":"Feature","id":4588,"geometry":{"type":"Point","coordinates":[78.870923280674205,11.234885185264693]},"properties":{"OBJECTID":4588,"stname":"TAMIL NADU","dtname":"Perambalur","STCODE11":"33","DTCODE11":"615","SDTCODE11":"05806","NAME11":"Perambalur","LOC_NAME":"Perambalur"}},{"type":"Feature","id":4589,"geometry":{"type":"Point","coordinates":[79.073346261047419,11.137444496191494]},"properties":{"OBJECTID":4589,"stname":"TAMIL NADU","dtname":"Ariyalur","STCODE11":"33","DTCODE11":"616","SDTCODE11":"05810","NAME11":"Ariyalur","LOC_NAME":"Ariyalur"}},{"type":"Feature","id":4590,"geometry":{"type":"Point","coordinates":[77.976657941418679,10.363687078597247]},"properties":{"OBJECTID":4590,"stname":"TAMIL NADU","dtname":"Dindigul","STCODE11":"33","DTCODE11":"612","SDTCODE11":"05787","NAME11":"Dindigul","LOC_NAME":"Dindigul"}},{"type":"Feature","id":4591,"geometry":{"type":"Point","coordinates":[78.483878270919249,9.8505169848542682]},"properties":{"OBJECTID":4591,"stname":"TAMIL NADU","dtname":"Sivaganga","STCODE11":"33","DTCODE11":"622","SDTCODE11":"05855","NAME11":"Sivaganga","LOC_NAME":"Sivaganga"}},{"type":"Feature","id":4592,"geometry":{"type":"Point","coordinates":[78.16335907930474,12.133469769090027]},"properties":{"OBJECTID":4592,"stname":"TAMIL NADU","dtname":"Dharmapuri","STCODE11":"33","DTCODE11":"630","SDTCODE11":"05724","NAME11":"Dharmapuri","LOC_NAME":"Dharmapuri"}},{"type":"Feature","id":4593,"geometry":{"type":"Point","coordinates":[79.13215722895022,12.918273659821706]},"properties":{"OBJECTID":4593,"stname":"TAMIL NADU","dtname":"Vellore","STCODE11":"33","DTCODE11":"605","SDTCODE11":"05717","NAME11":"Vellore","LOC_NAME":"Vellore"}},{"type":"Feature","id":4594,"geometry":{"type":"Point","coordinates":[76.698126447196287,11.405929730128946]},"properties":{"OBJECTID":4594,"stname":"TAMIL NADU","dtname":"The Nilgiris","STCODE11":"33","DTCODE11":"611","SDTCODE11":"05766","NAME11":"Udhagamandalam","LOC_NAME":"Udhagamandalam"}},{"type":"Feature","id":4595,"geometry":{"type":"Point","coordinates":[77.728739655920492,11.342225059432979]},"properties":{"OBJECTID":4595,"stname":"TAMIL NADU","dtname":"Erode","STCODE11":"33","DTCODE11":"610","SDTCODE11":"05763","NAME11":"Erode","LOC_NAME":"Erode"}},{"type":"Feature","id":4596,"geometry":{"type":"Point","coordinates":[78.690345170257501,10.802200481481755]},"properties":{"OBJECTID":4596,"stname":"TAMIL NADU","dtname":"Tiruchirappalli","STCODE11":"33","DTCODE11":"614","SDTCODE11":"05802","NAME11":"Tiruchirappalli","LOC_NAME":"Tiruchirappalli"}},{"type":"Feature","id":4597,"geometry":{"type":"Point","coordinates":[79.9060842716097,13.143883258076231]},"properties":{"OBJECTID":4597,"stname":"TAMIL NADU","dtname":"Thiruvallur","STCODE11":"33","DTCODE11":"602","SDTCODE11":"05698","NAME11":"Thiruvallur","LOC_NAME":"Thiruvallur"}},{"type":"Feature","id":4598,"geometry":{"type":"Point","coordinates":[77.478087709876135,10.011791541887916]},"properties":{"OBJECTID":4598,"stname":"TAMIL NADU","dtname":"Theni","STCODE11":"33","DTCODE11":"624","SDTCODE11":"05867","NAME11":"Theni","LOC_NAME":"Theni"}},{"type":"Feature","id":4599,"geometry":{"type":"Point","coordinates":[78.15721911769397,8.8094971979316625]},"properties":{"OBJECTID":4599,"stname":"TAMIL NADU","dtname":"Thoothukkudi","STCODE11":"33","DTCODE11":"627","SDTCODE11":"05889","NAME11":"Thoothukkudi","LOC_NAME":"Thoothukkudi"}},{"type":"Feature","id":4600,"geometry":{"type":"Point","coordinates":[79.317802067538082,9.2884614259403442]},"properties":{"OBJECTID":4600,"stname":"TAMIL NADU","dtname":"Ramanathapuram","STCODE11":"33","DTCODE11":"626","SDTCODE11":"05884","NAME11":"Rameswaram","LOC_NAME":"Rameswaram"}},{"type":"Feature","id":4601,"geometry":{"type":"Point","coordinates":[79.10679314239286,10.883469868510288]},"properties":{"OBJECTID":4601,"stname":"TAMIL NADU","dtname":"Thanjavur","STCODE11":"33","DTCODE11":"620","SDTCODE11":"05836","NAME11":"Thiruvaiyaru","LOC_NAME":"Thiruvaiyaru"}},{"type":"Feature","id":4602,"geometry":{"type":"Point","coordinates":[76.794638758952658,11.343935223041301]},"properties":{"OBJECTID":4602,"stname":"TAMIL NADU","dtname":"The Nilgiris","STCODE11":"33","DTCODE11":"611","SDTCODE11":"05768","NAME11":"Coonoor","LOC_NAME":"Coonoor"}},{"type":"Feature","id":4603,"geometry":{"type":"Point","coordinates":[76.859765214781149,11.424709946009473]},"properties":{"OBJECTID":4603,"stname":"TAMIL NADU","dtname":"The Nilgiris","STCODE11":"33","DTCODE11":"611","SDTCODE11":"05767","NAME11":"Kotagiri","LOC_NAME":"Kotagiri"}},{"type":"Feature","id":4604,"geometry":{"type":"Point","coordinates":[77.620450332872963,9.9986031271716023]},"properties":{"OBJECTID":4604,"stname":"TAMIL NADU","dtname":"Theni","STCODE11":"33","DTCODE11":"624","SDTCODE11":"05869","NAME11":"Andipatti","LOC_NAME":"Andipatti"}},{"type":"Feature","id":4605,"geometry":{"type":"Point","coordinates":[79.440604072852537,13.335807782342938]},"properties":{"OBJECTID":4605,"stname":"TAMIL NADU","dtname":"Thiruvallur","STCODE11":"33","DTCODE11":"602","SDTCODE11":"05697","NAME11":"Pallipattu","LOC_NAME":"Pallipattu"}},{"type":"Feature","id":4606,"geometry":{"type":"Point","coordinates":[79.482953087983731,10.858293880103428]},"properties":{"OBJECTID":4606,"stname":"TAMIL NADU","dtname":"Thiruvarur","STCODE11":"33","DTCODE11":"619","SDTCODE11":"05827","NAME11":"Kodavasal","LOC_NAME":"Kodavasal"}},{"type":"Feature","id":4607,"geometry":{"type":"Point","coordinates":[79.416005607835459,10.769798397101864]},"properties":{"OBJECTID":4607,"stname":"TAMIL NADU","dtname":"Thiruvarur","STCODE11":"33","DTCODE11":"619","SDTCODE11":"05830","NAME11":"Needamangalam","LOC_NAME":"Needamangalam"}},{"type":"Feature","id":4608,"geometry":{"type":"Point","coordinates":[79.640184465663168,10.532985753998402]},"properties":{"OBJECTID":4608,"stname":"TAMIL NADU","dtname":"Thiruvarur","STCODE11":"33","DTCODE11":"619","SDTCODE11":"05832","NAME11":"Thiruthuraipoondi","LOC_NAME":"Thiruthuraipoondi"}},{"type":"Feature","id":4609,"geometry":{"type":"Point","coordinates":[79.634933307075983,10.777060596003462]},"properties":{"OBJECTID":4609,"stname":"TAMIL NADU","dtname":"Thiruvarur","STCODE11":"33","DTCODE11":"619","SDTCODE11":"05829","NAME11":"Thiruvarur","LOC_NAME":"Thiruvarur"}},{"type":"Feature","id":4610,"geometry":{"type":"Point","coordinates":[79.393200607723514,10.889650802290642]},"properties":{"OBJECTID":4610,"stname":"TAMIL NADU","dtname":"Thiruvarur","STCODE11":"33","DTCODE11":"619","SDTCODE11":"05826","NAME11":"Valangaiman","LOC_NAME":"Valangaiman"}},{"type":"Feature","id":4611,"geometry":{"type":"Point","coordinates":[78.699408103377394,10.908362960358252]},"properties":{"OBJECTID":4611,"stname":"TAMIL NADU","dtname":"Tiruchirappalli","STCODE11":"33","DTCODE11":"614","SDTCODE11":"05799","NAME11":"Manachanallur","LOC_NAME":"Manachanallur"}},{"type":"Feature","id":4612,"geometry":{"type":"Point","coordinates":[78.337164562622377,10.987803707044639]},"properties":{"OBJECTID":4612,"stname":"TAMIL NADU","dtname":"Tiruchirappalli","STCODE11":"33","DTCODE11":"614","SDTCODE11":"05796","NAME11":"Thottiyam","LOC_NAME":"Thottiyam"}},{"type":"Feature","id":4613,"geometry":{"type":"Point","coordinates":[78.595381678018484,11.151942967215764]},"properties":{"OBJECTID":4613,"stname":"TAMIL NADU","dtname":"Tiruchirappalli","STCODE11":"33","DTCODE11":"614","SDTCODE11":"05798","NAME11":"Thuraiyur","LOC_NAME":"Thuraiyur"}},{"type":"Feature","id":4614,"geometry":{"type":"Point","coordinates":[77.249010348685587,8.9748379549161683]},"properties":{"OBJECTID":4614,"stname":"TAMIL NADU","dtname":"Tirunelveli","STCODE11":"33","DTCODE11":"628","SDTCODE11":"05897","NAME11":"Shenkottai","LOC_NAME":"Shenkottai"}},{"type":"Feature","id":4615,"geometry":{"type":"Point","coordinates":[79.762259790506661,11.761239814286686]},"properties":{"OBJECTID":4615,"stname":"TAMIL NADU","dtname":"Cuddalore","STCODE11":"33","DTCODE11":"617","SDTCODE11":"05812","NAME11":"Cuddalore","LOC_NAME":"Cuddalore"}},{"type":"Feature","id":4616,"geometry":{"type":"Point","coordinates":[77.752066107393617,10.488392431442229]},"properties":{"OBJECTID":4616,"stname":"TAMIL NADU","dtname":"Dindigul","STCODE11":"33","DTCODE11":"612","SDTCODE11":"05784","NAME11":"Oddanchatram","LOC_NAME":"Oddanchatram"}},{"type":"Feature","id":4617,"geometry":{"type":"Point","coordinates":[77.43510059894075,11.454963065280243]},"properties":{"OBJECTID":4617,"stname":"TAMIL NADU","dtname":"Erode","STCODE11":"33","DTCODE11":"610","SDTCODE11":"05761","NAME11":"Gobichettipalayam","LOC_NAME":"Gobichettipalayam"}},{"type":"Feature","id":4618,"geometry":{"type":"Point","coordinates":[79.702954096122355,12.839894617505815]},"properties":{"OBJECTID":4618,"stname":"TAMIL NADU","dtname":"Kancheepuram","STCODE11":"33","DTCODE11":"604","SDTCODE11":"05707","NAME11":"Kancheepuram","LOC_NAME":"Kancheepuram"}},{"type":"Feature","id":4619,"geometry":{"type":"Point","coordinates":[80.232514332877969,12.902760051842948]},"properties":{"OBJECTID":4619,"stname":"TAMIL NADU","dtname":"Kancheepuram","STCODE11":"33","DTCODE11":"604","SDTCODE11":"05705","NAME11":"Sholinganallur","LOC_NAME":"Sholinganallur"}},{"type":"Feature","id":4620,"geometry":{"type":"Point","coordinates":[77.31539395363508,8.2614242253116146]},"properties":{"OBJECTID":4620,"stname":"TAMIL NADU","dtname":"Kanniyakumari","STCODE11":"33","DTCODE11":"629","SDTCODE11":"05905","NAME11":"Kalkulam","LOC_NAME":"Kalkulam"}},{"type":"Feature","id":4621,"geometry":{"type":"Point","coordinates":[77.503734061468791,8.2300252199725499]},"properties":{"OBJECTID":4621,"stname":"TAMIL NADU","dtname":"Kanniyakumari","STCODE11":"33","DTCODE11":"629","SDTCODE11":"05906","NAME11":"Thovala","LOC_NAME":"Thovala"}},{"type":"Feature","id":4622,"geometry":{"type":"Point","coordinates":[77.184551480352056,8.3241162838025797]},"properties":{"OBJECTID":4622,"stname":"TAMIL NADU","dtname":"Kanniyakumari","STCODE11":"33","DTCODE11":"629","SDTCODE11":"05904","NAME11":"Vilavancode","LOC_NAME":"Vilavancode"}},{"type":"Feature","id":4623,"geometry":{"type":"Point","coordinates":[78.275719404624837,10.955879540431743]},"properties":{"OBJECTID":4623,"stname":"TAMIL NADU","dtname":"Karur","STCODE11":"33","DTCODE11":"613","SDTCODE11":"05793","NAME11":"Krishnarayapuram","LOC_NAME":"Krishnarayapuram"}},{"type":"Feature","id":4624,"geometry":{"type":"Point","coordinates":[77.7895391848419,9.7345453895082574]},"properties":{"OBJECTID":4624,"stname":"TAMIL NADU","dtname":"Madurai","STCODE11":"33","DTCODE11":"623","SDTCODE11":"05862","NAME11":"Peraiyur","LOC_NAME":"Peraiyur"}},{"type":"Feature","id":4625,"geometry":{"type":"Point","coordinates":[79.657697743761261,11.096737607664737]},"properties":{"OBJECTID":4625,"stname":"TAMIL NADU","dtname":"Nagapattinam","STCODE11":"33","DTCODE11":"618","SDTCODE11":"05819","NAME11":"Mayiladuthurai","LOC_NAME":"Mayiladuthurai"}},{"type":"Feature","id":4626,"geometry":{"type":"Point","coordinates":[78.821257609724768,11.340812553519626]},"properties":{"OBJECTID":4626,"stname":"TAMIL NADU","dtname":"Perambalur","STCODE11":"33","DTCODE11":"615","SDTCODE11":"05805","NAME11":"Veppanthattai","LOC_NAME":"Veppanthattai"}},{"type":"Feature","id":4627,"geometry":{"type":"Point","coordinates":[80.166304465697678,13.100653042654431]},"properties":{"OBJECTID":4627,"stname":"TAMIL NADU","dtname":"Thiruvallur","STCODE11":"33","DTCODE11":"602","SDTCODE11":"05700","NAME11":"Ambattur","LOC_NAME":"Ambattur"}},{"type":"Feature","id":4628,"geometry":{"type":"Point","coordinates":[79.669849822344815,13.084845533033127]},"properties":{"OBJECTID":4628,"stname":"TAMIL NADU","dtname":"Vellore","STCODE11":"33","DTCODE11":"605","SDTCODE11":"05715","NAME11":"Arakonam","LOC_NAME":"Arakonam"}},{"type":"Feature","id":4629,"geometry":{"type":"Point","coordinates":[79.137305034567348,12.970695899148566]},"properties":{"OBJECTID":4629,"stname":"TAMIL NADU","dtname":"Vellore","STCODE11":"33","DTCODE11":"605","SDTCODE11":"05713","NAME11":"Katpadi","LOC_NAME":"Katpadi"}},{"type":"Feature","id":4630,"geometry":{"type":"Point","coordinates":[78.364977170081687,12.326331686357307]},"properties":{"OBJECTID":4630,"stname":"TAMIL NADU","dtname":"Krishnagiri","STCODE11":"33","DTCODE11":"631","SDTCODE11":"05729","NAME11":"Pochampalli","LOC_NAME":"Pochampalli"}},{"type":"Feature","id":4631,"geometry":{"type":"Point","coordinates":[77.833772600436134,11.584098900448732]},"properties":{"OBJECTID":4631,"stname":"TAMIL NADU","dtname":"Salem","STCODE11":"33","DTCODE11":"608","SDTCODE11":"05748","NAME11":"Edappadi","LOC_NAME":"Edappadi"}},{"type":"Feature","id":4632,"geometry":{"type":"Point","coordinates":[79.253669980253761,10.626040646595701]},"properties":{"OBJECTID":4632,"stname":"TAMIL NADU","dtname":"Thanjavur","STCODE11":"33","DTCODE11":"620","SDTCODE11":"05838","NAME11":"Orathanadu","LOC_NAME":"Orathanadu"}},{"type":"Feature","id":4633,"geometry":{"type":"Point","coordinates":[79.552705477656616,11.276092977799355]},"properties":{"OBJECTID":4633,"stname":"TAMIL NADU","dtname":"Cuddalore","STCODE11":"33","DTCODE11":"617","SDTCODE11":"05815","NAME11":"Kattumannarkoil","LOC_NAME":"Kattumannarkoil"}},{"type":"Feature","id":4634,"geometry":{"type":"Point","coordinates":[79.843828213388335,10.764442406913652]},"properties":{"OBJECTID":4634,"stname":"TAMIL NADU","dtname":"Nagapattinam","STCODE11":"33","DTCODE11":"618","SDTCODE11":"05822","NAME11":"Nagapattinam","LOC_NAME":"Nagapattinam"}},{"type":"Feature","id":4635,"geometry":{"type":"Point","coordinates":[79.454238110245115,10.995703327552576]},"properties":{"OBJECTID":4635,"stname":"TAMIL NADU","dtname":"Thanjavur","STCODE11":"33","DTCODE11":"620","SDTCODE11":"05833","NAME11":"Thiruvidaimarudur","LOC_NAME":"Thiruvidaimarudur"}},{"type":"Feature","id":4636,"geometry":{"type":"Point","coordinates":[78.78074915457583,10.557762149406987]},"properties":{"OBJECTID":4636,"stname":"TAMIL NADU","dtname":"Pudukkottai","STCODE11":"33","DTCODE11":"621","SDTCODE11":"05842","NAME11":"Kulathur","LOC_NAME":"Kulathur"}},{"type":"Feature","id":4637,"geometry":{"type":"Point","coordinates":[77.959039675416705,9.5836642788101454]},"properties":{"OBJECTID":4637,"stname":"TAMIL NADU","dtname":"Virudhunagar","STCODE11":"33","DTCODE11":"625","SDTCODE11":"05873","NAME11":"Virudhunagar","LOC_NAME":"Virudhunagar"}},{"type":"Feature","id":4638,"geometry":{"type":"Point","coordinates":[77.555005361394151,9.4554671478074486]},"properties":{"OBJECTID":4638,"stname":"TAMIL NADU","dtname":"Virudhunagar","STCODE11":"33","DTCODE11":"625","SDTCODE11":"05870","NAME11":"Rajapalayam","LOC_NAME":"Rajapalayam"}},{"type":"Feature","id":4639,"geometry":{"type":"Point","coordinates":[77.685650759575225,8.72949018313561]},"properties":{"OBJECTID":4639,"stname":"TAMIL NADU","dtname":"Tirunelveli","STCODE11":"33","DTCODE11":"628","SDTCODE11":"05899","NAME11":"Tirunelveli","LOC_NAME":"Tirunelveli"}},{"type":"Feature","id":4640,"geometry":{"type":"Point","coordinates":[77.736852979953554,8.7240676179812571]},"properties":{"OBJECTID":4640,"stname":"TAMIL NADU","dtname":"Tirunelveli","STCODE11":"33","DTCODE11":"628","SDTCODE11":"05900","NAME11":"Palayamkottai","LOC_NAME":"Palayamkottai"}},{"type":"Feature","id":4641,"geometry":{"type":"Point","coordinates":[76.338755680990658,11.484756118378133]},"properties":{"OBJECTID":4641,"stname":"TAMIL NADU","dtname":"The Nilgiris","STCODE11":"33","DTCODE11":"611","SDTCODE11":"05764","NAME11":"Panthalur","LOC_NAME":"Panthalur"}},{"type":"Feature","id":4642,"geometry":{"type":"Point","coordinates":[76.957175279476289,11.020668241443179]},"properties":{"OBJECTID":4642,"stname":"TAMIL NADU","dtname":"Coimbatore","STCODE11":"33","DTCODE11":"632","SDTCODE11":"05772","NAME11":"Coimbatore North","LOC_NAME":"Coimbatore North"}},{"type":"Feature","id":4643,"geometry":{"type":"Point","coordinates":[79.020644490151838,11.231791307237877]},"properties":{"OBJECTID":4643,"stname":"TAMIL NADU","dtname":"Perambalur","STCODE11":"33","DTCODE11":"615","SDTCODE11":"05807","NAME11":"Kunnam","LOC_NAME":"Kunnam"}},{"type":"Feature","id":4644,"geometry":{"type":"Point","coordinates":[79.720788501273262,10.631573553841804]},"properties":{"OBJECTID":4644,"stname":"TAMIL NADU","dtname":"Nagapattinam","STCODE11":"33","DTCODE11":"618","SDTCODE11":"05824","NAME11":"Thirukkuvalai","LOC_NAME":"Thirukkuvalai"}},{"type":"Feature","id":4645,"geometry":{"type":"Point","coordinates":[79.232131219315178,10.041253712938181]},"properties":{"OBJECTID":4645,"stname":"TAMIL NADU","dtname":"Pudukkottai","STCODE11":"33","DTCODE11":"621","SDTCODE11":"05850","NAME11":"Manamelkudi","LOC_NAME":"Manamelkudi"}},{"type":"Feature","id":4646,"geometry":{"type":"Point","coordinates":[78.111200869106099,9.9180399650241178]},"properties":{"OBJECTID":4646,"stname":"TAMIL NADU","dtname":"Madurai","STCODE11":"33","DTCODE11":"623","SDTCODE11":"05859","NAME11":"Madurai North","LOC_NAME":"Madurai North"}},{"type":"Feature","id":4647,"geometry":{"type":"Point","coordinates":[77.448539879783155,8.93614027663725]},"properties":{"OBJECTID":4647,"stname":"TAMIL NADU","dtname":"Tirunelveli","STCODE11":"33","DTCODE11":"628","SDTCODE11":"05895","NAME11":"Veerakeralamputhur","LOC_NAME":"Veerakeralamputhur"}},{"type":"Feature","id":5904,"geometry":{"type":"Point","coordinates":[80.243934380624722,13.156034997226396]},"properties":{"OBJECTID":5904,"stname":"TAMIL NADU","dtname":"Thiruvallur","STCODE11":"33","DTCODE11":"602","SDTCODE11":"05701","NAME11":"Mathavaram","LOC_NAME":"Mathavaram"}},{"type":"Feature","id":5905,"geometry":{"type":"Point","coordinates":[80.128151173136487,12.927268499962416]},"properties":{"OBJECTID":5905,"stname":"TAMIL NADU","dtname":"Kancheepuram","STCODE11":"33","DTCODE11":"604","SDTCODE11":"05703","NAME11":"Tambaram","LOC_NAME":"Tambaram"}},{"type":"Feature","id":5906,"geometry":{"type":"Point","coordinates":[80.204436692765483,12.998771304029916]},"properties":{"OBJECTID":5906,"stname":"TAMIL NADU","dtname":"Kancheepuram","STCODE11":"33","DTCODE11":"604","SDTCODE11":"05704","NAME11":"Alandur","LOC_NAME":"Alandur"}},{"type":"Feature","id":5907,"geometry":{"type":"Point","coordinates":[78.716404569912754,12.786515493010686]},"properties":{"OBJECTID":5907,"stname":"TAMIL NADU","dtname":"Vellore","STCODE11":"33","DTCODE11":"605","SDTCODE11":"05719","NAME11":"Ambur","LOC_NAME":"Ambur"}},{"type":"Feature","id":5908,"geometry":{"type":"Point","coordinates":[78.948098238435691,12.152440678446167]},"properties":{"OBJECTID":5908,"stname":"TAMIL NADU","dtname":"Tiruvannamalai","STCODE11":"33","DTCODE11":"606","SDTCODE11":"05736","NAME11":"THANDRAMPET","LOC_NAME":"THANDRAMPET"}},{"type":"Feature","id":5909,"geometry":{"type":"Point","coordinates":[77.126443710060371,11.027119780387114]},"properties":{"OBJECTID":5909,"stname":"TAMIL NADU","dtname":"Coimbatore","STCODE11":"33","DTCODE11":"632","SDTCODE11":"05771","NAME11":"Sulur","LOC_NAME":"Sulur"}},{"type":"Feature","id":5910,"geometry":{"type":"Point","coordinates":[77.366140714689621,10.557623468834937]},"properties":{"OBJECTID":5910,"stname":"TAMIL NADU","dtname":"Tiruppur","STCODE11":"33","DTCODE11":"633","SDTCODE11":"05782","NAME11":"Madathukulam","LOC_NAME":"Madathukulam"}},{"type":"Feature","id":5911,"geometry":{"type":"Point","coordinates":[77.852450611673746,10.287781793972984]},"properties":{"OBJECTID":5911,"stname":"TAMIL NADU","dtname":"Dindigul","STCODE11":"33","DTCODE11":"612","SDTCODE11":"05788","NAME11":"Attur","LOC_NAME":"Attur"}},{"type":"Feature","id":5912,"geometry":{"type":"Point","coordinates":[78.189719155865376,10.594818385932914]},"properties":{"OBJECTID":5912,"stname":"TAMIL NADU","dtname":"Karur","STCODE11":"33","DTCODE11":"613","SDTCODE11":"05795","NAME11":"Kadavur","LOC_NAME":"Kadavur"}},{"type":"Feature","id":5913,"geometry":{"type":"Point","coordinates":[78.775863055150438,10.788970877740807]},"properties":{"OBJECTID":5913,"stname":"TAMIL NADU","dtname":"Tiruchirappalli","STCODE11":"33","DTCODE11":"614","SDTCODE11":"05803","NAME11":"Thiruverumbur","LOC_NAME":"Thiruverumbur"}},{"type":"Feature","id":5914,"geometry":{"type":"Point","coordinates":[79.594609245512189,11.563918165153128]},"properties":{"OBJECTID":5914,"stname":"TAMIL NADU","dtname":"Cuddalore","STCODE11":"33","DTCODE11":"617","SDTCODE11":"05813","NAME11":"Kurinjipadi","LOC_NAME":"Kurinjipadi"}},{"type":"Feature","id":5915,"geometry":{"type":"Point","coordinates":[79.560925276305355,11.072093692029684]},"properties":{"OBJECTID":5915,"stname":"TAMIL NADU","dtname":"Nagapattinam","STCODE11":"33","DTCODE11":"618","SDTCODE11":"05820","NAME11":"Kuthalam","LOC_NAME":"Kuthalam"}},{"type":"Feature","id":5916,"geometry":{"type":"Point","coordinates":[78.543765365735212,10.278490941707769]},"properties":{"OBJECTID":5916,"stname":"TAMIL NADU","dtname":"Pudukkottai","STCODE11":"33","DTCODE11":"621","SDTCODE11":"05846","NAME11":"Ponnamaravathi","LOC_NAME":"Ponnamaravathi"}},{"type":"Feature","id":5917,"geometry":{"type":"Point","coordinates":[79.13982405525276,10.456167580983026]},"properties":{"OBJECTID":5917,"stname":"TAMIL NADU","dtname":"Pudukkottai","STCODE11":"33","DTCODE11":"621","SDTCODE11":"05848","NAME11":"Karambakudi","LOC_NAME":"Karambakudi"}}]}