{"type":"FeatureCollection","crs":{"type":"name","properties":{"name":"EPSG:4326"}},"features":[{"type":"Feature","id":3644,"geometry":{"type":"Point","coordinates":[93.725036316195883,25.908674114568392]},"properties":{"OBJECTID":3644,"stname":"NAGALAND","dtname":"Dimapur","STCODE11":"13","DTCODE11":"265","SDTCODE11":"01825","NAME11":"Dimapur Sadar","LOC_NAME":"Dimapur Sadar"}},{"type":"Feature","id":3645,"geometry":{"type":"Point","coordinates":[94.786310416159168,25.746663272682106]},"properties":{"OBJECTID":3645,"stname":"NAGALAND","dtname":"Phek","STCODE11":"13","DTCODE11":"266","SDTCODE11":"01848","NAME11":"Phor","LOC_NAME":"Phor"}},{"type":"Feature","id":3646,"geometry":{"type":"Point","coordinates":[94.326341646673086,25.522136276332404]},"properties":{"OBJECTID":3646,"stname":"NAGALAND","dtname":"Phek","STCODE11":"13","DTCODE11":"266","SDTCODE11":"01857","NAME11":"Razieba","LOC_NAME":"Razieba"}},{"type":"Feature","id":3647,"geometry":{"type":"Point","coordinates":[94.078887360782062,25.963886013388695]},"properties":{"OBJECTID":3647,"stname":"NAGALAND","dtname":"Kohima","STCODE11":"13","DTCODE11":"270","SDTCODE11":"01830","NAME11":"Tsogin","LOC_NAME":"Tsogin"}},{"type":"Feature","id":3648,"geometry":{"type":"Point","coordinates":[94.25074629638867,26.171303090691215]},"properties":{"OBJECTID":3648,"stname":"NAGALAND","dtname":"Wokha","STCODE11":"13","DTCODE11":"264","SDTCODE11":"01819","NAME11":"Englan","LOC_NAME":"Englan"}},{"type":"Feature","id":3649,"geometry":{"type":"Point","coordinates":[94.140759201471582,26.277375306292043]},"properties":{"OBJECTID":3649,"stname":"NAGALAND","dtname":"Wokha","STCODE11":"13","DTCODE11":"264","SDTCODE11":"01811","NAME11":"Bhandari","LOC_NAME":"Bhandari"}},{"type":"Feature","id":3650,"geometry":{"type":"Point","coordinates":[94.897747359605447,26.328828414874938]},"properties":{"OBJECTID":3650,"stname":"NAGALAND","dtname":"Tuensang","STCODE11":"13","DTCODE11":"267","SDTCODE11":"01763","NAME11":"Sangsangnyu","LOC_NAME":"Sangsangnyu"}},{"type":"Feature","id":3651,"geometry":{"type":"Point","coordinates":[94.255399085368438,26.094816272504229]},"properties":{"OBJECTID":3651,"stname":"NAGALAND","dtname":"Wokha","STCODE11":"13","DTCODE11":"264","SDTCODE11":"01818","NAME11":"Wokha Sadar","LOC_NAME":"Wokha Sadar"}},{"type":"Feature","id":3652,"geometry":{"type":"Point","coordinates":[94.526631807372837,26.013973086417064]},"properties":{"OBJECTID":3652,"stname":"NAGALAND","dtname":"Zunheboto","STCODE11":"13","DTCODE11":"263","SDTCODE11":"01801","NAME11":"Zunheboto Sadar","LOC_NAME":"Zunheboto Sadar"}},{"type":"Feature","id":3653,"geometry":{"type":"Point","coordinates":[94.462343547078035,25.702399960559294]},"properties":{"OBJECTID":3653,"stname":"NAGALAND","dtname":"Phek","STCODE11":"13","DTCODE11":"266","SDTCODE11":"01845","NAME11":"Phek Sadar","LOC_NAME":"Phek Sadar"}},{"type":"Feature","id":3654,"geometry":{"type":"Point","coordinates":[94.105852056529486,25.662567118559377]},"properties":{"OBJECTID":3654,"stname":"NAGALAND","dtname":"Kohima","STCODE11":"13","DTCODE11":"270","SDTCODE11":"01835","NAME11":"Kohima Sadar","LOC_NAME":"Kohima Sadar"}},{"type":"Feature","id":3655,"geometry":{"type":"Point","coordinates":[95.030867432239617,26.721826375736061]},"properties":{"OBJECTID":3655,"stname":"NAGALAND","dtname":"Mon","STCODE11":"13","DTCODE11":"261","SDTCODE11":"01748","NAME11":"Mon Sadar","LOC_NAME":"Mon Sadar"}},{"type":"Feature","id":3656,"geometry":{"type":"Point","coordinates":[94.809592828623792,26.811554568926795]},"properties":{"OBJECTID":3656,"stname":"NAGALAND","dtname":"Mon","STCODE11":"13","DTCODE11":"261","SDTCODE11":"01744","NAME11":"Naginimora","LOC_NAME":"Naginimora"}},{"type":"Feature","id":3657,"geometry":{"type":"Point","coordinates":[94.965392607048983,26.6026283341766]},"properties":{"OBJECTID":3657,"stname":"NAGALAND","dtname":"Mon","STCODE11":"13","DTCODE11":"261","SDTCODE11":"01750","NAME11":"Aboi","LOC_NAME":"Aboi"}},{"type":"Feature","id":3658,"geometry":{"type":"Point","coordinates":[94.932783795473128,26.514682393214692]},"properties":{"OBJECTID":3658,"stname":"NAGALAND","dtname":"Mon","STCODE11":"13","DTCODE11":"261","SDTCODE11":"01754","NAME11":"Angjangyang","LOC_NAME":"Angjangyang"}},{"type":"Feature","id":3659,"geometry":{"type":"Point","coordinates":[95.100316711471038,26.579656897412612]},"properties":{"OBJECTID":3659,"stname":"NAGALAND","dtname":"Mon","STCODE11":"13","DTCODE11":"261","SDTCODE11":"01753","NAME11":"Chen","LOC_NAME":"Chen"}},{"type":"Feature","id":3660,"geometry":{"type":"Point","coordinates":[94.798201355387903,26.722396015879223]},"properties":{"OBJECTID":3660,"stname":"NAGALAND","dtname":"Longleng","STCODE11":"13","DTCODE11":"268","SDTCODE11":"01775","NAME11":"Namsang","LOC_NAME":"Namsang"}},{"type":"Feature","id":3661,"geometry":{"type":"Point","coordinates":[94.933641488041772,26.11083688338643]},"properties":{"OBJECTID":3661,"stname":"NAGALAND","dtname":"Tuensang","STCODE11":"13","DTCODE11":"267","SDTCODE11":"01768","NAME11":"Panso","LOC_NAME":"Panso"}},{"type":"Feature","id":3662,"geometry":{"type":"Point","coordinates":[94.777058533199025,26.057322883823566]},"properties":{"OBJECTID":3662,"stname":"NAGALAND","dtname":"Tuensang","STCODE11":"13","DTCODE11":"267","SDTCODE11":"01772","NAME11":"Mangko","LOC_NAME":"Mangko"}},{"type":"Feature","id":3663,"geometry":{"type":"Point","coordinates":[94.788667870349158,25.884328544336839]},"properties":{"OBJECTID":3663,"stname":"NAGALAND","dtname":"Kiphire","STCODE11":"13","DTCODE11":"269","SDTCODE11":"01781","NAME11":"Kiphire Sadar","LOC_NAME":"Kiphire Sadar"}},{"type":"Feature","id":3664,"geometry":{"type":"Point","coordinates":[94.905755596919917,25.986450275992933]},"properties":{"OBJECTID":3664,"stname":"NAGALAND","dtname":"Tuensang","STCODE11":"13","DTCODE11":"267","SDTCODE11":"01773","NAME11":"Thonoknyu","LOC_NAME":"Thonoknyu"}},{"type":"Feature","id":3665,"geometry":{"type":"Point","coordinates":[94.501871338380766,26.33452941088391]},"properties":{"OBJECTID":3665,"stname":"NAGALAND","dtname":"Mokokchung","STCODE11":"13","DTCODE11":"262","SDTCODE11":"01795","NAME11":"Ongpangkong","LOC_NAME":"Ongpangkong"}},{"type":"Feature","id":3666,"geometry":{"type":"Point","coordinates":[94.677775579052891,26.532788809513413]},"properties":{"OBJECTID":3666,"stname":"NAGALAND","dtname":"Mokokchung","STCODE11":"13","DTCODE11":"262","SDTCODE11":"01790","NAME11":"Changtongya","LOC_NAME":"Changtongya"}},{"type":"Feature","id":3667,"geometry":{"type":"Point","coordinates":[94.413672245571092,26.18126804106058]},"properties":{"OBJECTID":3667,"stname":"NAGALAND","dtname":"Zunheboto","STCODE11":"13","DTCODE11":"263","SDTCODE11":"01796","NAME11":"V.K.","LOC_NAME":"V.K."}},{"type":"Feature","id":3668,"geometry":{"type":"Point","coordinates":[94.266669818741889,25.889718673864078]},"properties":{"OBJECTID":3668,"stname":"NAGALAND","dtname":"Zunheboto","STCODE11":"13","DTCODE11":"263","SDTCODE11":"01804","NAME11":"Pughoboto","LOC_NAME":"Pughoboto"}},{"type":"Feature","id":3669,"geometry":{"type":"Point","coordinates":[94.397580705920376,25.991587474732558]},"properties":{"OBJECTID":3669,"stname":"NAGALAND","dtname":"Zunheboto","STCODE11":"13","DTCODE11":"263","SDTCODE11":"01807","NAME11":"Saptiqa","LOC_NAME":"Saptiqa"}},{"type":"Feature","id":3670,"geometry":{"type":"Point","coordinates":[94.649490437991233,26.472194413996281]},"properties":{"OBJECTID":3670,"stname":"NAGALAND","dtname":"Mokokchung","STCODE11":"13","DTCODE11":"262","SDTCODE11":"01791","NAME11":"Chuchuyimlang","LOC_NAME":"Chuchuyimlang"}},{"type":"Feature","id":3671,"geometry":{"type":"Point","coordinates":[93.785763997860869,25.808258652098598]},"properties":{"OBJECTID":3671,"stname":"NAGALAND","dtname":"Dimapur","STCODE11":"13","DTCODE11":"265","SDTCODE11":"01826","NAME11":"Chumukedima","LOC_NAME":"Chumukedima"}},{"type":"Feature","id":3672,"geometry":{"type":"Point","coordinates":[93.627677268622406,25.78664589551947]},"properties":{"OBJECTID":3672,"stname":"NAGALAND","dtname":"Dimapur","STCODE11":"13","DTCODE11":"265","SDTCODE11":"01827","NAME11":"Dhansiripar","LOC_NAME":"Dhansiripar"}},{"type":"Feature","id":3673,"geometry":{"type":"Point","coordinates":[93.878704255907962,25.762338837557419]},"properties":{"OBJECTID":3673,"stname":"NAGALAND","dtname":"Dimapur","STCODE11":"13","DTCODE11":"265","SDTCODE11":"01828","NAME11":"Medziphema","LOC_NAME":"Medziphema"}},{"type":"Feature","id":3674,"geometry":{"type":"Point","coordinates":[94.037639373863698,25.705588706228326]},"properties":{"OBJECTID":3674,"stname":"NAGALAND","dtname":"Kohima","STCODE11":"13","DTCODE11":"270","SDTCODE11":"01836","NAME11":"Sechu-Zubza","LOC_NAME":"Sechu-Zubza"}},{"type":"Feature","id":3675,"geometry":{"type":"Point","coordinates":[93.661557657161026,25.648970062692619]},"properties":{"OBJECTID":3675,"stname":"NAGALAND","dtname":"Peren","STCODE11":"13","DTCODE11":"271","SDTCODE11":"01838","NAME11":"Jalukie","LOC_NAME":"Jalukie"}},{"type":"Feature","id":3676,"geometry":{"type":"Point","coordinates":[93.603975453412858,25.354640649499011]},"properties":{"OBJECTID":3676,"stname":"NAGALAND","dtname":"Peren","STCODE11":"13","DTCODE11":"271","SDTCODE11":"01842","NAME11":"Tening","LOC_NAME":"Tening"}},{"type":"Feature","id":3677,"geometry":{"type":"Point","coordinates":[94.322685067783794,25.730813297588202]},"properties":{"OBJECTID":3677,"stname":"NAGALAND","dtname":"Phek","STCODE11":"13","DTCODE11":"266","SDTCODE11":"01850","NAME11":"Chozuba","LOC_NAME":"Chozuba"}},{"type":"Feature","id":3678,"geometry":{"type":"Point","coordinates":[94.299072398688139,25.570946885550086]},"properties":{"OBJECTID":3678,"stname":"NAGALAND","dtname":"Phek","STCODE11":"13","DTCODE11":"266","SDTCODE11":"01853","NAME11":"Pfutsero","LOC_NAME":"Pfutsero"}},{"type":"Feature","id":3679,"geometry":{"type":"Point","coordinates":[95.082516250959742,26.885996350274016]},"properties":{"OBJECTID":3679,"stname":"NAGALAND","dtname":"Mon","STCODE11":"13","DTCODE11":"261","SDTCODE11":"01745","NAME11":"Tizit","LOC_NAME":"Tizit"}},{"type":"Feature","id":3680,"geometry":{"type":"Point","coordinates":[95.195899895729042,27.002141366511072]},"properties":{"OBJECTID":3680,"stname":"NAGALAND","dtname":"Mon","STCODE11":"13","DTCODE11":"261","SDTCODE11":"01746","NAME11":"Hunta","LOC_NAME":"Hunta"}},{"type":"Feature","id":3681,"geometry":{"type":"Point","coordinates":[94.961102564069137,26.431851719191808]},"properties":{"OBJECTID":3681,"stname":"NAGALAND","dtname":"Mon","STCODE11":"13","DTCODE11":"261","SDTCODE11":"01755","NAME11":"Mopong","LOC_NAME":"Mopong"}},{"type":"Feature","id":3682,"geometry":{"type":"Point","coordinates":[94.813513179829926,26.489363154738761]},"properties":{"OBJECTID":3682,"stname":"NAGALAND","dtname":"Longleng","STCODE11":"13","DTCODE11":"268","SDTCODE11":"01777","NAME11":"Longleng","LOC_NAME":"Longleng"}},{"type":"Feature","id":3683,"geometry":{"type":"Point","coordinates":[94.826865247732925,26.337412865713432]},"properties":{"OBJECTID":3683,"stname":"NAGALAND","dtname":"Tuensang","STCODE11":"13","DTCODE11":"267","SDTCODE11":"01762","NAME11":"Ngoungchung","LOC_NAME":"Ngoungchung"}},{"type":"Feature","id":3684,"geometry":{"type":"Point","coordinates":[94.767847068138508,26.154233657329481]},"properties":{"OBJECTID":3684,"stname":"NAGALAND","dtname":"Tuensang","STCODE11":"13","DTCODE11":"267","SDTCODE11":"01764","NAME11":"Sotokur","LOC_NAME":"Sotokur"}},{"type":"Feature","id":3685,"geometry":{"type":"Point","coordinates":[95.024341353160168,26.221039551306404]},"properties":{"OBJECTID":3685,"stname":"NAGALAND","dtname":"Tuensang","STCODE11":"13","DTCODE11":"267","SDTCODE11":"01765","NAME11":"Noklak","LOC_NAME":"Noklak"}},{"type":"Feature","id":3686,"geometry":{"type":"Point","coordinates":[94.751676766000273,25.94094663156179]},"properties":{"OBJECTID":3686,"stname":"NAGALAND","dtname":"Kiphire","STCODE11":"13","DTCODE11":"269","SDTCODE11":"01780","NAME11":"Amahator","LOC_NAME":"Amahator"}},{"type":"Feature","id":3687,"geometry":{"type":"Point","coordinates":[94.745108017843137,25.786703601282337]},"properties":{"OBJECTID":3687,"stname":"NAGALAND","dtname":"Kiphire","STCODE11":"13","DTCODE11":"269","SDTCODE11":"01784","NAME11":"Longmatra","LOC_NAME":"Longmatra"}},{"type":"Feature","id":3688,"geometry":{"type":"Point","coordinates":[94.998054242258505,25.7501315195397]},"properties":{"OBJECTID":3688,"stname":"NAGALAND","dtname":"Kiphire","STCODE11":"13","DTCODE11":"269","SDTCODE11":"01786","NAME11":"Khongsa","LOC_NAME":"Khongsa"}},{"type":"Feature","id":3689,"geometry":{"type":"Point","coordinates":[94.499565745728731,26.614942453840623]},"properties":{"OBJECTID":3689,"stname":"NAGALAND","dtname":"Mokokchung","STCODE11":"13","DTCODE11":"262","SDTCODE11":"01787","NAME11":"Longchem","LOC_NAME":"Longchem"}},{"type":"Feature","id":3690,"geometry":{"type":"Point","coordinates":[94.516280125095193,26.542704634823227]},"properties":{"OBJECTID":3690,"stname":"NAGALAND","dtname":"Mokokchung","STCODE11":"13","DTCODE11":"262","SDTCODE11":"01788","NAME11":"Alongkima","LOC_NAME":"Alongkima"}},{"type":"Feature","id":3691,"geometry":{"type":"Point","coordinates":[94.588480620648355,26.147725511743094]},"properties":{"OBJECTID":3691,"stname":"NAGALAND","dtname":"Zunheboto","STCODE11":"13","DTCODE11":"263","SDTCODE11":"01798","NAME11":"Suruhuto","LOC_NAME":"Suruhuto"}},{"type":"Feature","id":3692,"geometry":{"type":"Point","coordinates":[94.329406349876137,25.852131740650947]},"properties":{"OBJECTID":3692,"stname":"NAGALAND","dtname":"Zunheboto","STCODE11":"13","DTCODE11":"263","SDTCODE11":"01805","NAME11":"Ghathashi","LOC_NAME":"Ghathashi"}},{"type":"Feature","id":3693,"geometry":{"type":"Point","coordinates":[94.57292615316328,25.831546340726693]},"properties":{"OBJECTID":3693,"stname":"NAGALAND","dtname":"Zunheboto","STCODE11":"13","DTCODE11":"263","SDTCODE11":"01808","NAME11":"Satoi","LOC_NAME":"Satoi"}},{"type":"Feature","id":3694,"geometry":{"type":"Point","coordinates":[94.25281054406318,26.302436187314893]},"properties":{"OBJECTID":3694,"stname":"NAGALAND","dtname":"Wokha","STCODE11":"13","DTCODE11":"264","SDTCODE11":"01810","NAME11":"Aitepyong","LOC_NAME":"Aitepyong"}},{"type":"Feature","id":3695,"geometry":{"type":"Point","coordinates":[94.080550631056468,26.071391674521539]},"properties":{"OBJECTID":3695,"stname":"NAGALAND","dtname":"Wokha","STCODE11":"13","DTCODE11":"264","SDTCODE11":"01815","NAME11":"Lotsu","LOC_NAME":"Lotsu"}},{"type":"Feature","id":3696,"geometry":{"type":"Point","coordinates":[94.013094640676997,26.012454326371632]},"properties":{"OBJECTID":3696,"stname":"NAGALAND","dtname":"Wokha","STCODE11":"13","DTCODE11":"264","SDTCODE11":"01816","NAME11":"Ralan","LOC_NAME":"Ralan"}},{"type":"Feature","id":3697,"geometry":{"type":"Point","coordinates":[94.15842703920589,25.856143985873022]},"properties":{"OBJECTID":3697,"stname":"NAGALAND","dtname":"Kohima","STCODE11":"13","DTCODE11":"270","SDTCODE11":"01832","NAME11":"Botsa","LOC_NAME":"Botsa"}},{"type":"Feature","id":3698,"geometry":{"type":"Point","coordinates":[94.183855910464871,25.581791702621608]},"properties":{"OBJECTID":3698,"stname":"NAGALAND","dtname":"Kohima","STCODE11":"13","DTCODE11":"270","SDTCODE11":"01833","NAME11":"Kezocha","LOC_NAME":"Kezocha"}},{"type":"Feature","id":3699,"geometry":{"type":"Point","coordinates":[93.827982541680171,25.596675087889622]},"properties":{"OBJECTID":3699,"stname":"NAGALAND","dtname":"Peren","STCODE11":"13","DTCODE11":"271","SDTCODE11":"01837","NAME11":"Pedi (Ngwalwa)","LOC_NAME":"Pedi (Ngwalwa)"}},{"type":"Feature","id":3700,"geometry":{"type":"Point","coordinates":[93.414026772824087,25.465710532079267]},"properties":{"OBJECTID":3700,"stname":"NAGALAND","dtname":"Peren","STCODE11":"13","DTCODE11":"271","SDTCODE11":"01840","NAME11":"Kebai Khelma","LOC_NAME":"Kebai Khelma"}},{"type":"Feature","id":3701,"geometry":{"type":"Point","coordinates":[93.733937284866698,25.537022832452298]},"properties":{"OBJECTID":3701,"stname":"NAGALAND","dtname":"Peren","STCODE11":"13","DTCODE11":"271","SDTCODE11":"01843","NAME11":"Peren","LOC_NAME":"Peren"}},{"type":"Feature","id":3702,"geometry":{"type":"Point","coordinates":[94.840824726786664,25.599038728909239]},"properties":{"OBJECTID":3702,"stname":"NAGALAND","dtname":"Phek","STCODE11":"13","DTCODE11":"266","SDTCODE11":"01849","NAME11":"Phokhungri","LOC_NAME":"Phokhungri"}},{"type":"Feature","id":3703,"geometry":{"type":"Point","coordinates":[94.371918183754261,25.626200414234457]},"properties":{"OBJECTID":3703,"stname":"NAGALAND","dtname":"Phek","STCODE11":"13","DTCODE11":"266","SDTCODE11":"01852","NAME11":"Sakraba","LOC_NAME":"Sakraba"}},{"type":"Feature","id":3704,"geometry":{"type":"Point","coordinates":[95.138165664695464,26.770658036317922]},"properties":{"OBJECTID":3704,"stname":"NAGALAND","dtname":"Mon","STCODE11":"13","DTCODE11":"261","SDTCODE11":"01747","NAME11":"Shangnyu","LOC_NAME":"Shangnyu"}},{"type":"Feature","id":3705,"geometry":{"type":"Point","coordinates":[95.076647970433655,26.691876695281895]},"properties":{"OBJECTID":3705,"stname":"NAGALAND","dtname":"Mon","STCODE11":"13","DTCODE11":"261","SDTCODE11":"01751","NAME11":"Longshen","LOC_NAME":"Longshen"}},{"type":"Feature","id":3706,"geometry":{"type":"Point","coordinates":[94.935043257838672,26.361976507105375]},"properties":{"OBJECTID":3706,"stname":"NAGALAND","dtname":"Mon","STCODE11":"13","DTCODE11":"261","SDTCODE11":"01756","NAME11":"Tobu","LOC_NAME":"Tobu"}},{"type":"Feature","id":3707,"geometry":{"type":"Point","coordinates":[94.809885901290258,26.593657235115845]},"properties":{"OBJECTID":3707,"stname":"NAGALAND","dtname":"Longleng","STCODE11":"13","DTCODE11":"268","SDTCODE11":"01776","NAME11":"Yongnyah","LOC_NAME":"Yongnyah"}},{"type":"Feature","id":3708,"geometry":{"type":"Point","coordinates":[94.618824403897179,26.283907462912683]},"properties":{"OBJECTID":3708,"stname":"NAGALAND","dtname":"Tuensang","STCODE11":"13","DTCODE11":"267","SDTCODE11":"01759","NAME11":"Chare","LOC_NAME":"Chare"}},{"type":"Feature","id":3709,"geometry":{"type":"Point","coordinates":[94.848531153521876,26.022688890642904]},"properties":{"OBJECTID":3709,"stname":"NAGALAND","dtname":"Kiphire","STCODE11":"13","DTCODE11":"269","SDTCODE11":"01770","NAME11":"Tsurungto","LOC_NAME":"Tsurungto"}},{"type":"Feature","id":3710,"geometry":{"type":"Point","coordinates":[94.644481405017515,25.925105709132474]},"properties":{"OBJECTID":3710,"stname":"NAGALAND","dtname":"Kiphire","STCODE11":"13","DTCODE11":"269","SDTCODE11":"01779","NAME11":"Seyochung","LOC_NAME":"Seyochung"}},{"type":"Feature","id":3711,"geometry":{"type":"Point","coordinates":[94.914911785047792,25.906945596212505]},"properties":{"OBJECTID":3711,"stname":"NAGALAND","dtname":"Kiphire","STCODE11":"13","DTCODE11":"269","SDTCODE11":"01782","NAME11":"Kiusam","LOC_NAME":"Kiusam"}},{"type":"Feature","id":3712,"geometry":{"type":"Point","coordinates":[94.662485986117531,25.836321288841365]},"properties":{"OBJECTID":3712,"stname":"NAGALAND","dtname":"Kiphire","STCODE11":"13","DTCODE11":"269","SDTCODE11":"01783","NAME11":"Sitimi","LOC_NAME":"Sitimi"}},{"type":"Feature","id":3713,"geometry":{"type":"Point","coordinates":[94.642288373965556,26.679445776121092]},"properties":{"OBJECTID":3713,"stname":"NAGALAND","dtname":"Mokokchung","STCODE11":"13","DTCODE11":"262","SDTCODE11":"01789","NAME11":"Tuli","LOC_NAME":"Tuli"}},{"type":"Feature","id":3714,"geometry":{"type":"Point","coordinates":[94.532868544489148,26.415653368577878]},"properties":{"OBJECTID":3714,"stname":"NAGALAND","dtname":"Mokokchung","STCODE11":"13","DTCODE11":"262","SDTCODE11":"01792","NAME11":"Kubolong","LOC_NAME":"Kubolong"}},{"type":"Feature","id":3715,"geometry":{"type":"Point","coordinates":[94.441976304254325,26.495876227073317]},"properties":{"OBJECTID":3715,"stname":"NAGALAND","dtname":"Mokokchung","STCODE11":"13","DTCODE11":"262","SDTCODE11":"01793","NAME11":"Mangkolemba","LOC_NAME":"Mangkolemba"}},{"type":"Feature","id":3716,"geometry":{"type":"Point","coordinates":[94.648616934175266,26.118365473310227]},"properties":{"OBJECTID":3716,"stname":"NAGALAND","dtname":"Zunheboto","STCODE11":"13","DTCODE11":"263","SDTCODE11":"01799","NAME11":"Asuto","LOC_NAME":"Asuto"}},{"type":"Feature","id":3717,"geometry":{"type":"Point","coordinates":[94.516768131280031,26.109609713254663]},"properties":{"OBJECTID":3717,"stname":"NAGALAND","dtname":"Zunheboto","STCODE11":"13","DTCODE11":"263","SDTCODE11":"01802","NAME11":"Atoizu","LOC_NAME":"Atoizu"}},{"type":"Feature","id":3718,"geometry":{"type":"Point","coordinates":[94.63528856562607,26.011729743753911]},"properties":{"OBJECTID":3718,"stname":"NAGALAND","dtname":"Zunheboto","STCODE11":"13","DTCODE11":"263","SDTCODE11":"01800","NAME11":"Aghunato","LOC_NAME":"Aghunato"}},{"type":"Feature","id":3719,"geometry":{"type":"Point","coordinates":[94.201791094014254,26.396020788315198]},"properties":{"OBJECTID":3719,"stname":"NAGALAND","dtname":"Wokha","STCODE11":"13","DTCODE11":"264","SDTCODE11":"01809","NAME11":"Changpang","LOC_NAME":"Changpang"}},{"type":"Feature","id":3720,"geometry":{"type":"Point","coordinates":[94.194822004464257,26.246455295627058]},"properties":{"OBJECTID":3720,"stname":"NAGALAND","dtname":"Wokha","STCODE11":"13","DTCODE11":"264","SDTCODE11":"01812","NAME11":"Baghty","LOC_NAME":"Baghty"}},{"type":"Feature","id":3721,"geometry":{"type":"Point","coordinates":[94.331945894370904,26.26549038116487]},"properties":{"OBJECTID":3721,"stname":"NAGALAND","dtname":"Wokha","STCODE11":"13","DTCODE11":"264","SDTCODE11":"01813","NAME11":"Sungro","LOC_NAME":"Sungro"}},{"type":"Feature","id":3722,"geometry":{"type":"Point","coordinates":[94.182310586292303,26.007137317026316]},"properties":{"OBJECTID":3722,"stname":"NAGALAND","dtname":"Wokha","STCODE11":"13","DTCODE11":"264","SDTCODE11":"01817","NAME11":"Wozhuro","LOC_NAME":"Wozhuro"}},{"type":"Feature","id":3723,"geometry":{"type":"Point","coordinates":[94.315979176527193,26.116041473433462]},"properties":{"OBJECTID":3723,"stname":"NAGALAND","dtname":"Wokha","STCODE11":"13","DTCODE11":"264","SDTCODE11":"01820","NAME11":"Chukitong","LOC_NAME":"Chukitong"}},{"type":"Feature","id":3724,"geometry":{"type":"Point","coordinates":[93.936707200890808,25.893650082399937]},"properties":{"OBJECTID":3724,"stname":"NAGALAND","dtname":"Dimapur","STCODE11":"13","DTCODE11":"265","SDTCODE11":"01824","NAME11":"Nihokhu","LOC_NAME":"Nihokhu"}},{"type":"Feature","id":3725,"geometry":{"type":"Point","coordinates":[93.996123115865515,25.927887918083016]},"properties":{"OBJECTID":3725,"stname":"NAGALAND","dtname":"Dimapur","STCODE11":"13","DTCODE11":"265","SDTCODE11":"01821","NAME11":"Niuland","LOC_NAME":"Niuland"}},{"type":"Feature","id":3726,"geometry":{"type":"Point","coordinates":[93.842825458120274,25.850814795315337]},"properties":{"OBJECTID":3726,"stname":"NAGALAND","dtname":"Dimapur","STCODE11":"13","DTCODE11":"265","SDTCODE11":"01823","NAME11":"Kuhoboto","LOC_NAME":"Kuhoboto"}},{"type":"Feature","id":3727,"geometry":{"type":"Point","coordinates":[93.556515629779568,25.321265152886124]},"properties":{"OBJECTID":3727,"stname":"NAGALAND","dtname":"Peren","STCODE11":"13","DTCODE11":"271","SDTCODE11":"01841","NAME11":"Nsong","LOC_NAME":"Nsong"}},{"type":"Feature","id":3728,"geometry":{"type":"Point","coordinates":[94.472577382068494,25.775730761600698]},"properties":{"OBJECTID":3728,"stname":"NAGALAND","dtname":"Phek","STCODE11":"13","DTCODE11":"266","SDTCODE11":"01846","NAME11":"Khuza","LOC_NAME":"Khuza"}},{"type":"Feature","id":3729,"geometry":{"type":"Point","coordinates":[94.26479243591784,25.668235361890812]},"properties":{"OBJECTID":3729,"stname":"NAGALAND","dtname":"Phek","STCODE11":"13","DTCODE11":"266","SDTCODE11":"01851","NAME11":"Chetheba","LOC_NAME":"Chetheba"}},{"type":"Feature","id":3730,"geometry":{"type":"Point","coordinates":[94.207709056765481,25.515386283373925]},"properties":{"OBJECTID":3730,"stname":"NAGALAND","dtname":"Phek","STCODE11":"13","DTCODE11":"266","SDTCODE11":"01855","NAME11":"Khezhakeno","LOC_NAME":"Khezhakeno"}},{"type":"Feature","id":5546,"geometry":{"type":"Point","coordinates":[94.898589246316689,26.702565698368279]},"properties":{"OBJECTID":5546,"stname":"NAGALAND","dtname":"Mon","STCODE11":"13","DTCODE11":"261","SDTCODE11":"01749","NAME11":"Wakching","LOC_NAME":"Wakching"}},{"type":"Feature","id":5547,"geometry":{"type":"Point","coordinates":[95.184009257435889,26.688450274059285]},"properties":{"OBJECTID":5547,"stname":"NAGALAND","dtname":"Mon","STCODE11":"13","DTCODE11":"261","SDTCODE11":"01752","NAME11":"Phomching","LOC_NAME":"Phomching"}},{"type":"Feature","id":5548,"geometry":{"type":"Point","coordinates":[95.030880280843135,26.440834178264236]},"properties":{"OBJECTID":5548,"stname":"NAGALAND","dtname":"Mon","STCODE11":"13","DTCODE11":"261","SDTCODE11":"01757","NAME11":"Monyakshu","LOC_NAME":"Monyakshu"}},{"type":"Feature","id":5549,"geometry":{"type":"Point","coordinates":[94.725589440417792,26.369476102293778]},"properties":{"OBJECTID":5549,"stname":"NAGALAND","dtname":"Tuensang","STCODE11":"13","DTCODE11":"267","SDTCODE11":"01758","NAME11":"Noksen","LOC_NAME":"Noksen"}},{"type":"Feature","id":5550,"geometry":{"type":"Point","coordinates":[94.812265225864195,26.234839706636972]},"properties":{"OBJECTID":5550,"stname":"NAGALAND","dtname":"Tuensang","STCODE11":"13","DTCODE11":"267","SDTCODE11":"01761","NAME11":"Tuensang Sadar","LOC_NAME":"Tuensang Sadar"}},{"type":"Feature","id":5551,"geometry":{"type":"Point","coordinates":[94.678415020533379,26.221025131780294]},"properties":{"OBJECTID":5551,"stname":"NAGALAND","dtname":"Tuensang","STCODE11":"13","DTCODE11":"267","SDTCODE11":"01760","NAME11":"Longkhim","LOC_NAME":"Longkhim"}},{"type":"Feature","id":5552,"geometry":{"type":"Point","coordinates":[94.93641310600195,26.2408325765564]},"properties":{"OBJECTID":5552,"stname":"NAGALAND","dtname":"Tuensang","STCODE11":"13","DTCODE11":"267","SDTCODE11":"01766","NAME11":"Chingmei","LOC_NAME":"Chingmei"}},{"type":"Feature","id":5553,"geometry":{"type":"Point","coordinates":[95.020646159290123,26.203094326108346]},"properties":{"OBJECTID":5553,"stname":"NAGALAND","dtname":"Tuensang","STCODE11":"13","DTCODE11":"267","SDTCODE11":"01767","NAME11":"Nokhu","LOC_NAME":"Nokhu"}},{"type":"Feature","id":5554,"geometry":{"type":"Point","coordinates":[94.876513614435083,26.067660703718399]},"properties":{"OBJECTID":5554,"stname":"NAGALAND","dtname":"Tuensang","STCODE11":"13","DTCODE11":"267","SDTCODE11":"01769","NAME11":"Shamator","LOC_NAME":"Shamator"}},{"type":"Feature","id":5555,"geometry":{"type":"Point","coordinates":[94.749076072285845,26.091872657744791]},"properties":{"OBJECTID":5555,"stname":"NAGALAND","dtname":"Tuensang","STCODE11":"13","DTCODE11":"267","SDTCODE11":"01771","NAME11":"Chessore","LOC_NAME":"Chessore"}},{"type":"Feature","id":5556,"geometry":{"type":"Point","coordinates":[94.74296814729307,26.672962741350009]},"properties":{"OBJECTID":5556,"stname":"NAGALAND","dtname":"Longleng","STCODE11":"13","DTCODE11":"268","SDTCODE11":"01774","NAME11":"Tamlu","LOC_NAME":"Tamlu"}},{"type":"Feature","id":5557,"geometry":{"type":"Point","coordinates":[94.868371372734728,26.406022383569073]},"properties":{"OBJECTID":5557,"stname":"NAGALAND","dtname":"Longleng","STCODE11":"13","DTCODE11":"268","SDTCODE11":"01778","NAME11":"Sakshi","LOC_NAME":"Sakshi"}},{"type":"Feature","id":5558,"geometry":{"type":"Point","coordinates":[94.845738998277668,25.811908250675909]},"properties":{"OBJECTID":5558,"stname":"NAGALAND","dtname":"Kiphire","STCODE11":"13","DTCODE11":"269","SDTCODE11":"01785","NAME11":"Pungro","LOC_NAME":"Pungro"}},{"type":"Feature","id":5559,"geometry":{"type":"Point","coordinates":[94.491242674958315,26.171036359130422]},"properties":{"OBJECTID":5559,"stname":"NAGALAND","dtname":"Zunheboto","STCODE11":"13","DTCODE11":"263","SDTCODE11":"01797","NAME11":"Akuluto","LOC_NAME":"Akuluto"}},{"type":"Feature","id":5560,"geometry":{"type":"Point","coordinates":[94.45534696458877,26.079409624501984]},"properties":{"OBJECTID":5560,"stname":"NAGALAND","dtname":"Zunheboto","STCODE11":"13","DTCODE11":"263","SDTCODE11":"01803","NAME11":"Akuhaito","LOC_NAME":"Akuhaito"}},{"type":"Feature","id":5561,"geometry":{"type":"Point","coordinates":[94.447359024708149,25.930459124650209]},"properties":{"OBJECTID":5561,"stname":"NAGALAND","dtname":"Zunheboto","STCODE11":"13","DTCODE11":"263","SDTCODE11":"01806","NAME11":"Satakha","LOC_NAME":"Satakha"}},{"type":"Feature","id":5562,"geometry":{"type":"Point","coordinates":[94.20934374803744,26.209541023157673]},"properties":{"OBJECTID":5562,"stname":"NAGALAND","dtname":"Wokha","STCODE11":"13","DTCODE11":"264","SDTCODE11":"01814","NAME11":"Sanis","LOC_NAME":"Sanis"}},{"type":"Feature","id":5563,"geometry":{"type":"Point","coordinates":[94.218085759818706,25.923911013260671]},"properties":{"OBJECTID":5563,"stname":"NAGALAND","dtname":"Kohima","STCODE11":"13","DTCODE11":"270","SDTCODE11":"01829","NAME11":"Tseminyu","LOC_NAME":"Tseminyu"}},{"type":"Feature","id":5564,"geometry":{"type":"Point","coordinates":[94.130123349730226,25.796824022630776]},"properties":{"OBJECTID":5564,"stname":"NAGALAND","dtname":"Kohima","STCODE11":"13","DTCODE11":"270","SDTCODE11":"01831","NAME11":"Chiephobozou","LOC_NAME":"Chiephobozou"}},{"type":"Feature","id":5565,"geometry":{"type":"Point","coordinates":[94.124416977059354,25.594831148841386]},"properties":{"OBJECTID":5565,"stname":"NAGALAND","dtname":"Kohima","STCODE11":"13","DTCODE11":"270","SDTCODE11":"01834","NAME11":"Jakhama","LOC_NAME":"Jakhama"}},{"type":"Feature","id":5566,"geometry":{"type":"Point","coordinates":[93.622467620286173,25.546522975926514]},"properties":{"OBJECTID":5566,"stname":"NAGALAND","dtname":"Peren","STCODE11":"13","DTCODE11":"271","SDTCODE11":"01839","NAME11":"Athibung","LOC_NAME":"Athibung"}},{"type":"Feature","id":5567,"geometry":{"type":"Point","coordinates":[94.3817771598615,25.777372587065933]},"properties":{"OBJECTID":5567,"stname":"NAGALAND","dtname":"Phek","STCODE11":"13","DTCODE11":"266","SDTCODE11":"01844","NAME11":"Sekruzu","LOC_NAME":"Sekruzu"}},{"type":"Feature","id":5568,"geometry":{"type":"Point","coordinates":[94.617606235371284,25.676469286750962]},"properties":{"OBJECTID":5568,"stname":"NAGALAND","dtname":"Phek","STCODE11":"13","DTCODE11":"266","SDTCODE11":"01847","NAME11":"Meluri","LOC_NAME":"Meluri"}},{"type":"Feature","id":5569,"geometry":{"type":"Point","coordinates":[94.213483863094723,25.555503986746114]},"properties":{"OBJECTID":5569,"stname":"NAGALAND","dtname":"Phek","STCODE11":"13","DTCODE11":"266","SDTCODE11":"01854","NAME11":"Zuketsa","LOC_NAME":"Zuketsa"}},{"type":"Feature","id":5570,"geometry":{"type":"Point","coordinates":[94.383924589734718,25.591883042144794]},"properties":{"OBJECTID":5570,"stname":"NAGALAND","dtname":"Phek","STCODE11":"13","DTCODE11":"266","SDTCODE11":"01856","NAME11":"Chizami","LOC_NAME":"Chizami"}}]}