{"type":"FeatureCollection","crs":{"type":"name","properties":{"name":"EPSG:4326"}},"features":[{"type":"Feature","id":4973,"geometry":{"type":"Point","coordinates":[78.877539226316358,29.956790164898287]},"properties":{"OBJECTID":4973,"stname":"UTTARAKHAND","dtname":"Garhwal","STCODE11":"05","DTCODE11":"061","SDTCODE11":"00312","NAME11":"Chaubatta Khal","LOC_NAME":"Chaubatta Khal"}},{"type":"Feature","id":4974,"geometry":{"type":"Point","coordinates":[79.015734557523629,29.75049463238437]},"properties":{"OBJECTID":4974,"stname":"UTTARAKHAND","dtname":"Garhwal","STCODE11":"05","DTCODE11":"061","SDTCODE11":"00309","NAME11":"Dhoomakot","LOC_NAME":"Dhoomakot"}},{"type":"Feature","id":4975,"geometry":{"type":"Point","coordinates":[78.600684333427637,30.145827148107536]},"properties":{"OBJECTID":4975,"stname":"UTTARAKHAND","dtname":"Tehri Garhwal","STCODE11":"05","DTCODE11":"059","SDTCODE11":"00294","NAME11":"Devprayag","LOC_NAME":"Devprayag"}},{"type":"Feature","id":4976,"geometry":{"type":"Point","coordinates":[79.214103629665786,30.259627360412367]},"properties":{"OBJECTID":4976,"stname":"UTTARAKHAND","dtname":"Chamoli","STCODE11":"05","DTCODE11":"057","SDTCODE11":"00287","NAME11":"Karnaprayag","LOC_NAME":"Karnaprayag"}},{"type":"Feature","id":4977,"geometry":{"type":"Point","coordinates":[79.568938264809375,30.557833065772229]},"properties":{"OBJECTID":4977,"stname":"UTTARAKHAND","dtname":"Chamoli","STCODE11":"05","DTCODE11":"057","SDTCODE11":"00284","NAME11":"Joshimath","LOC_NAME":"Joshimath"}},{"type":"Feature","id":4978,"geometry":{"type":"Point","coordinates":[78.046357521830984,31.020789432860649]},"properties":{"OBJECTID":4978,"stname":"UTTARAKHAND","dtname":"Uttarkashi","STCODE11":"05","DTCODE11":"056","SDTCODE11":"00279","NAME11":"Mori","LOC_NAME":"Mori"}},{"type":"Feature","id":4979,"geometry":{"type":"Point","coordinates":[78.239787543353302,30.840011215215394]},"properties":{"OBJECTID":4979,"stname":"UTTARAKHAND","dtname":"Uttarkashi","STCODE11":"05","DTCODE11":"056","SDTCODE11":"00280","NAME11":"Rajgarhi","LOC_NAME":"Rajgarhi"}},{"type":"Feature","id":4980,"geometry":{"type":"Point","coordinates":[78.618804861878019,30.808843623177474]},"properties":{"OBJECTID":4980,"stname":"UTTARAKHAND","dtname":"Uttarkashi","STCODE11":"05","DTCODE11":"056","SDTCODE11":"00283","NAME11":"Bhatwari","LOC_NAME":"Bhatwari"}},{"type":"Feature","id":4981,"geometry":{"type":"Point","coordinates":[78.320346866218486,30.576767078526757]},"properties":{"OBJECTID":4981,"stname":"UTTARAKHAND","dtname":"Uttarkashi","STCODE11":"05","DTCODE11":"056","SDTCODE11":"00282","NAME11":"Chinyali Saur","LOC_NAME":"Chinyali Saur"}},{"type":"Feature","id":4982,"geometry":{"type":"Point","coordinates":[78.658252259352665,30.427668373920721]},"properties":{"OBJECTID":4982,"stname":"UTTARAKHAND","dtname":"Tehri Garhwal","STCODE11":"05","DTCODE11":"059","SDTCODE11":"00293","NAME11":"Ghansali","LOC_NAME":"Ghansali"}},{"type":"Feature","id":4983,"geometry":{"type":"Point","coordinates":[78.28487042923642,30.161795842374442]},"properties":{"OBJECTID":4983,"stname":"UTTARAKHAND","dtname":"Tehri Garhwal","STCODE11":"05","DTCODE11":"059","SDTCODE11":"00299","NAME11":"Narendra Nagar","LOC_NAME":"Narendra Nagar"}},{"type":"Feature","id":4984,"geometry":{"type":"Point","coordinates":[79.437235808253703,29.64301871187741]},"properties":{"OBJECTID":4984,"stname":"UTTARAKHAND","dtname":"Almora\n","STCODE11":"05","DTCODE11":"064","SDTCODE11":"00328","NAME11":"Ranikhet","LOC_NAME":"Ranikhet"}},{"type":"Feature","id":4985,"geometry":{"type":"Point","coordinates":[78.82736234569829,29.279202602464242]},"properties":{"OBJECTID":4985,"stname":"UTTARAKHAND","dtname":"Udham Singh Nagar","STCODE11":"05","DTCODE11":"067","SDTCODE11":"00347","NAME11":"Jaspur","LOC_NAME":"Jaspur"}},{"type":"Feature","id":4986,"geometry":{"type":"Point","coordinates":[80.526195350164642,29.849567599420634]},"properties":{"OBJECTID":4986,"stname":"UTTARAKHAND","dtname":"Pithoragarh","STCODE11":"05","DTCODE11":"062","SDTCODE11":"00316","NAME11":"Dharchula","LOC_NAME":"Dharchula"}},{"type":"Feature","id":4987,"geometry":{"type":"Point","coordinates":[80.239723590612471,30.08131002092459]},"properties":{"OBJECTID":4987,"stname":"UTTARAKHAND","dtname":"Pithoragarh","STCODE11":"05","DTCODE11":"062","SDTCODE11":"00315","NAME11":"Munsiari","LOC_NAME":"Munsiari"}},{"type":"Feature","id":4988,"geometry":{"type":"Point","coordinates":[79.9691222647769,28.920820381227738]},"properties":{"OBJECTID":4988,"stname":"UTTARAKHAND","dtname":"Udham Singh Nagar","STCODE11":"05","DTCODE11":"067","SDTCODE11":"00352","NAME11":"Khatima\n","LOC_NAME":"Khatima\n"}},{"type":"Feature","id":4989,"geometry":{"type":"Point","coordinates":[80.054988056399594,29.780167363689625]},"properties":{"OBJECTID":4989,"stname":"UTTARAKHAND","dtname":"Pithoragarh","STCODE11":"05","DTCODE11":"062","SDTCODE11":"00318","NAME11":"Berinag","LOC_NAME":"Berinag"}},{"type":"Feature","id":4990,"geometry":{"type":"Point","coordinates":[79.097197110355822,30.518818091026386]},"properties":{"OBJECTID":4990,"stname":"UTTARAKHAND","dtname":"Rudraprayag","STCODE11":"05","DTCODE11":"058","SDTCODE11":"00290","NAME11":"Ukhimath","LOC_NAME":"Ukhimath"}},{"type":"Feature","id":4991,"geometry":{"type":"Point","coordinates":[79.331186714641476,30.401131702732179]},"properties":{"OBJECTID":4991,"stname":"UTTARAKHAND","dtname":"Chamoli","STCODE11":"05","DTCODE11":"057","SDTCODE11":"00285","NAME11":"Chamoli","LOC_NAME":"Chamoli"}},{"type":"Feature","id":4992,"geometry":{"type":"Point","coordinates":[79.429369025053745,29.777343075924161]},"properties":{"OBJECTID":4992,"stname":"UTTARAKHAND","dtname":"Almora\n","STCODE11":"05","DTCODE11":"064","SDTCODE11":"00329","NAME11":"Dwarahat\n","LOC_NAME":"Dwarahat\n"}},{"type":"Feature","id":4993,"geometry":{"type":"Point","coordinates":[79.050469234015992,30.020433049627794]},"properties":{"OBJECTID":4993,"stname":"UTTARAKHAND","dtname":"Garhwal","STCODE11":"05","DTCODE11":"061","SDTCODE11":"00308","NAME11":"Thailisain","LOC_NAME":"Thailisain"}},{"type":"Feature","id":4994,"geometry":{"type":"Point","coordinates":[78.788652592632658,30.22257235044356]},"properties":{"OBJECTID":4994,"stname":"UTTARAKHAND","dtname":"Garhwal","STCODE11":"05","DTCODE11":"061","SDTCODE11":"00306","NAME11":"Srinagar","LOC_NAME":"Srinagar"}},{"type":"Feature","id":4995,"geometry":{"type":"Point","coordinates":[79.531351711276088,29.211958372586164]},"properties":{"OBJECTID":4995,"stname":"UTTARAKHAND","dtname":"Nainital","STCODE11":"05","DTCODE11":"066","SDTCODE11":"00342","NAME11":"Haldwani\n","LOC_NAME":"Haldwani\n"}},{"type":"Feature","id":4996,"geometry":{"type":"Point","coordinates":[80.040300111024081,29.656722382499385]},"properties":{"OBJECTID":4996,"stname":"UTTARAKHAND","dtname":"Pithoragarh","STCODE11":"05","DTCODE11":"062","SDTCODE11":"00319","NAME11":"Gangolihat","LOC_NAME":"Gangolihat"}},{"type":"Feature","id":4997,"geometry":{"type":"Point","coordinates":[78.247451802270774,30.423388825087756]},"properties":{"OBJECTID":4997,"stname":"UTTARAKHAND","dtname":"Tehri Garhwal","STCODE11":"05","DTCODE11":"059","SDTCODE11":"00298","NAME11":"Dhanaulti","LOC_NAME":"Dhanaulti"}},{"type":"Feature","id":4998,"geometry":{"type":"Point","coordinates":[79.702835138517486,28.92814809893834]},"properties":{"OBJECTID":4998,"stname":"UTTARAKHAND","dtname":"Udham Singh Nagar","STCODE11":"05","DTCODE11":"067","SDTCODE11":"00351","NAME11":"Sitarganj","LOC_NAME":"Sitarganj"}},{"type":"Feature","id":4999,"geometry":{"type":"Point","coordinates":[79.881996830309987,29.825710216735423]},"properties":{"OBJECTID":4999,"stname":"UTTARAKHAND","dtname":"Bageshwar","STCODE11":"05","DTCODE11":"063","SDTCODE11":"00322","NAME11":"Kanda","LOC_NAME":"Kanda"}},{"type":"Feature","id":5000,"geometry":{"type":"Point","coordinates":[78.41885939553255,29.976663691607637]},"properties":{"OBJECTID":5000,"stname":"UTTARAKHAND","dtname":"Garhwal","STCODE11":"05","DTCODE11":"061","SDTCODE11":"00314","NAME11":"Yamkeshwar","LOC_NAME":"Yamkeshwar"}},{"type":"Feature","id":5001,"geometry":{"type":"Point","coordinates":[79.199227037182311,30.344163843262809]},"properties":{"OBJECTID":5001,"stname":"UTTARAKHAND","dtname":"Chamoli","STCODE11":"05","DTCODE11":"057","SDTCODE11":"00286","NAME11":"Pokhari","LOC_NAME":"Pokhari"}},{"type":"Feature","id":5002,"geometry":{"type":"Point","coordinates":[79.501436298653658,30.074583319658078]},"properties":{"OBJECTID":5002,"stname":"UTTARAKHAND","dtname":"Chamoli","STCODE11":"05","DTCODE11":"057","SDTCODE11":"00288","NAME11":"Tharali","LOC_NAME":"Tharali"}},{"type":"Feature","id":5003,"geometry":{"type":"Point","coordinates":[77.847861766572493,30.942576613822414]},"properties":{"OBJECTID":5003,"stname":"UTTARAKHAND","dtname":"Dehradun","STCODE11":"05","DTCODE11":"060","SDTCODE11":"00301","NAME11":"Tyuni","LOC_NAME":"Tyuni"}},{"type":"Feature","id":5004,"geometry":{"type":"Point","coordinates":[77.890367500889823,29.873487524631919]},"properties":{"OBJECTID":5004,"stname":"UTTARAKHAND","dtname":"Hardwar","STCODE11":"05","DTCODE11":"068","SDTCODE11":"00353","NAME11":"Roorkee","LOC_NAME":"Roorkee"}},{"type":"Feature","id":5005,"geometry":{"type":"Point","coordinates":[77.845737541081377,30.536298900372895]},"properties":{"OBJECTID":5005,"stname":"UTTARAKHAND","dtname":"Dehradun","STCODE11":"05","DTCODE11":"060","SDTCODE11":"00302","NAME11":"Kalsi","LOC_NAME":"Kalsi"}},{"type":"Feature","id":5006,"geometry":{"type":"Point","coordinates":[78.29845073569696,30.105807916976442]},"properties":{"OBJECTID":5006,"stname":"UTTARAKHAND","dtname":"Dehradun","STCODE11":"05","DTCODE11":"060","SDTCODE11":"00305","NAME11":"Rishikesh\n","LOC_NAME":"Rishikesh\n"}},{"type":"Feature","id":5007,"geometry":{"type":"Point","coordinates":[78.024514104450304,29.750471199133141]},"properties":{"OBJECTID":5007,"stname":"UTTARAKHAND","dtname":"Hardwar","STCODE11":"05","DTCODE11":"068","SDTCODE11":"00355","NAME11":"Laksar\n","LOC_NAME":"Laksar\n"}},{"type":"Feature","id":5008,"geometry":{"type":"Point","coordinates":[79.285278009314325,30.053810283043823]},"properties":{"OBJECTID":5008,"stname":"UTTARAKHAND","dtname":"Chamoli","STCODE11":"05","DTCODE11":"057","SDTCODE11":"00289","NAME11":"Gairsain","LOC_NAME":"Gairsain"}},{"type":"Feature","id":5009,"geometry":{"type":"Point","coordinates":[79.612544896185497,29.895961981177539]},"properties":{"OBJECTID":5009,"stname":"UTTARAKHAND","dtname":"Bageshwar","STCODE11":"05","DTCODE11":"063","SDTCODE11":"00324","NAME11":"Garud","LOC_NAME":"Garud"}},{"type":"Feature","id":5010,"geometry":{"type":"Point","coordinates":[78.767922380128496,30.1556324410451]},"properties":{"OBJECTID":5010,"stname":"UTTARAKHAND","dtname":"Garhwal","STCODE11":"05","DTCODE11":"061","SDTCODE11":"00307","NAME11":"Pauri","LOC_NAME":"Pauri"}},{"type":"Feature","id":5011,"geometry":{"type":"Point","coordinates":[79.605008819672548,29.779728675737211]},"properties":{"OBJECTID":5011,"stname":"UTTARAKHAND","dtname":"Almora\n","STCODE11":"05","DTCODE11":"064","SDTCODE11":"00331","NAME11":"Someshwar","LOC_NAME":"Someshwar"}},{"type":"Feature","id":5012,"geometry":{"type":"Point","coordinates":[79.494606998639938,29.497961860680196]},"properties":{"OBJECTID":5012,"stname":"UTTARAKHAND","dtname":"Nainital","STCODE11":"05","DTCODE11":"066","SDTCODE11":"00338","NAME11":"Kosya Kutauli","LOC_NAME":"Kosya Kutauli"}},{"type":"Feature","id":5013,"geometry":{"type":"Point","coordinates":[80.214829672393364,29.584684722092373]},"properties":{"OBJECTID":5013,"stname":"UTTARAKHAND","dtname":"Pithoragarh","STCODE11":"05","DTCODE11":"062","SDTCODE11":"00320","NAME11":"Pithoragarh\n","LOC_NAME":"Pithoragarh\n"}},{"type":"Feature","id":5014,"geometry":{"type":"Point","coordinates":[78.038296210252852,30.324829099132934]},"properties":{"OBJECTID":5014,"stname":"UTTARAKHAND","dtname":"Dehradun","STCODE11":"05","DTCODE11":"060","SDTCODE11":"00304","NAME11":"Dehradun \n","LOC_NAME":"Dehradun \n"}},{"type":"Feature","id":5015,"geometry":{"type":"Point","coordinates":[78.162230347946874,29.95059250017275]},"properties":{"OBJECTID":5015,"stname":"UTTARAKHAND","dtname":"Hardwar","STCODE11":"05","DTCODE11":"068","SDTCODE11":"00354","NAME11":"Hardwar","LOC_NAME":"Hardwar"}},{"type":"Feature","id":5016,"geometry":{"type":"Point","coordinates":[78.954708192314897,30.40373910701889]},"properties":{"OBJECTID":5016,"stname":"UTTARAKHAND","dtname":"Rudraprayag","STCODE11":"05","DTCODE11":"058","SDTCODE11":"00292","NAME11":"Jakholi*","LOC_NAME":"Jakholi*"}},{"type":"Feature","id":5017,"geometry":{"type":"Point","coordinates":[78.510499991687851,30.335282672391376]},"properties":{"OBJECTID":5017,"stname":"UTTARAKHAND","dtname":"Tehri Garhwal","STCODE11":"05","DTCODE11":"059","SDTCODE11":"00296","NAME11":"Jakhani Dhar","LOC_NAME":"Jakhani Dhar"}},{"type":"Feature","id":5018,"geometry":{"type":"Point","coordinates":[79.935518908587028,29.404993208580635]},"properties":{"OBJECTID":5018,"stname":"UTTARAKHAND","dtname":"Champawat","STCODE11":"05","DTCODE11":"065","SDTCODE11":"00335","NAME11":"Pati","LOC_NAME":"Pati"}},{"type":"Feature","id":5019,"geometry":{"type":"Point","coordinates":[79.519422170541233,28.909975764556364]},"properties":{"OBJECTID":5019,"stname":"UTTARAKHAND","dtname":"Udham Singh Nagar","STCODE11":"05","DTCODE11":"067","SDTCODE11":"00349","NAME11":"Kichha","LOC_NAME":"Kichha"}},{"type":"Feature","id":5020,"geometry":{"type":"Point","coordinates":[79.516734813656413,29.069715635051129]},"properties":{"OBJECTID":5020,"stname":"UTTARAKHAND","dtname":"Nainital","STCODE11":"05","DTCODE11":"066","SDTCODE11":"00345","NAME11":"Lalkuan","LOC_NAME":"Lalkuan"}},{"type":"Feature","id":5021,"geometry":{"type":"Point","coordinates":[79.351211487339555,29.284034745335429]},"properties":{"OBJECTID":5021,"stname":"UTTARAKHAND","dtname":"Nainital","STCODE11":"05","DTCODE11":"066","SDTCODE11":"00344","NAME11":"Kaladhungi","LOC_NAME":"Kaladhungi"}},{"type":"Feature","id":5397,"geometry":{"type":"Point","coordinates":[78.08488499414905,30.879589965623389]},"properties":{"OBJECTID":5397,"stname":"UTTARAKHAND","dtname":"Uttarkashi","STCODE11":"05","DTCODE11":"056","SDTCODE11":"00278","NAME11":"Puraula","LOC_NAME":"Puraula"}},{"type":"Feature","id":5398,"geometry":{"type":"Point","coordinates":[78.348800251851401,30.704046117727891]},"properties":{"OBJECTID":5398,"stname":"UTTARAKHAND","dtname":"Uttarkashi","STCODE11":"05","DTCODE11":"056","SDTCODE11":"00281","NAME11":"Dunda","LOC_NAME":"Dunda"}},{"type":"Feature","id":5399,"geometry":{"type":"Point","coordinates":[78.980677608626451,30.286203271037326]},"properties":{"OBJECTID":5399,"stname":"UTTARAKHAND","dtname":"Rudraprayag","STCODE11":"05","DTCODE11":"058","SDTCODE11":"00291","NAME11":"Rudraprayag","LOC_NAME":"Rudraprayag"}},{"type":"Feature","id":5400,"geometry":{"type":"Point","coordinates":[78.484922009973161,30.453084498205783]},"properties":{"OBJECTID":5400,"stname":"UTTARAKHAND","dtname":"Tehri Garhwal","STCODE11":"05","DTCODE11":"059","SDTCODE11":"00295","NAME11":"Pratapnagar","LOC_NAME":"Pratapnagar"}},{"type":"Feature","id":5401,"geometry":{"type":"Point","coordinates":[78.431764850720697,30.37218282432757]},"properties":{"OBJECTID":5401,"stname":"UTTARAKHAND","dtname":"Tehri Garhwal","STCODE11":"05","DTCODE11":"059","SDTCODE11":"00297","NAME11":"Tehri","LOC_NAME":"Tehri"}},{"type":"Feature","id":5402,"geometry":{"type":"Point","coordinates":[77.862501670944908,30.703266320573832]},"properties":{"OBJECTID":5402,"stname":"UTTARAKHAND","dtname":"Dehradun","STCODE11":"05","DTCODE11":"060","SDTCODE11":"00300","NAME11":"Chakrata","LOC_NAME":"Chakrata"}},{"type":"Feature","id":5403,"geometry":{"type":"Point","coordinates":[77.771593534122829,30.468855456612747]},"properties":{"OBJECTID":5403,"stname":"UTTARAKHAND","dtname":"Dehradun","STCODE11":"05","DTCODE11":"060","SDTCODE11":"00303","NAME11":"Vikas Nagar","LOC_NAME":"Vikas Nagar"}},{"type":"Feature","id":5404,"geometry":{"type":"Point","coordinates":[78.681638201755462,29.838269212522743]},"properties":{"OBJECTID":5404,"stname":"UTTARAKHAND","dtname":"Garhwal","STCODE11":"05","DTCODE11":"061","SDTCODE11":"00310","NAME11":"Lansdowne","LOC_NAME":"Lansdowne"}},{"type":"Feature","id":5405,"geometry":{"type":"Point","coordinates":[78.708407137534493,29.917683723152393]},"properties":{"OBJECTID":5405,"stname":"UTTARAKHAND","dtname":"Garhwal","STCODE11":"05","DTCODE11":"061","SDTCODE11":"00311","NAME11":"Satpuli","LOC_NAME":"Satpuli"}},{"type":"Feature","id":5406,"geometry":{"type":"Point","coordinates":[78.520993940157027,29.744812530200004]},"properties":{"OBJECTID":5406,"stname":"UTTARAKHAND","dtname":"Garhwal","STCODE11":"05","DTCODE11":"061","SDTCODE11":"00313","NAME11":"Kotdwara\n","LOC_NAME":"Kotdwara\n"}},{"type":"Feature","id":5407,"geometry":{"type":"Point","coordinates":[80.251658626341893,29.802863362646644]},"properties":{"OBJECTID":5407,"stname":"UTTARAKHAND","dtname":"Pithoragarh","STCODE11":"05","DTCODE11":"062","SDTCODE11":"00317","NAME11":"Didihat","LOC_NAME":"Didihat"}},{"type":"Feature","id":5408,"geometry":{"type":"Point","coordinates":[79.897017280799673,29.951375452700713]},"properties":{"OBJECTID":5408,"stname":"UTTARAKHAND","dtname":"Bageshwar","STCODE11":"05","DTCODE11":"063","SDTCODE11":"00321","NAME11":"Kapkot","LOC_NAME":"Kapkot"}},{"type":"Feature","id":5409,"geometry":{"type":"Point","coordinates":[79.7709217983287,29.837117894839544]},"properties":{"OBJECTID":5409,"stname":"UTTARAKHAND","dtname":"Bageshwar","STCODE11":"05","DTCODE11":"063","SDTCODE11":"00323","NAME11":"Bageshwar\n","LOC_NAME":"Bageshwar\n"}},{"type":"Feature","id":5410,"geometry":{"type":"Point","coordinates":[79.160903938777906,29.672890992052498]},"properties":{"OBJECTID":5410,"stname":"UTTARAKHAND","dtname":"Almora\n","STCODE11":"05","DTCODE11":"064","SDTCODE11":"00327","NAME11":"Sult","LOC_NAME":"Sult"}},{"type":"Feature","id":5411,"geometry":{"type":"Point","coordinates":[79.265528838847075,29.6973280564664]},"properties":{"OBJECTID":5411,"stname":"UTTARAKHAND","dtname":"Almora\n","STCODE11":"05","DTCODE11":"064","SDTCODE11":"00325","NAME11":"Bhikiasain","LOC_NAME":"Bhikiasain"}},{"type":"Feature","id":5412,"geometry":{"type":"Point","coordinates":[79.351189393275135,29.883877793766896]},"properties":{"OBJECTID":5412,"stname":"UTTARAKHAND","dtname":"Almora\n","STCODE11":"05","DTCODE11":"064","SDTCODE11":"00326","NAME11":"Chaukhutiya","LOC_NAME":"Chaukhutiya"}},{"type":"Feature","id":5413,"geometry":{"type":"Point","coordinates":[79.837183213534956,29.481587261462433]},"properties":{"OBJECTID":5413,"stname":"UTTARAKHAND","dtname":"Almora\n","STCODE11":"05","DTCODE11":"064","SDTCODE11":"00332","NAME11":"Jainti","LOC_NAME":"Jainti"}},{"type":"Feature","id":5414,"geometry":{"type":"Point","coordinates":[79.935900825533452,29.503151024924595]},"properties":{"OBJECTID":5414,"stname":"UTTARAKHAND","dtname":"Almora\n","STCODE11":"05","DTCODE11":"064","SDTCODE11":"00333","NAME11":"Bhanoli","LOC_NAME":"Bhanoli"}},{"type":"Feature","id":5415,"geometry":{"type":"Point","coordinates":[79.657266218251593,29.595950106171514]},"properties":{"OBJECTID":5415,"stname":"UTTARAKHAND","dtname":"Almora\n","STCODE11":"05","DTCODE11":"064","SDTCODE11":"00330","NAME11":"Almora\n","LOC_NAME":"Almora\n"}},{"type":"Feature","id":5416,"geometry":{"type":"Point","coordinates":[80.089280584804072,29.402712924675374]},"properties":{"OBJECTID":5416,"stname":"UTTARAKHAND","dtname":"Champawat","STCODE11":"05","DTCODE11":"065","SDTCODE11":"00336","NAME11":"Lohaghat","LOC_NAME":"Lohaghat"}},{"type":"Feature","id":5417,"geometry":{"type":"Point","coordinates":[80.11597985353788,29.074843068714166]},"properties":{"OBJECTID":5417,"stname":"UTTARAKHAND","dtname":"Champawat","STCODE11":"05","DTCODE11":"065","SDTCODE11":"00337","NAME11":"Poornagiri","LOC_NAME":"Poornagiri"}},{"type":"Feature","id":5418,"geometry":{"type":"Point","coordinates":[80.090992890516574,29.335560536094128]},"properties":{"OBJECTID":5418,"stname":"UTTARAKHAND","dtname":"Champawat","STCODE11":"05","DTCODE11":"065","SDTCODE11":"00334","NAME11":"Champawat","LOC_NAME":"Champawat"}},{"type":"Feature","id":5419,"geometry":{"type":"Point","coordinates":[79.129288191392433,29.394288413170873]},"properties":{"OBJECTID":5419,"stname":"UTTARAKHAND","dtname":"Nainital","STCODE11":"05","DTCODE11":"066","SDTCODE11":"00343","NAME11":"Ramnagar","LOC_NAME":"Ramnagar"}},{"type":"Feature","id":5420,"geometry":{"type":"Point","coordinates":[79.45310006156113,29.392696408871284]},"properties":{"OBJECTID":5420,"stname":"UTTARAKHAND","dtname":"Nainital","STCODE11":"05","DTCODE11":"066","SDTCODE11":"00340","NAME11":"Nainital","LOC_NAME":"Nainital"}},{"type":"Feature","id":5421,"geometry":{"type":"Point","coordinates":[79.34376833076297,29.557099258078271]},"properties":{"OBJECTID":5421,"stname":"UTTARAKHAND","dtname":"Nainital","STCODE11":"05","DTCODE11":"066","SDTCODE11":"00339","NAME11":"Betalghat","LOC_NAME":"Betalghat"}},{"type":"Feature","id":5422,"geometry":{"type":"Point","coordinates":[79.626751901524187,29.390748935379921]},"properties":{"OBJECTID":5422,"stname":"UTTARAKHAND","dtname":"Nainital","STCODE11":"05","DTCODE11":"066","SDTCODE11":"00341","NAME11":"Dhari","LOC_NAME":"Dhari"}},{"type":"Feature","id":5423,"geometry":{"type":"Point","coordinates":[78.955479210035065,29.214984443685676]},"properties":{"OBJECTID":5423,"stname":"UTTARAKHAND","dtname":"Udham Singh Nagar","STCODE11":"05","DTCODE11":"067","SDTCODE11":"00346","NAME11":"Kashipur","LOC_NAME":"Kashipur"}},{"type":"Feature","id":5424,"geometry":{"type":"Point","coordinates":[79.248090459582443,29.042543627030863]},"properties":{"OBJECTID":5424,"stname":"UTTARAKHAND","dtname":"Udham Singh Nagar","STCODE11":"05","DTCODE11":"067","SDTCODE11":"00350","NAME11":"Gadarpur","LOC_NAME":"Gadarpur"}},{"type":"Feature","id":5425,"geometry":{"type":"Point","coordinates":[79.154871388725653,29.16067237048572]},"properties":{"OBJECTID":5425,"stname":"UTTARAKHAND","dtname":"Udham Singh Nagar","STCODE11":"05","DTCODE11":"067","SDTCODE11":"00348","NAME11":"Bajpur","LOC_NAME":"Bajpur"}}]}