{"type":"FeatureCollection","crs":{"type":"name","properties":{"name":"EPSG:4326"}},"features":[{"type":"Feature","id":2329,"geometry":{"type":"Point","coordinates":[76.536679258820485,32.111087400794787]},"properties":{"OBJECTID":2329,"stname":"HIMACHAL PRADESH","dtname":"Kangra","STCODE11":"02","DTCODE11":"024","SDTCODE11":"00111","NAME11":"Palampur","LOC_NAME":"Palampur"}},{"type":"Feature","id":2330,"geometry":{"type":"Point","coordinates":[76.374416112705802,32.107312264277027]},"properties":{"OBJECTID":2330,"stname":"HIMACHAL PRADESH","dtname":"Kangra","STCODE11":"02","DTCODE11":"024","SDTCODE11":"00101","NAME11":"Nagrota Bagwan","LOC_NAME":"Nagrota Bagwan"}},{"type":"Feature","id":2331,"geometry":{"type":"Point","coordinates":[76.326502777296255,31.87481804047259]},"properties":{"OBJECTID":2331,"stname":"HIMACHAL PRADESH","dtname":"Kangra","STCODE11":"02","DTCODE11":"024","SDTCODE11":"00104","NAME11":"Jawalamukhi","LOC_NAME":"Jawalamukhi"}},{"type":"Feature","id":2332,"geometry":{"type":"Point","coordinates":[76.721070312478119,31.041585551406467]},"properties":{"OBJECTID":2332,"stname":"HIMACHAL PRADESH","dtname":"Solan","STCODE11":"02","DTCODE11":"031","SDTCODE11":"00161","NAME11":"Nalagarh","LOC_NAME":"Nalagarh"}},{"type":"Feature","id":2333,"geometry":{"type":"Point","coordinates":[76.936473356717045,31.233900085800812]},"properties":{"OBJECTID":2333,"stname":"HIMACHAL PRADESH","dtname":"Solan","STCODE11":"02","DTCODE11":"031","SDTCODE11":"00159","NAME11":"Darlaghat","LOC_NAME":"Darlaghat"}},{"type":"Feature","id":2334,"geometry":{"type":"Point","coordinates":[76.792243715657918,31.644172311416071]},"properties":{"OBJECTID":2334,"stname":"HIMACHAL PRADESH","dtname":"Mandi","STCODE11":"02","DTCODE11":"027","SDTCODE11":"00130","NAME11":"Bhadrota","LOC_NAME":"Bhadrota"}},{"type":"Feature","id":2335,"geometry":{"type":"Point","coordinates":[76.893064328652287,31.535199676037898]},"properties":{"OBJECTID":2335,"stname":"HIMACHAL PRADESH","dtname":"Mandi","STCODE11":"02","DTCODE11":"027","SDTCODE11":"00132","NAME11":"Sundarnagar","LOC_NAME":"Sundarnagar"}},{"type":"Feature","id":2336,"geometry":{"type":"Point","coordinates":[76.624493017492412,31.531532911210938]},"properties":{"OBJECTID":2336,"stname":"HIMACHAL PRADESH","dtname":"Bilaspur","STCODE11":"02","DTCODE11":"030","SDTCODE11":"00153","NAME11":"Bharari","LOC_NAME":"Bharari"}},{"type":"Feature","id":2337,"geometry":{"type":"Point","coordinates":[76.447347238622271,31.523751003611693]},"properties":{"OBJECTID":2337,"stname":"HIMACHAL PRADESH","dtname":"Hamirpur","STCODE11":"02","DTCODE11":"028","SDTCODE11":"00144","NAME11":"Barsar","LOC_NAME":"Barsar"}},{"type":"Feature","id":2338,"geometry":{"type":"Point","coordinates":[77.661636472580639,31.108325704403185]},"properties":{"OBJECTID":2338,"stname":"HIMACHAL PRADESH","dtname":"Shimla","STCODE11":"02","DTCODE11":"033","SDTCODE11":"00188","NAME11":"Jubbal","LOC_NAME":"Jubbal"}},{"type":"Feature","id":2339,"geometry":{"type":"Point","coordinates":[77.752094218373784,31.20195872071897]},"properties":{"OBJECTID":2339,"stname":"HIMACHAL PRADESH","dtname":"Shimla","STCODE11":"02","DTCODE11":"033","SDTCODE11":"00191","NAME11":"Rohru","LOC_NAME":"Rohru"}},{"type":"Feature","id":2340,"geometry":{"type":"Point","coordinates":[77.976182225983564,31.553050084539368]},"properties":{"OBJECTID":2340,"stname":"HIMACHAL PRADESH","dtname":"Kinnaur","STCODE11":"02","DTCODE11":"034","SDTCODE11":"00198","NAME11":"Nichar","LOC_NAME":"Nichar"}},{"type":"Feature","id":2341,"geometry":{"type":"Point","coordinates":[77.631330110451614,31.44893801238138]},"properties":{"OBJECTID":2341,"stname":"HIMACHAL PRADESH","dtname":"Shimla","STCODE11":"02","DTCODE11":"033","SDTCODE11":"00177","NAME11":"Rampur","LOC_NAME":"Rampur"}},{"type":"Feature","id":2342,"geometry":{"type":"Point","coordinates":[77.574015934339812,31.424480758244549]},"properties":{"OBJECTID":2342,"stname":"HIMACHAL PRADESH","dtname":"Kullu","STCODE11":"02","DTCODE11":"026","SDTCODE11":"00122","NAME11":"Nermand","LOC_NAME":"Nermand"}},{"type":"Feature","id":2343,"geometry":{"type":"Point","coordinates":[77.417518933896758,31.433891500896813]},"properties":{"OBJECTID":2343,"stname":"HIMACHAL PRADESH","dtname":"Kullu","STCODE11":"02","DTCODE11":"026","SDTCODE11":"00121","NAME11":"Ani","LOC_NAME":"Ani"}},{"type":"Feature","id":2344,"geometry":{"type":"Point","coordinates":[77.205699982588484,31.382274364496034]},"properties":{"OBJECTID":2344,"stname":"HIMACHAL PRADESH","dtname":"Mandi","STCODE11":"02","DTCODE11":"027","SDTCODE11":"00139","NAME11":"Karsog","LOC_NAME":"Karsog"}},{"type":"Feature","id":2345,"geometry":{"type":"Point","coordinates":[77.354637462286362,31.124196059854171]},"properties":{"OBJECTID":2345,"stname":"HIMACHAL PRADESH","dtname":"Shimla","STCODE11":"02","DTCODE11":"033","SDTCODE11":"00184","NAME11":"Theog","LOC_NAME":"Theog"}},{"type":"Feature","id":2346,"geometry":{"type":"Point","coordinates":[77.015838025357212,31.549844078620364]},"properties":{"OBJECTID":2346,"stname":"HIMACHAL PRADESH","dtname":"Mandi","STCODE11":"02","DTCODE11":"027","SDTCODE11":"00137","NAME11":"Chachyot","LOC_NAME":"Chachyot"}},{"type":"Feature","id":2347,"geometry":{"type":"Point","coordinates":[77.343911541861345,31.63777312903359]},"properties":{"OBJECTID":2347,"stname":"HIMACHAL PRADESH","dtname":"Kullu","STCODE11":"02","DTCODE11":"026","SDTCODE11":"00120","NAME11":"Banjar","LOC_NAME":"Banjar"}},{"type":"Feature","id":2348,"geometry":{"type":"Point","coordinates":[77.105913828152794,30.967172788432581]},"properties":{"OBJECTID":2348,"stname":"HIMACHAL PRADESH","dtname":"Solan","STCODE11":"02","DTCODE11":"031","SDTCODE11":"00167","NAME11":"Rajgarh","LOC_NAME":"Rajgarh"}},{"type":"Feature","id":2349,"geometry":{"type":"Point","coordinates":[77.588803889155912,30.945114330434315]},"properties":{"OBJECTID":2349,"stname":"HIMACHAL PRADESH","dtname":"Shimla","STCODE11":"02","DTCODE11":"033","SDTCODE11":"00185","NAME11":"Chaupal","LOC_NAME":"Chaupal"}},{"type":"Feature","id":2350,"geometry":{"type":"Point","coordinates":[77.435876636446736,30.600145088305268]},"properties":{"OBJECTID":2350,"stname":"HIMACHAL PRADESH","dtname":"Sirmaur","STCODE11":"02","DTCODE11":"032","SDTCODE11":"00171","NAME11":"Dadahu","LOC_NAME":"Dadahu"}},{"type":"Feature","id":2351,"geometry":{"type":"Point","coordinates":[77.62123712411119,30.436828018173657]},"properties":{"OBJECTID":2351,"stname":"HIMACHAL PRADESH","dtname":"Sirmaur","STCODE11":"02","DTCODE11":"032","SDTCODE11":"00173","NAME11":"Paonta Sahib","LOC_NAME":"Paonta Sahib"}},{"type":"Feature","id":2352,"geometry":{"type":"Point","coordinates":[75.969954198811379,32.536723866842998]},"properties":{"OBJECTID":2352,"stname":"HIMACHAL PRADESH","dtname":"Chamba","STCODE11":"02","DTCODE11":"023","SDTCODE11":"00087","NAME11":"Dalhousie","LOC_NAME":"Dalhousie"}},{"type":"Feature","id":2353,"geometry":{"type":"Point","coordinates":[75.885748989703785,32.299896476463843]},"properties":{"OBJECTID":2353,"stname":"HIMACHAL PRADESH","dtname":"Kangra","STCODE11":"02","DTCODE11":"024","SDTCODE11":"00093","NAME11":"Nurpur","LOC_NAME":"Nurpur"}},{"type":"Feature","id":2354,"geometry":{"type":"Point","coordinates":[76.122532863867818,31.686002746350823]},"properties":{"OBJECTID":2354,"stname":"HIMACHAL PRADESH","dtname":"Una","STCODE11":"02","DTCODE11":"029","SDTCODE11":"00148","NAME11":"Amb","LOC_NAME":"Amb"}},{"type":"Feature","id":2355,"geometry":{"type":"Point","coordinates":[76.964703917938664,30.901006575652811]},"properties":{"OBJECTID":2355,"stname":"HIMACHAL PRADESH","dtname":"Solan","STCODE11":"02","DTCODE11":"031","SDTCODE11":"00164","NAME11":"Kasauli","LOC_NAME":"Kasauli"}},{"type":"Feature","id":2356,"geometry":{"type":"Point","coordinates":[77.121916984359345,31.243585805591863]},"properties":{"OBJECTID":2356,"stname":"HIMACHAL PRADESH","dtname":"Mandi","STCODE11":"02","DTCODE11":"027","SDTCODE11":"00180","NAME11":"Seoni","LOC_NAME":"Seoni"}},{"type":"Feature","id":2357,"geometry":{"type":"Point","coordinates":[78.071991680590273,32.226851638194695]},"properties":{"OBJECTID":2357,"stname":"HIMACHAL PRADESH","dtname":"Lahul & Spiti","STCODE11":"02","DTCODE11":"025","SDTCODE11":"00116","NAME11":"Spiti","LOC_NAME":"Spiti"}},{"type":"Feature","id":2358,"geometry":{"type":"Point","coordinates":[76.53752373357807,32.441960821120169]},"properties":{"OBJECTID":2358,"stname":"HIMACHAL PRADESH","dtname":"Chamba","STCODE11":"02","DTCODE11":"023","SDTCODE11":"00092","NAME11":"Brahmaur","LOC_NAME":"Brahmaur"}},{"type":"Feature","id":2359,"geometry":{"type":"Point","coordinates":[76.088619737126976,32.302213696199679]},"properties":{"OBJECTID":2359,"stname":"HIMACHAL PRADESH","dtname":"Chamba","STCODE11":"02","DTCODE11":"023","SDTCODE11":"00089","NAME11":"Sihunta","LOC_NAME":"Sihunta"}},{"type":"Feature","id":2360,"geometry":{"type":"Point","coordinates":[76.125216739780953,31.800258744458155]},"properties":{"OBJECTID":2360,"stname":"HIMACHAL PRADESH","dtname":"Una","STCODE11":"02","DTCODE11":"029","SDTCODE11":"00147","NAME11":"Bharwain","LOC_NAME":"Bharwain"}},{"type":"Feature","id":2361,"geometry":{"type":"Point","coordinates":[76.796135174349587,30.928354702084636]},"properties":{"OBJECTID":2361,"stname":"HIMACHAL PRADESH","dtname":"Solan","STCODE11":"02","DTCODE11":"031","SDTCODE11":"00162","NAME11":"Baddi","LOC_NAME":"Baddi"}},{"type":"Feature","id":2362,"geometry":{"type":"Point","coordinates":[77.305115438239028,31.766134822060032]},"properties":{"OBJECTID":2362,"stname":"HIMACHAL PRADESH","dtname":"Kullu","STCODE11":"02","DTCODE11":"026","SDTCODE11":"00119","NAME11":"Sainj","LOC_NAME":"Sainj"}},{"type":"Feature","id":2363,"geometry":{"type":"Point","coordinates":[77.541835629934255,31.117041348941125]},"properties":{"OBJECTID":2363,"stname":"HIMACHAL PRADESH","dtname":"Shimla","STCODE11":"02","DTCODE11":"033","SDTCODE11":"00189","NAME11":"Kotkhai","LOC_NAME":"Kotkhai"}},{"type":"Feature","id":2364,"geometry":{"type":"Point","coordinates":[77.446771700656583,31.318036375620547]},"properties":{"OBJECTID":2364,"stname":"HIMACHAL PRADESH","dtname":"Shimla","STCODE11":"02","DTCODE11":"033","SDTCODE11":"00179","NAME11":"Kumharsain","LOC_NAME":"Kumharsain"}},{"type":"Feature","id":2365,"geometry":{"type":"Point","coordinates":[77.200425457024139,31.028117054160077]},"properties":{"OBJECTID":2365,"stname":"HIMACHAL PRADESH","dtname":"Shimla","STCODE11":"02","DTCODE11":"033","SDTCODE11":"00183","NAME11":"Junga","LOC_NAME":"Junga"}},{"type":"Feature","id":2366,"geometry":{"type":"Point","coordinates":[78.582055870566165,31.763187635466036]},"properties":{"OBJECTID":2366,"stname":"HIMACHAL PRADESH","dtname":"Kinnaur","STCODE11":"02","DTCODE11":"034","SDTCODE11":"00195","NAME11":"Poo","LOC_NAME":"Poo"}},{"type":"Feature","id":2367,"geometry":{"type":"Point","coordinates":[78.448205969764246,31.599632507640472]},"properties":{"OBJECTID":2367,"stname":"HIMACHAL PRADESH","dtname":"Kinnaur","STCODE11":"02","DTCODE11":"034","SDTCODE11":"00196","NAME11":"Morang","LOC_NAME":"Morang"}},{"type":"Feature","id":2368,"geometry":{"type":"Point","coordinates":[78.261167987002835,31.429351038014939]},"properties":{"OBJECTID":2368,"stname":"HIMACHAL PRADESH","dtname":"Kinnaur","STCODE11":"02","DTCODE11":"034","SDTCODE11":"00199","NAME11":"Sangla","LOC_NAME":"Sangla"}},{"type":"Feature","id":2369,"geometry":{"type":"Point","coordinates":[76.341217716147739,31.782255490743399]},"properties":{"OBJECTID":2369,"stname":"HIMACHAL PRADESH","dtname":"Hamirpur","STCODE11":"02","DTCODE11":"028","SDTCODE11":"00141","NAME11":"Nadaun","LOC_NAME":"Nadaun"}},{"type":"Feature","id":2370,"geometry":{"type":"Point","coordinates":[77.300094556486712,30.851761669337737]},"properties":{"OBJECTID":2370,"stname":"HIMACHAL PRADESH","dtname":"Sirmaur","STCODE11":"02","DTCODE11":"032","SDTCODE11":"00167","NAME11":"Rajgarh","LOC_NAME":"Rajgarh"}},{"type":"Feature","id":2371,"geometry":{"type":"Point","coordinates":[76.50622444200593,31.835173554485575]},"properties":{"OBJECTID":2371,"stname":"HIMACHAL PRADESH","dtname":"Hamirpur","STCODE11":"02","DTCODE11":"028","SDTCODE11":"00140","NAME11":"Tira Sujanpur","LOC_NAME":"Tira Sujanpur"}},{"type":"Feature","id":2372,"geometry":{"type":"Point","coordinates":[76.012823705903031,32.143692518302771]},"properties":{"OBJECTID":2372,"stname":"HIMACHAL PRADESH","dtname":"Kangra","STCODE11":"02","DTCODE11":"024","SDTCODE11":"00096","NAME11":"Jawali","LOC_NAME":"Jawali"}},{"type":"Feature","id":2373,"geometry":{"type":"Point","coordinates":[77.183215080060066,32.24641651946505]},"properties":{"OBJECTID":2373,"stname":"HIMACHAL PRADESH","dtname":"Kullu","STCODE11":"02","DTCODE11":"026","SDTCODE11":"00117","NAME11":"Manali","LOC_NAME":"Manali"}},{"type":"Feature","id":2374,"geometry":{"type":"Point","coordinates":[76.125132965592499,32.556938010173518]},"properties":{"OBJECTID":2374,"stname":"HIMACHAL PRADESH","dtname":"Chamba","STCODE11":"02","DTCODE11":"023","SDTCODE11":"00090","NAME11":"Chamba","LOC_NAME":"Chamba"}},{"type":"Feature","id":2375,"geometry":{"type":"Point","coordinates":[77.024300246961758,32.573353290733472]},"properties":{"OBJECTID":2375,"stname":"HIMACHAL PRADESH","dtname":"Lahul & Spiti","STCODE11":"02","DTCODE11":"025","SDTCODE11":"00115","NAME11":"Lahul","LOC_NAME":"Lahul"}},{"type":"Feature","id":2376,"geometry":{"type":"Point","coordinates":[76.93267668196593,31.710763903372996]},"properties":{"OBJECTID":2376,"stname":"HIMACHAL PRADESH","dtname":"Mandi","STCODE11":"02","DTCODE11":"027","SDTCODE11":"00133","NAME11":"Mandi","LOC_NAME":"Mandi"}},{"type":"Feature","id":2377,"geometry":{"type":"Point","coordinates":[76.474528878409146,31.608089981815887]},"properties":{"OBJECTID":2377,"stname":"HIMACHAL PRADESH","dtname":"Hamirpur","STCODE11":"02","DTCODE11":"028","SDTCODE11":"00142","NAME11":"Galore","LOC_NAME":"Galore"}},{"type":"Feature","id":2378,"geometry":{"type":"Point","coordinates":[76.269962995671776,31.465169559200081]},"properties":{"OBJECTID":2378,"stname":"HIMACHAL PRADESH","dtname":"Una","STCODE11":"02","DTCODE11":"029","SDTCODE11":"00150","NAME11":"Una","LOC_NAME":"Una"}},{"type":"Feature","id":2379,"geometry":{"type":"Point","coordinates":[76.859364923693931,31.261072170335183]},"properties":{"OBJECTID":2379,"stname":"HIMACHAL PRADESH","dtname":"Bilaspur","STCODE11":"02","DTCODE11":"030","SDTCODE11":"00157","NAME11":"Namhol","LOC_NAME":"Namhol"}},{"type":"Feature","id":2380,"geometry":{"type":"Point","coordinates":[77.106534779609774,31.962103422517966]},"properties":{"OBJECTID":2380,"stname":"HIMACHAL PRADESH","dtname":"Kullu","STCODE11":"02","DTCODE11":"026","SDTCODE11":"00118","NAME11":"Kullu","LOC_NAME":"Kullu"}},{"type":"Feature","id":2381,"geometry":{"type":"Point","coordinates":[77.173850355225525,31.104340154825021]},"properties":{"OBJECTID":2381,"stname":"HIMACHAL PRADESH","dtname":"Shimla","STCODE11":"02","DTCODE11":"033","SDTCODE11":"00182","NAME11":"Shimla (urban)","LOC_NAME":"Shimla (urban)"}},{"type":"Feature","id":2382,"geometry":{"type":"Point","coordinates":[77.104012638177068,30.908471327832743]},"properties":{"OBJECTID":2382,"stname":"HIMACHAL PRADESH","dtname":"Solan","STCODE11":"02","DTCODE11":"031","SDTCODE11":"00165","NAME11":"Solan","LOC_NAME":"Solan"}},{"type":"Feature","id":2383,"geometry":{"type":"Point","coordinates":[77.295180373928915,30.561343993886659]},"properties":{"OBJECTID":2383,"stname":"HIMACHAL PRADESH","dtname":"Sirmaur","STCODE11":"02","DTCODE11":"032","SDTCODE11":"00172","NAME11":"Nahan","LOC_NAME":"Nahan"}},{"type":"Feature","id":2384,"geometry":{"type":"Point","coordinates":[78.260092901237115,31.54676531446469]},"properties":{"OBJECTID":2384,"stname":"HIMACHAL PRADESH","dtname":"Kinnaur","STCODE11":"02","DTCODE11":"034","SDTCODE11":"00197","NAME11":"Kalpa","LOC_NAME":"Kalpa"}},{"type":"Feature","id":2385,"geometry":{"type":"Point","coordinates":[76.319665739194676,32.219850856790387]},"properties":{"OBJECTID":2385,"stname":"HIMACHAL PRADESH","dtname":"Kangra","STCODE11":"02","DTCODE11":"024","SDTCODE11":"00099","NAME11":"Dharmsala","LOC_NAME":"Dharmsala"}},{"type":"Feature","id":2386,"geometry":{"type":"Point","coordinates":[76.55435162765707,32.328057166133846]},"properties":{"OBJECTID":2386,"stname":"HIMACHAL PRADESH","dtname":"Chamba","STCODE11":"02","DTCODE11":"023","SDTCODE11":"00091","NAME11":"Holi","LOC_NAME":"Holi"}},{"type":"Feature","id":2387,"geometry":{"type":"Point","coordinates":[75.933305011225926,32.09752948084332]},"properties":{"OBJECTID":2387,"stname":"HIMACHAL PRADESH","dtname":"Kangra","STCODE11":"02","DTCODE11":"024","SDTCODE11":"00095","NAME11":"Fatehpur","LOC_NAME":"Fatehpur"}},{"type":"Feature","id":2388,"geometry":{"type":"Point","coordinates":[76.64482629501525,32.049839538994902]},"properties":{"OBJECTID":2388,"stname":"HIMACHAL PRADESH","dtname":"Kangra","STCODE11":"02","DTCODE11":"024","SDTCODE11":"00112","NAME11":"Baijnath","LOC_NAME":"Baijnath"}},{"type":"Feature","id":2389,"geometry":{"type":"Point","coordinates":[76.662586386135942,32.726332546092877]},"properties":{"OBJECTID":2389,"stname":"HIMACHAL PRADESH","dtname":"Lahul & Spiti","STCODE11":"02","DTCODE11":"025","SDTCODE11":"00114","NAME11":"Udaipur","LOC_NAME":"Udaipur"}},{"type":"Feature","id":2390,"geometry":{"type":"Point","coordinates":[76.792829150423515,31.989457321427313]},"properties":{"OBJECTID":2390,"stname":"HIMACHAL PRADESH","dtname":"Mandi","STCODE11":"02","DTCODE11":"027","SDTCODE11":"00124","NAME11":"Jogindarnagar","LOC_NAME":"Jogindarnagar"}},{"type":"Feature","id":2391,"geometry":{"type":"Point","coordinates":[76.914594773886265,31.881461642400346]},"properties":{"OBJECTID":2391,"stname":"HIMACHAL PRADESH","dtname":"Mandi","STCODE11":"02","DTCODE11":"027","SDTCODE11":"00123","NAME11":"Padhar","LOC_NAME":"Padhar"}},{"type":"Feature","id":2392,"geometry":{"type":"Point","coordinates":[76.706029238466101,31.936099316834152]},"properties":{"OBJECTID":2392,"stname":"HIMACHAL PRADESH","dtname":"Mandi","STCODE11":"02","DTCODE11":"027","SDTCODE11":"00125","NAME11":"Lad Bharol","LOC_NAME":"Lad Bharol"}},{"type":"Feature","id":2393,"geometry":{"type":"Point","coordinates":[76.052694530575067,32.720882003474472]},"properties":{"OBJECTID":2393,"stname":"HIMACHAL PRADESH","dtname":"Chamba","STCODE11":"02","DTCODE11":"023","SDTCODE11":"00085","NAME11":"Saluni","LOC_NAME":"Saluni"}},{"type":"Feature","id":2394,"geometry":{"type":"Point","coordinates":[75.690569998628902,32.129278777225664]},"properties":{"OBJECTID":2394,"stname":"HIMACHAL PRADESH","dtname":"Kangra","STCODE11":"02","DTCODE11":"024","SDTCODE11":"00094","NAME11":"Indora","LOC_NAME":"Indora"}},{"type":"Feature","id":2395,"geometry":{"type":"Point","coordinates":[76.181509994047062,32.213707608480767]},"properties":{"OBJECTID":2395,"stname":"HIMACHAL PRADESH","dtname":"Kangra","STCODE11":"02","DTCODE11":"024","SDTCODE11":"00098","NAME11":"Shahpur","LOC_NAME":"Shahpur"}},{"type":"Feature","id":2396,"geometry":{"type":"Point","coordinates":[76.313687580336278,31.997745682656301]},"properties":{"OBJECTID":2396,"stname":"HIMACHAL PRADESH","dtname":"Kangra","STCODE11":"02","DTCODE11":"024","SDTCODE11":"00102","NAME11":"Baroh","LOC_NAME":"Baroh"}},{"type":"Feature","id":2397,"geometry":{"type":"Point","coordinates":[75.987632184813464,31.896555550640251]},"properties":{"OBJECTID":2397,"stname":"HIMACHAL PRADESH","dtname":"Kangra","STCODE11":"02","DTCODE11":"024","SDTCODE11":"00105","NAME11":"Jaswan","LOC_NAME":"Jaswan"}},{"type":"Feature","id":2398,"geometry":{"type":"Point","coordinates":[76.46785809960204,31.91525029061243]},"properties":{"OBJECTID":2398,"stname":"HIMACHAL PRADESH","dtname":"Kangra","STCODE11":"02","DTCODE11":"024","SDTCODE11":"00108","NAME11":"Thural","LOC_NAME":"Thural"}},{"type":"Feature","id":2399,"geometry":{"type":"Point","coordinates":[76.601363161420906,31.900199546598]},"properties":{"OBJECTID":2399,"stname":"HIMACHAL PRADESH","dtname":"Kangra","STCODE11":"02","DTCODE11":"024","SDTCODE11":"00110","NAME11":"Jaisinghpur","LOC_NAME":"Jaisinghpur"}},{"type":"Feature","id":2400,"geometry":{"type":"Point","coordinates":[76.406557891063784,33.081124735875797]},"properties":{"OBJECTID":2400,"stname":"HIMACHAL PRADESH","dtname":"Chamba","STCODE11":"02","DTCODE11":"023","SDTCODE11":"00083","NAME11":"Pangi","LOC_NAME":"Pangi"}},{"type":"Feature","id":2401,"geometry":{"type":"Point","coordinates":[76.070594978967364,32.809919148171574]},"properties":{"OBJECTID":2401,"stname":"HIMACHAL PRADESH","dtname":"Chamba","STCODE11":"02","DTCODE11":"023","SDTCODE11":"00084","NAME11":"Chaurah","LOC_NAME":"Chaurah"}},{"type":"Feature","id":2402,"geometry":{"type":"Point","coordinates":[75.939241059758785,32.624815967859568]},"properties":{"OBJECTID":2402,"stname":"HIMACHAL PRADESH","dtname":"Chamba","STCODE11":"02","DTCODE11":"023","SDTCODE11":"00086","NAME11":"Bhalai","LOC_NAME":"Bhalai"}},{"type":"Feature","id":2403,"geometry":{"type":"Point","coordinates":[76.012372946564838,32.431195739164252]},"properties":{"OBJECTID":2403,"stname":"HIMACHAL PRADESH","dtname":"Chamba","STCODE11":"02","DTCODE11":"023","SDTCODE11":"00088","NAME11":"Bhattiyat","LOC_NAME":"Bhattiyat"}},{"type":"Feature","id":2404,"geometry":{"type":"Point","coordinates":[76.100099159022406,32.149642029776082]},"properties":{"OBJECTID":2404,"stname":"HIMACHAL PRADESH","dtname":"Kangra","STCODE11":"02","DTCODE11":"024","SDTCODE11":"00097","NAME11":"Harchakian","LOC_NAME":"Harchakian"}},{"type":"Feature","id":2405,"geometry":{"type":"Point","coordinates":[76.242585325523592,31.781915815961071]},"properties":{"OBJECTID":2405,"stname":"HIMACHAL PRADESH","dtname":"Kangra","STCODE11":"02","DTCODE11":"024","SDTCODE11":"00106","NAME11":"Rakkar","LOC_NAME":"Rakkar"}},{"type":"Feature","id":2406,"geometry":{"type":"Point","coordinates":[76.38328659884408,31.908694465255369]},"properties":{"OBJECTID":2406,"stname":"HIMACHAL PRADESH","dtname":"Kangra","STCODE11":"02","DTCODE11":"024","SDTCODE11":"00107","NAME11":"Khundian","LOC_NAME":"Khundian"}},{"type":"Feature","id":2407,"geometry":{"type":"Point","coordinates":[76.395937775111278,32.009597563202576]},"properties":{"OBJECTID":2407,"stname":"HIMACHAL PRADESH","dtname":"Kangra","STCODE11":"02","DTCODE11":"024","SDTCODE11":"00109","NAME11":"Dhira","LOC_NAME":"Dhira"}},{"type":"Feature","id":2408,"geometry":{"type":"Point","coordinates":[76.841690000946983,32.042962846334262]},"properties":{"OBJECTID":2408,"stname":"HIMACHAL PRADESH","dtname":"Kangra","STCODE11":"02","DTCODE11":"024","SDTCODE11":"00113","NAME11":"Multhan","LOC_NAME":"Multhan"}},{"type":"Feature","id":2409,"geometry":{"type":"Point","coordinates":[76.656926647706385,31.849428639464417]},"properties":{"OBJECTID":2409,"stname":"HIMACHAL PRADESH","dtname":"Mandi","STCODE11":"02","DTCODE11":"027","SDTCODE11":"00126","NAME11":"Sandhol","LOC_NAME":"Sandhol"}},{"type":"Feature","id":2410,"geometry":{"type":"Point","coordinates":[76.763898945325991,31.799588570827957]},"properties":{"OBJECTID":2410,"stname":"HIMACHAL PRADESH","dtname":"Mandi","STCODE11":"02","DTCODE11":"027","SDTCODE11":"00127","NAME11":"Dharmpur","LOC_NAME":"Dharmpur"}},{"type":"Feature","id":2411,"geometry":{"type":"Point","coordinates":[76.876773366601739,31.760338215292506]},"properties":{"OBJECTID":2411,"stname":"HIMACHAL PRADESH","dtname":"Mandi","STCODE11":"02","DTCODE11":"027","SDTCODE11":"00128","NAME11":"Kotli","LOC_NAME":"Kotli"}},{"type":"Feature","id":2412,"geometry":{"type":"Point","coordinates":[76.76225751219782,31.557785990049425]},"properties":{"OBJECTID":2412,"stname":"HIMACHAL PRADESH","dtname":"Mandi","STCODE11":"02","DTCODE11":"027","SDTCODE11":"00131","NAME11":"Baldwara","LOC_NAME":"Baldwara"}},{"type":"Feature","id":2413,"geometry":{"type":"Point","coordinates":[77.208087867208747,31.743066002834698]},"properties":{"OBJECTID":2413,"stname":"HIMACHAL PRADESH","dtname":"Mandi","STCODE11":"02","DTCODE11":"027","SDTCODE11":"00134","NAME11":"Aut","LOC_NAME":"Aut"}},{"type":"Feature","id":2414,"geometry":{"type":"Point","coordinates":[77.281219703709127,31.688962152785049]},"properties":{"OBJECTID":2414,"stname":"HIMACHAL PRADESH","dtname":"Mandi","STCODE11":"02","DTCODE11":"027","SDTCODE11":"00135","NAME11":"Bali Chowki","LOC_NAME":"Bali Chowki"}},{"type":"Feature","id":2415,"geometry":{"type":"Point","coordinates":[77.164018204609306,31.559199882147652]},"properties":{"OBJECTID":2415,"stname":"HIMACHAL PRADESH","dtname":"Mandi","STCODE11":"02","DTCODE11":"027","SDTCODE11":"00136","NAME11":"Thunag","LOC_NAME":"Thunag"}},{"type":"Feature","id":2416,"geometry":{"type":"Point","coordinates":[77.036733512602297,31.407929497037898]},"properties":{"OBJECTID":2416,"stname":"HIMACHAL PRADESH","dtname":"Mandi","STCODE11":"02","DTCODE11":"027","SDTCODE11":"00138","NAME11":"Nihri","LOC_NAME":"Nihri"}},{"type":"Feature","id":2417,"geometry":{"type":"Point","coordinates":[76.641353129649104,31.639924041060294]},"properties":{"OBJECTID":2417,"stname":"HIMACHAL PRADESH","dtname":"Hamirpur","STCODE11":"02","DTCODE11":"028","SDTCODE11":"00146","NAME11":"Bhoranj","LOC_NAME":"Bhoranj"}},{"type":"Feature","id":2418,"geometry":{"type":"Point","coordinates":[76.347260915727659,31.628094258692947]},"properties":{"OBJECTID":2418,"stname":"HIMACHAL PRADESH","dtname":"Una","STCODE11":"02","DTCODE11":"029","SDTCODE11":"00149","NAME11":"Bangana","LOC_NAME":"Bangana"}},{"type":"Feature","id":2419,"geometry":{"type":"Point","coordinates":[76.232340072945902,31.418862279429053]},"properties":{"OBJECTID":2419,"stname":"HIMACHAL PRADESH","dtname":"Una","STCODE11":"02","DTCODE11":"029","SDTCODE11":"00151","NAME11":"Haroli","LOC_NAME":"Haroli"}},{"type":"Feature","id":2420,"geometry":{"type":"Point","coordinates":[76.637914998579006,31.365929435611189]},"properties":{"OBJECTID":2420,"stname":"HIMACHAL PRADESH","dtname":"Bilaspur","STCODE11":"02","DTCODE11":"030","SDTCODE11":"00154","NAME11":"Jhanduta","LOC_NAME":"Jhanduta"}},{"type":"Feature","id":2421,"geometry":{"type":"Point","coordinates":[76.537180774768899,31.306640056053901]},"properties":{"OBJECTID":2421,"stname":"HIMACHAL PRADESH","dtname":"Bilaspur","STCODE11":"02","DTCODE11":"030","SDTCODE11":"00155","NAME11":"Naina Devi","LOC_NAME":"Naina Devi"}},{"type":"Feature","id":2422,"geometry":{"type":"Point","coordinates":[76.962456604389033,30.970349615387192]},"properties":{"OBJECTID":2422,"stname":"HIMACHAL PRADESH","dtname":"Solan","STCODE11":"02","DTCODE11":"031","SDTCODE11":"00163","NAME11":"Krishangarh","LOC_NAME":"Krishangarh"}},{"type":"Feature","id":2423,"geometry":{"type":"Point","coordinates":[77.422959543584099,30.810935406884937]},"properties":{"OBJECTID":2423,"stname":"HIMACHAL PRADESH","dtname":"Sirmaur","STCODE11":"02","DTCODE11":"032","SDTCODE11":"00168","NAME11":"Nohra","LOC_NAME":"Nohra"}},{"type":"Feature","id":2424,"geometry":{"type":"Point","coordinates":[77.191644830262064,30.717901095815908]},"properties":{"OBJECTID":2424,"stname":"HIMACHAL PRADESH","dtname":"Sirmaur","STCODE11":"02","DTCODE11":"032","SDTCODE11":"00169","NAME11":"Pachhad","LOC_NAME":"Pachhad"}},{"type":"Feature","id":2425,"geometry":{"type":"Point","coordinates":[77.449682703911165,30.608768845705132]},"properties":{"OBJECTID":2425,"stname":"HIMACHAL PRADESH","dtname":"Sirmaur","STCODE11":"02","DTCODE11":"032","SDTCODE11":"00170","NAME11":"Renuka","LOC_NAME":"Renuka"}},{"type":"Feature","id":2426,"geometry":{"type":"Point","coordinates":[77.684362532338639,30.607630806544428]},"properties":{"OBJECTID":2426,"stname":"HIMACHAL PRADESH","dtname":"Sirmaur","STCODE11":"02","DTCODE11":"032","SDTCODE11":"00174","NAME11":"Kamrau","LOC_NAME":"Kamrau"}},{"type":"Feature","id":2427,"geometry":{"type":"Point","coordinates":[77.705750973689177,30.676205766143507]},"properties":{"OBJECTID":2427,"stname":"HIMACHAL PRADESH","dtname":"Sirmaur","STCODE11":"02","DTCODE11":"032","SDTCODE11":"00175","NAME11":"Shalai","LOC_NAME":"Shalai"}},{"type":"Feature","id":2428,"geometry":{"type":"Point","coordinates":[77.582810834433445,31.304925901150202]},"properties":{"OBJECTID":2428,"stname":"HIMACHAL PRADESH","dtname":"Shimla","STCODE11":"02","DTCODE11":"033","SDTCODE11":"00178","NAME11":"Nankhari","LOC_NAME":"Nankhari"}},{"type":"Feature","id":2429,"geometry":{"type":"Point","coordinates":[77.148681042286384,31.101645369062954]},"properties":{"OBJECTID":2429,"stname":"HIMACHAL PRADESH","dtname":"Shimla","STCODE11":"02","DTCODE11":"033","SDTCODE11":"00181","NAME11":"Shimla   ( Rural )","LOC_NAME":"Shimla   ( Rural )"}},{"type":"Feature","id":2430,"geometry":{"type":"Point","coordinates":[77.593111088161095,30.849773961605727]},"properties":{"OBJECTID":2430,"stname":"HIMACHAL PRADESH","dtname":"Shimla","STCODE11":"02","DTCODE11":"033","SDTCODE11":"00186","NAME11":"Cheta","LOC_NAME":"Cheta"}},{"type":"Feature","id":2431,"geometry":{"type":"Point","coordinates":[77.640899291844818,30.916963637792087]},"properties":{"OBJECTID":2431,"stname":"HIMACHAL PRADESH","dtname":"Shimla","STCODE11":"02","DTCODE11":"033","SDTCODE11":"00187","NAME11":"Nerua","LOC_NAME":"Nerua"}},{"type":"Feature","id":2432,"geometry":{"type":"Point","coordinates":[77.62741230327434,31.190992351653406]},"properties":{"OBJECTID":2432,"stname":"HIMACHAL PRADESH","dtname":"Shimla","STCODE11":"02","DTCODE11":"033","SDTCODE11":"00190","NAME11":"Tikar","LOC_NAME":"Tikar"}},{"type":"Feature","id":2433,"geometry":{"type":"Point","coordinates":[77.877429388347821,31.236603141476166]},"properties":{"OBJECTID":2433,"stname":"HIMACHAL PRADESH","dtname":"Shimla","STCODE11":"02","DTCODE11":"033","SDTCODE11":"00192","NAME11":"Chirgaon","LOC_NAME":"Chirgaon"}},{"type":"Feature","id":2434,"geometry":{"type":"Point","coordinates":[78.156914691220607,31.270405815756437]},"properties":{"OBJECTID":2434,"stname":"HIMACHAL PRADESH","dtname":"Shimla","STCODE11":"02","DTCODE11":"033","SDTCODE11":"00193","NAME11":"Dodra Kwar","LOC_NAME":"Dodra Kwar"}},{"type":"Feature","id":2435,"geometry":{"type":"Point","coordinates":[78.524322154267267,31.835788885311864]},"properties":{"OBJECTID":2435,"stname":"HIMACHAL PRADESH","dtname":"Kinnaur","STCODE11":"02","DTCODE11":"034","SDTCODE11":"00194","NAME11":"Hangrang","LOC_NAME":"Hangrang"}},{"type":"Feature","id":2436,"geometry":{"type":"Point","coordinates":[76.58483692520754,31.460217145184696]},"properties":{"OBJECTID":2436,"stname":"HIMACHAL PRADESH","dtname":"Hamirpur","STCODE11":"02","DTCODE11":"028","SDTCODE11":"00145","NAME11":"Dhatwal","LOC_NAME":"Dhatwal"}},{"type":"Feature","id":2437,"geometry":{"type":"Point","coordinates":[77.650953983004698,30.771828104249394]},"properties":{"OBJECTID":2437,"stname":"HIMACHAL PRADESH","dtname":"Sirmaur","STCODE11":"02","DTCODE11":"032","SDTCODE11":"00176","NAME11":"Ronhat","LOC_NAME":"Ronhat"}},{"type":"Feature","id":5384,"geometry":{"type":"Point","coordinates":[76.263164482719489,32.092825313865333]},"properties":{"OBJECTID":5384,"stname":"HIMACHAL PRADESH","dtname":"Kangra","STCODE11":"02","DTCODE11":"024","SDTCODE11":"00100","NAME11":"Kangra","LOC_NAME":"Kangra"}},{"type":"Feature","id":5385,"geometry":{"type":"Point","coordinates":[76.216307347793418,31.882134488622807]},"properties":{"OBJECTID":5385,"stname":"HIMACHAL PRADESH","dtname":"Kangra","STCODE11":"02","DTCODE11":"024","SDTCODE11":"00103","NAME11":"Dera Gopipur","LOC_NAME":"Dera Gopipur"}},{"type":"Feature","id":5386,"geometry":{"type":"Point","coordinates":[76.736136024583388,31.699042682241082]},"properties":{"OBJECTID":5386,"stname":"HIMACHAL PRADESH","dtname":"Mandi","STCODE11":"02","DTCODE11":"027","SDTCODE11":"00129","NAME11":"Sarkaghat","LOC_NAME":"Sarkaghat"}},{"type":"Feature","id":5387,"geometry":{"type":"Point","coordinates":[76.525748600664144,31.682501341970294]},"properties":{"OBJECTID":5387,"stname":"HIMACHAL PRADESH","dtname":"Hamirpur","STCODE11":"02","DTCODE11":"028","SDTCODE11":"00143","NAME11":"Hamirpur","LOC_NAME":"Hamirpur"}},{"type":"Feature","id":5388,"geometry":{"type":"Point","coordinates":[76.707855054399616,31.442288846418034]},"properties":{"OBJECTID":5388,"stname":"HIMACHAL PRADESH","dtname":"Bilaspur","STCODE11":"02","DTCODE11":"030","SDTCODE11":"00152","NAME11":"Ghumarwin","LOC_NAME":"Ghumarwin"}},{"type":"Feature","id":5389,"geometry":{"type":"Point","coordinates":[76.761807023252501,31.338380857941296]},"properties":{"OBJECTID":5389,"stname":"HIMACHAL PRADESH","dtname":"Bilaspur","STCODE11":"02","DTCODE11":"030","SDTCODE11":"00156","NAME11":"Bilaspur Sadar","LOC_NAME":"Bilaspur Sadar"}},{"type":"Feature","id":5390,"geometry":{"type":"Point","coordinates":[76.966359387243145,31.150761718124073]},"properties":{"OBJECTID":5390,"stname":"HIMACHAL PRADESH","dtname":"Solan","STCODE11":"02","DTCODE11":"031","SDTCODE11":"00158","NAME11":"Arki","LOC_NAME":"Arki"}},{"type":"Feature","id":5391,"geometry":{"type":"Point","coordinates":[76.794226461881664,31.088554634752999]},"properties":{"OBJECTID":5391,"stname":"HIMACHAL PRADESH","dtname":"Solan","STCODE11":"02","DTCODE11":"031","SDTCODE11":"00160","NAME11":"Ramshahr","LOC_NAME":"Ramshahr"}}]}