{"type":"FeatureCollection","crs":{"type":"name","properties":{"name":"EPSG:4326"}},"features":[{"type":"Feature","id":6,"geometry":{"type":"Point","coordinates":[73.49915210710239,21.87633622116752]},"properties":{"OBJECTID":6,"STNAME":"GUJARAT","DTNAME":"Narmada","DIST_HQ":"Rajpipla","STATE_HQ":0,"STCODE11":"24","DTCODE11":"487","YEAR_STAT":"2011_c","DIST_HQNM":"Rajpipla","Dist_LGD":452,"LOC_STAT_1":"District Hq","LOC_NAME":"Narmada"}},{"type":"Feature","id":9,"geometry":{"type":"Point","coordinates":[73.618986806353547,22.777738991490807]},"properties":{"OBJECTID":9,"STNAME":"GUJARAT","DTNAME":"Panch Mahals","DIST_HQ":"Godhra","STATE_HQ":0,"STCODE11":"24","DTCODE11":"484","YEAR_STAT":"2011_c","DIST_HQNM":"Godhra","Dist_LGD":454,"LOC_STAT_1":"District Hq","LOC_NAME":"Panch Mahals"}},{"type":"Feature","id":10,"geometry":{"type":"Point","coordinates":[74.255733346378889,22.835002952246658]},"properties":{"OBJECTID":10,"STNAME":"GUJARAT","DTNAME":"Dohad","DIST_HQ":"Dahod","STATE_HQ":0,"STCODE11":"24","DTCODE11":"485","YEAR_STAT":"2011_c","DIST_HQNM":"Dahod","Dist_LGD":445,"LOC_STAT_1":"District Hq","LOC_NAME":"Dohad"}},{"type":"Feature","id":11,"geometry":{"type":"Point","coordinates":[72.960028880142531,22.557862109767495]},"properties":{"OBJECTID":11,"STNAME":"GUJARAT","DTNAME":"Anand","DIST_HQ":"Anand","STATE_HQ":0,"STCODE11":"24","DTCODE11":"482","YEAR_STAT":"2011_c","DIST_HQNM":"Anand","Dist_LGD":440,"LOC_STAT_1":"District Hq","LOC_NAME":"Anand"}},{"type":"Feature","id":12,"geometry":{"type":"Point","coordinates":[72.931765088441921,20.952575230196917]},"properties":{"OBJECTID":12,"STNAME":"GUJARAT","DTNAME":"Navsari","DIST_HQ":"Navsari","STATE_HQ":0,"STCODE11":"24","DTCODE11":"490","YEAR_STAT":"2011_c","DIST_HQNM":"Navsari","Dist_LGD":453,"LOC_STAT_1":"District Hq","LOC_NAME":"Navsari"}},{"type":"Feature","id":98,"geometry":{"type":"Point","coordinates":[72.825673950979464,21.196118597206098]},"properties":{"OBJECTID":98,"STNAME":"GUJARAT","DTNAME":"Surat","DIST_HQ":"Surat","STATE_HQ":2,"STCODE11":"24","DTCODE11":"492","YEAR_STAT":"2011_c","DIST_HQNM":"Surat","Dist_LGD":459,"LOC_STAT_1":"District Hq","LOC_NAME":"Surat"}},{"type":"Feature","id":179,"geometry":{"type":"Point","coordinates":[69.665917465448928,23.251546320715466]},"properties":{"OBJECTID":179,"STNAME":"GUJARAT","DTNAME":"Kachchh","DIST_HQ":"Bhuj","STATE_HQ":2,"STCODE11":"24","DTCODE11":"468","YEAR_STAT":"2011_c","DIST_HQNM":"Bhuj","Dist_LGD":449,"LOC_STAT_1":"District Hq","LOC_NAME":"Kachchh"}},{"type":"Feature","id":180,"geometry":{"type":"Point","coordinates":[70.072413771509432,22.471478418769252]},"properties":{"OBJECTID":180,"STNAME":"GUJARAT","DTNAME":"Jamnagar","DIST_HQ":"Jamnagar","STATE_HQ":0,"STCODE11":"24","DTCODE11":"477","YEAR_STAT":"2011_c","DIST_HQNM":"Jamnagar","Dist_LGD":447,"LOC_STAT_1":"District Hq","LOC_NAME":"Jamnagar"}},{"type":"Feature","id":181,"geometry":{"type":"Point","coordinates":[70.805026500141565,22.295636868946922]},"properties":{"OBJECTID":181,"STNAME":"GUJARAT","DTNAME":"Rajkot","DIST_HQ":"Rajkot","STATE_HQ":2,"STCODE11":"24","DTCODE11":"476","YEAR_STAT":"2011_c","DIST_HQNM":"Rajkot","Dist_LGD":457,"LOC_STAT_1":"District Hq","LOC_NAME":"Rajkot"}},{"type":"Feature","id":182,"geometry":{"type":"Point","coordinates":[70.461017734676432,21.523189416281287]},"properties":{"OBJECTID":182,"STNAME":"GUJARAT","DTNAME":"Junagadh","DIST_HQ":"Junagadh","STATE_HQ":2,"STCODE11":"24","DTCODE11":"479","YEAR_STAT":"2011_c","DIST_HQNM":"Junagadh","Dist_LGD":448,"LOC_STAT_1":"District Hq","LOC_NAME":"Junagadh"}},{"type":"Feature","id":184,"geometry":{"type":"Point","coordinates":[71.62809433082495,22.729403837037278]},"properties":{"OBJECTID":184,"STNAME":"GUJARAT","DTNAME":"Surendranagar","DIST_HQ":"Surendranagar","STATE_HQ":0,"STCODE11":"24","DTCODE11":"475","YEAR_STAT":"2011_c","DIST_HQNM":"Surendranagar","Dist_LGD":460,"LOC_STAT_1":"District Hq","LOC_NAME":"Surendranagar"}},{"type":"Feature","id":185,"geometry":{"type":"Point","coordinates":[71.215705257960337,21.598494294865919]},"properties":{"OBJECTID":185,"STNAME":"GUJARAT","DTNAME":"Amreli","DIST_HQ":"Amreli","STATE_HQ":2,"STCODE11":"24","DTCODE11":"480","YEAR_STAT":"2011_c","DIST_HQNM":"Amreli","Dist_LGD":439,"LOC_STAT_1":"District Hq","LOC_NAME":"Amreli"}},{"type":"Feature","id":201,"geometry":{"type":"Point","coordinates":[72.660586705529084,23.237187404094804]},"properties":{"OBJECTID":201,"STNAME":"GUJARAT","DTNAME":"Gandhinagar","DIST_HQ":"Gandhinagar","STATE_HQ":1,"STCODE11":"24","DTCODE11":"473","YEAR_STAT":"2011_c","DIST_HQNM":"Gandhinagar","Dist_LGD":446,"LOC_STAT_1":"District Hq","LOC_NAME":"Gandhinagar"}},{"type":"Feature","id":202,"geometry":{"type":"Point","coordinates":[72.385146142681549,23.603097310343021]},"properties":{"OBJECTID":202,"STNAME":"GUJARAT","DTNAME":"Mahesana","DIST_HQ":"Mahesana","STATE_HQ":2,"STCODE11":"24","DTCODE11":"471","YEAR_STAT":"2011_c","DIST_HQNM":"Mahesana","Dist_LGD":451,"LOC_STAT_1":"District Hq","LOC_NAME":"Mahesana"}},{"type":"Feature","id":203,"geometry":{"type":"Point","coordinates":[72.589122315570862,23.026563375048337]},"properties":{"OBJECTID":203,"STNAME":"GUJARAT","DTNAME":"Ahmadabad","DIST_HQ":"Ahmadabad","STATE_HQ":2,"STCODE11":"24","DTCODE11":"474","YEAR_STAT":"2011_c","DIST_HQNM":"Ahmadabad","Dist_LGD":438,"LOC_STAT_1":"District Hq","LOC_NAME":"Ahmadabad"}},{"type":"Feature","id":204,"geometry":{"type":"Point","coordinates":[72.685043817941292,22.749308684185333]},"properties":{"OBJECTID":204,"STNAME":"GUJARAT","DTNAME":"Kheda","DIST_HQ":"Kheda","STATE_HQ":2,"STCODE11":"24","DTCODE11":"483","YEAR_STAT":"2011_c","DIST_HQNM":"Kheda","Dist_LGD":450,"LOC_STAT_1":"District Hq","LOC_NAME":"Kheda"}},{"type":"Feature","id":205,"geometry":{"type":"Point","coordinates":[72.139226586232638,21.774635935458178]},"properties":{"OBJECTID":205,"STNAME":"GUJARAT","DTNAME":"Bhavnagar","DIST_HQ":"Bhavnagar","STATE_HQ":2,"STCODE11":"24","DTCODE11":"481","YEAR_STAT":"2011_c","DIST_HQNM":"Bhavnagar","Dist_LGD":443,"LOC_STAT_1":"District Hq","LOC_NAME":"Bhavnagar"}},{"type":"Feature","id":206,"geometry":{"type":"Point","coordinates":[72.977953308162995,21.694687957224605]},"properties":{"OBJECTID":206,"STNAME":"GUJARAT","DTNAME":"Bharuch","DIST_HQ":"Bharuch","STATE_HQ":0,"STCODE11":"24","DTCODE11":"488","YEAR_STAT":"2011_c","DIST_HQNM":"Bharuch","Dist_LGD":442,"LOC_STAT_1":"District Hq","LOC_NAME":"Bharuch"}},{"type":"Feature","id":207,"geometry":{"type":"Point","coordinates":[72.927504554220789,20.615303496005765]},"properties":{"OBJECTID":207,"STNAME":"GUJARAT","DTNAME":"Valsad","DIST_HQ":"Valsad","STATE_HQ":2,"STCODE11":"24","DTCODE11":"491","YEAR_STAT":"2011_c","DIST_HQNM":"Valsad","Dist_LGD":462,"LOC_STAT_1":"District Hq","LOC_NAME":"Valsad"}},{"type":"Feature","id":211,"geometry":{"type":"Point","coordinates":[73.205390416611664,22.288201773909613]},"properties":{"OBJECTID":211,"STNAME":"GUJARAT","DTNAME":"Vadodara","DIST_HQ":"Vadodara","STATE_HQ":2,"STCODE11":"24","DTCODE11":"486","YEAR_STAT":"2011_c","DIST_HQNM":"Vadodara","Dist_LGD":461,"LOC_STAT_1":"District Hq","LOC_NAME":"Vadodara"}},{"type":"Feature","id":212,"geometry":{"type":"Point","coordinates":[73.685085015638947,20.757513893644017]},"properties":{"OBJECTID":212,"STNAME":"GUJARAT","DTNAME":"The Dangs","DIST_HQ":"Ahwa","STATE_HQ":0,"STCODE11":"24","DTCODE11":"489","YEAR_STAT":"2011_c","DIST_HQNM":"Ahwa","Dist_LGD":444,"LOC_STAT_1":"District Hq","LOC_NAME":"The Dangs"}},{"type":"Feature","id":292,"geometry":{"type":"Point","coordinates":[72.435699942918134,24.17342616217196]},"properties":{"OBJECTID":292,"STNAME":"GUJARAT","DTNAME":"Banas Kantha","DIST_HQ":"Palanpur","STATE_HQ":2,"STCODE11":"24","DTCODE11":"469","YEAR_STAT":"2011_c","DIST_HQNM":"Palanpur","Dist_LGD":441,"LOC_STAT_1":"District Hq","LOC_NAME":"Banas Kantha"}},{"type":"Feature","id":293,"geometry":{"type":"Point","coordinates":[72.114927188339919,23.849946106454496]},"properties":{"OBJECTID":293,"STNAME":"GUJARAT","DTNAME":"Patan","DIST_HQ":"Patan","STATE_HQ":0,"STCODE11":"24","DTCODE11":"470","YEAR_STAT":"2011_c","DIST_HQNM":"Patan","Dist_LGD":455,"LOC_STAT_1":"District Hq","LOC_NAME":"Patan"}},{"type":"Feature","id":294,"geometry":{"type":"Point","coordinates":[72.958799563523968,23.599481409109828]},"properties":{"OBJECTID":294,"STNAME":"GUJARAT","DTNAME":"Sabar Kantha","DIST_HQ":"Himatnagar","STATE_HQ":0,"STCODE11":"24","DTCODE11":"472","YEAR_STAT":"2011_c","DIST_HQNM":"Himatnagar","Dist_LGD":458,"LOC_STAT_1":"District Hq","LOC_NAME":"Sabar Kantha"}},{"type":"Feature","id":582,"geometry":{"type":"Point","coordinates":[69.60633481327605,21.641003372368615]},"properties":{"OBJECTID":582,"STNAME":"GUJARAT","DTNAME":"Porbandar","DIST_HQ":"Porbandar","STATE_HQ":2,"STCODE11":"24","DTCODE11":"478","YEAR_STAT":"2011_c","DIST_HQNM":"Porbandar","Dist_LGD":456,"LOC_STAT_1":"District Hq","LOC_NAME":"Porbandar"}},{"type":"Feature","id":637,"geometry":{"type":"Point","coordinates":[73.394750695299493,21.110650111999806]},"properties":{"OBJECTID":637,"STNAME":"GUJARAT","DTNAME":"Tapi","DIST_HQ":"Vyara","STATE_HQ":0,"STCODE11":"24","DTCODE11":"493","YEAR_STAT":"2011_c","DIST_HQNM":"Vyara","Dist_LGD":641,"LOC_STAT_1":"District Hq","LOC_NAME":"Tapi"}},{"type":"Feature","id":649,"geometry":{"type":"Point","coordinates":[70.366444984433173,20.906545066886569]},"properties":{"OBJECTID":649,"STNAME":"GUJARAT","DTNAME":"Gir Somnath","DIST_HQ":"Veraval","STATE_HQ":null,"STCODE11":"24","DTCODE11":"729","YEAR_STAT":" ","DIST_HQNM":"Veraval","Dist_LGD":675,"LOC_STAT_1":"District Hq","LOC_NAME":"Gir Somnath"}},{"type":"Feature","id":650,"geometry":{"type":"Point","coordinates":[69.649894401677372,22.205929412248182]},"properties":{"OBJECTID":650,"STNAME":"GUJARAT","DTNAME":"Devbhumi Dwarka","DIST_HQ":"Khambhalia","STATE_HQ":null,"STCODE11":"24","DTCODE11":"728","YEAR_STAT":" ","DIST_HQNM":"Khambhalia","Dist_LGD":674,"LOC_STAT_1":"District Hq","LOC_NAME":"Devbhumi Dwarka"}},{"type":"Feature","id":651,"geometry":{"type":"Point","coordinates":[70.831179075753028,22.818645748474211]},"properties":{"OBJECTID":651,"STNAME":"GUJARAT","DTNAME":"Morbi","DIST_HQ":"Morbi","STATE_HQ":null,"STCODE11":"24","DTCODE11":"727","YEAR_STAT":" ","DIST_HQNM":"Morbi","Dist_LGD":673,"LOC_STAT_1":"District Hq","LOC_NAME":"Morbi"}},{"type":"Feature","id":652,"geometry":{"type":"Point","coordinates":[71.666218862924012,22.170637252348357]},"properties":{"OBJECTID":652,"STNAME":"GUJARAT","DTNAME":"Botad","DIST_HQ":"Botad","STATE_HQ":null,"STCODE11":"24","DTCODE11":"726","YEAR_STAT":" ","DIST_HQNM":"Botad","Dist_LGD":676,"LOC_STAT_1":"District Hq","LOC_NAME":"Botad"}},{"type":"Feature","id":653,"geometry":{"type":"Point","coordinates":[74.011882053073805,22.306243974028806]},"properties":{"OBJECTID":653,"STNAME":"GUJARAT","DTNAME":"Chota Udaipur","DIST_HQ":"Chota Udaipur","STATE_HQ":null,"STCODE11":"24","DTCODE11":"731","YEAR_STAT":" ","DIST_HQNM":"Chota Udaipur","Dist_LGD":668,"LOC_STAT_1":"District Hq","LOC_NAME":"Chota Udaipur"}},{"type":"Feature","id":654,"geometry":{"type":"Point","coordinates":[73.297403013210953,23.462752227690828]},"properties":{"OBJECTID":654,"STNAME":"GUJARAT","DTNAME":"Modasa","DIST_HQ":"Modasa","STATE_HQ":null,"STCODE11":"24","DTCODE11":"725","YEAR_STAT":" ","DIST_HQNM":"Modasa","Dist_LGD":672,"LOC_STAT_1":"District Hq","LOC_NAME":"Modasa"}},{"type":"Feature","id":655,"geometry":{"type":"Point","coordinates":[73.610978232170822,23.127217792272798]},"properties":{"OBJECTID":655,"STNAME":"GUJARAT","DTNAME":"Mahisagar","DIST_HQ":"Lunawada","STATE_HQ":null,"STCODE11":"24","DTCODE11":"730","YEAR_STAT":" ","DIST_HQNM":"Lunawada","Dist_LGD":669,"LOC_STAT_1":"District Hq","LOC_NAME":"Mahisagar"}}]}