{"type":"FeatureCollection","crs":{"type":"name","properties":{"name":"EPSG:4326"}},"features":[{"type":"Feature","id":2040,"geometry":{"type":"Point","coordinates":[73.364069727612133,20.759044574865975]},"properties":{"OBJECTID":2040,"stname":"GUJARAT","dtname":"Navsari","STCODE11":"24","DTCODE11":"490","SDTCODE11":"03926","NAME11":"Bansda","LOC_NAME":"Bansda"}},{"type":"Feature","id":2041,"geometry":{"type":"Point","coordinates":[72.947221532661487,20.512811654300165]},"properties":{"OBJECTID":2041,"stname":"GUJARAT","dtname":"Valsad","STCODE11":"24","DTCODE11":"491","SDTCODE11":"03929","NAME11":"Pardi","LOC_NAME":"Pardi"}},{"type":"Feature","id":2042,"geometry":{"type":"Point","coordinates":[72.619435264147569,23.885093384142305]},"properties":{"OBJECTID":2042,"stname":"GUJARAT","dtname":"Mahesana","STCODE11":"24","DTCODE11":"471","SDTCODE11":"03752","NAME11":"Kheralu","LOC_NAME":"Kheralu"}},{"type":"Feature","id":2043,"geometry":{"type":"Point","coordinates":[72.819468901036473,23.170628543221525]},"properties":{"OBJECTID":2043,"stname":"GUJARAT","dtname":"Gandhinagar","STCODE11":"24","DTCODE11":"473","SDTCODE11":"03776","NAME11":"Dehgam","LOC_NAME":"Dehgam"}},{"type":"Feature","id":2044,"geometry":{"type":"Point","coordinates":[73.111403012200796,21.116696651040609]},"properties":{"OBJECTID":2044,"stname":"GUJARAT","dtname":"Surat","STCODE11":"24","DTCODE11":"492","SDTCODE11":"03940","NAME11":"Bardoli","LOC_NAME":"Bardoli"}},{"type":"Feature","id":2045,"geometry":{"type":"Point","coordinates":[73.394307437792207,21.110418238323501]},"properties":{"OBJECTID":2045,"stname":"GUJARAT","dtname":"Tapi","STCODE11":"24","DTCODE11":"493","SDTCODE11":"03945","NAME11":"Vyara","LOC_NAME":"Vyara"}},{"type":"Feature","id":2046,"geometry":{"type":"Point","coordinates":[73.145707899626956,21.473711482465493]},"properties":{"OBJECTID":2046,"stname":"GUJARAT","dtname":"Surat","STCODE11":"24","DTCODE11":"492","SDTCODE11":"03933","NAME11":"Mangrol","LOC_NAME":"Mangrol"}},{"type":"Feature","id":2047,"geometry":{"type":"Point","coordinates":[68.772863580710833,23.827180146579732]},"properties":{"OBJECTID":2047,"stname":"GUJARAT","dtname":"Kachchh","STCODE11":"24","DTCODE11":"468","SDTCODE11":"03722","NAME11":"Lakhpat","LOC_NAME":"Lakhpat"}},{"type":"Feature","id":2048,"geometry":{"type":"Point","coordinates":[72.753317550113792,23.561112480993138]},"properties":{"OBJECTID":2048,"stname":"GUJARAT","dtname":"Mahesana","STCODE11":"24","DTCODE11":"471","SDTCODE11":"03756","NAME11":"Vijapur","LOC_NAME":"Vijapur"}},{"type":"Feature","id":2049,"geometry":{"type":"Point","coordinates":[72.330186667423405,23.300951158526015]},"properties":{"OBJECTID":2049,"stname":"GUJARAT","dtname":"Mahesana","STCODE11":"24","DTCODE11":"471","SDTCODE11":"03759","NAME11":"Kadi","LOC_NAME":"Kadi"}},{"type":"Feature","id":2050,"geometry":{"type":"Point","coordinates":[70.304768257823355,22.694788687870815]},"properties":{"OBJECTID":2050,"stname":"GUJARAT","dtname":"Jamnagar","STCODE11":"24","DTCODE11":"477","SDTCODE11":"03815","NAME11":"Jodiya","LOC_NAME":"Jodiya"}},{"type":"Feature","id":2051,"geometry":{"type":"Point","coordinates":[69.649893771060036,22.205930847742646]},"properties":{"OBJECTID":2051,"stname":"GUJARAT","dtname":"Devbhumi Dwarka","STCODE11":"24","DTCODE11":"728","SDTCODE11":"03813","NAME11":"Khambhalia","LOC_NAME":"Khambhalia"}},{"type":"Feature","id":2052,"geometry":{"type":"Point","coordinates":[70.383476568807907,22.20220193836208]},"properties":{"OBJECTID":2052,"stname":"GUJARAT","dtname":"Jamnagar","STCODE11":"24","DTCODE11":"477","SDTCODE11":"03817","NAME11":"Kalavad","LOC_NAME":"Kalavad"}},{"type":"Feature","id":2053,"geometry":{"type":"Point","coordinates":[72.659986606664773,22.706554374439794]},"properties":{"OBJECTID":2053,"stname":"GUJARAT","dtname":"Kheda","STCODE11":"24","DTCODE11":"483","SDTCODE11":"03875","NAME11":"Matar","LOC_NAME":"Matar"}},{"type":"Feature","id":2054,"geometry":{"type":"Point","coordinates":[71.812122542362914,22.564355078658771]},"properties":{"OBJECTID":2054,"stname":"GUJARAT","dtname":"Surendranagar","STCODE11":"24","DTCODE11":"475","SDTCODE11":"03797","NAME11":"Limbdi","LOC_NAME":"Limbdi"}},{"type":"Feature","id":2055,"geometry":{"type":"Point","coordinates":[71.459008913115369,22.637619805145082]},"properties":{"OBJECTID":2055,"stname":"GUJARAT","dtname":"Surendranagar","STCODE11":"24","DTCODE11":"475","SDTCODE11":"03793","NAME11":"Muli","LOC_NAME":"Muli"}},{"type":"Feature","id":2056,"geometry":{"type":"Point","coordinates":[70.450223367118383,21.737461131634056]},"properties":{"OBJECTID":2056,"stname":"GUJARAT","dtname":"Rajkot","STCODE11":"24","DTCODE11":"476","SDTCODE11":"03810","NAME11":"Dhoraji","LOC_NAME":"Dhoraji"}},{"type":"Feature","id":2057,"geometry":{"type":"Point","coordinates":[70.135929928020872,21.496477143298655]},"properties":{"OBJECTID":2057,"stname":"GUJARAT","dtname":"Junagadh","STCODE11":"24","DTCODE11":"479","SDTCODE11":"03825","NAME11":"Manavadar","LOC_NAME":"Manavadar"}},{"type":"Feature","id":2058,"geometry":{"type":"Point","coordinates":[69.984242084502469,21.624095954863328]},"properties":{"OBJECTID":2058,"stname":"GUJARAT","dtname":"Porbandar","STCODE11":"24","DTCODE11":"478","SDTCODE11":"03824","NAME11":"Kutiyana","LOC_NAME":"Kutiyana"}},{"type":"Feature","id":2059,"geometry":{"type":"Point","coordinates":[69.744335230727899,21.684346993468552]},"properties":{"OBJECTID":2059,"stname":"GUJARAT","dtname":"Porbandar","STCODE11":"24","DTCODE11":"478","SDTCODE11":"03823","NAME11":"Ranavav","LOC_NAME":"Ranavav"}},{"type":"Feature","id":2060,"geometry":{"type":"Point","coordinates":[70.114653305363689,21.121973113005158]},"properties":{"OBJECTID":2060,"stname":"GUJARAT","dtname":"Junagadh","STCODE11":"24","DTCODE11":"479","SDTCODE11":"03832","NAME11":"Mangrol","LOC_NAME":"Mangrol"}},{"type":"Feature","id":2061,"geometry":{"type":"Point","coordinates":[73.15867069787295,21.571238652269951]},"properties":{"OBJECTID":2061,"stname":"GUJARAT","dtname":"Bharuch","STCODE11":"24","DTCODE11":"488","SDTCODE11":"03920","NAME11":"Valia","LOC_NAME":"Valia"}},{"type":"Feature","id":2062,"geometry":{"type":"Point","coordinates":[73.586931126125634,21.627936709939711]},"properties":{"OBJECTID":2062,"stname":"GUJARAT","dtname":"Narmada","STCODE11":"24","DTCODE11":"487","SDTCODE11":"03911","NAME11":"Dediapada","LOC_NAME":"Dediapada"}},{"type":"Feature","id":2063,"geometry":{"type":"Point","coordinates":[71.574748135494019,21.538317803941638]},"properties":{"OBJECTID":2063,"stname":"GUJARAT","dtname":"Bhavnagar","STCODE11":"24","DTCODE11":"481","SDTCODE11":"03857","NAME11":"Gariadhar","LOC_NAME":"Gariadhar"}},{"type":"Feature","id":2064,"geometry":{"type":"Point","coordinates":[70.814531609197132,21.687364700858616]},"properties":{"OBJECTID":2064,"stname":"GUJARAT","dtname":"Amreli","STCODE11":"24","DTCODE11":"480","SDTCODE11":"03839","NAME11":"Kunkavav Vadia","LOC_NAME":"Kunkavav Vadia"}},{"type":"Feature","id":2065,"geometry":{"type":"Point","coordinates":[70.707553228186427,21.551563512101687]},"properties":{"OBJECTID":2065,"stname":"GUJARAT","dtname":"Junagadh","STCODE11":"24","DTCODE11":"479","SDTCODE11":"03828","NAME11":"Bhesan","LOC_NAME":"Bhesan"}},{"type":"Feature","id":2066,"geometry":{"type":"Point","coordinates":[70.752183012823394,21.339596930207133]},"properties":{"OBJECTID":2066,"stname":"GUJARAT","dtname":"Junagadh","STCODE11":"24","DTCODE11":"479","SDTCODE11":"03829","NAME11":"Visavadar","LOC_NAME":"Visavadar"}},{"type":"Feature","id":2067,"geometry":{"type":"Point","coordinates":[71.776920245154443,23.683868863421623]},"properties":{"OBJECTID":2067,"stname":"GUJARAT","dtname":"Patan","STCODE11":"24","DTCODE11":"470","SDTCODE11":"03749","NAME11":"Sami","LOC_NAME":"Sami"}},{"type":"Feature","id":2068,"geometry":{"type":"Point","coordinates":[73.174501953365052,20.536414828610614]},"properties":{"OBJECTID":2068,"stname":"GUJARAT","dtname":"Valsad","STCODE11":"24","DTCODE11":"491","SDTCODE11":"03928","NAME11":"Dharampur","LOC_NAME":"Dharampur"}},{"type":"Feature","id":2069,"geometry":{"type":"Point","coordinates":[72.985609649329561,21.082539979752109]},"properties":{"OBJECTID":2069,"stname":"GUJARAT","dtname":"Surat","STCODE11":"24","DTCODE11":"492","SDTCODE11":"03939","NAME11":"Palsana","LOC_NAME":"Palsana"}},{"type":"Feature","id":2070,"geometry":{"type":"Point","coordinates":[71.605353373406274,23.833222814912457]},"properties":{"OBJECTID":2070,"stname":"GUJARAT","dtname":"Patan","STCODE11":"24","DTCODE11":"470","SDTCODE11":"03745","NAME11":"Radhanpur","LOC_NAME":"Radhanpur"}},{"type":"Feature","id":2071,"geometry":{"type":"Point","coordinates":[69.779358303257396,21.930308466437268]},"properties":{"OBJECTID":2071,"stname":"GUJARAT","dtname":"Devbhumi Dwarka","STCODE11":"24","DTCODE11":"728","SDTCODE11":"03820","NAME11":"Bhanvad","LOC_NAME":"Bhanvad"}},{"type":"Feature","id":2072,"geometry":{"type":"Point","coordinates":[70.645527281509899,23.571899518753188]},"properties":{"OBJECTID":2072,"stname":"GUJARAT","dtname":"Kachchh","STCODE11":"24","DTCODE11":"468","SDTCODE11":"03723","NAME11":"Rapar","LOC_NAME":"Rapar"}},{"type":"Feature","id":2073,"geometry":{"type":"Point","coordinates":[70.343977865852423,23.297611127116664]},"properties":{"OBJECTID":2073,"stname":"GUJARAT","dtname":"Kachchh","STCODE11":"24","DTCODE11":"468","SDTCODE11":"03724","NAME11":"Bhachau","LOC_NAME":"Bhachau"}},{"type":"Feature","id":2074,"geometry":{"type":"Point","coordinates":[70.758418457264014,23.091176119360448]},"properties":{"OBJECTID":2074,"stname":"GUJARAT","dtname":"Morbi","STCODE11":"24","DTCODE11":"727","SDTCODE11":"03798","NAME11":"Maliya","LOC_NAME":"Maliya"}},{"type":"Feature","id":2075,"geometry":{"type":"Point","coordinates":[70.029054010648125,23.113212798289776]},"properties":{"OBJECTID":2075,"stname":"GUJARAT","dtname":"Kachchh","STCODE11":"24","DTCODE11":"468","SDTCODE11":"03725","NAME11":"Anjar","LOC_NAME":"Anjar"}},{"type":"Feature","id":2076,"geometry":{"type":"Point","coordinates":[71.626623295529782,24.395793817854614]},"properties":{"OBJECTID":2076,"stname":"GUJARAT","dtname":"Banas Kantha","STCODE11":"24","DTCODE11":"469","SDTCODE11":"03733","NAME11":"Tharad","LOC_NAME":"Tharad"}},{"type":"Feature","id":2077,"geometry":{"type":"Point","coordinates":[71.512126735141521,24.36425652784397]},"properties":{"OBJECTID":2077,"stname":"GUJARAT","dtname":"Banas Kantha","STCODE11":"24","DTCODE11":"469","SDTCODE11":"03732","NAME11":"Vav","LOC_NAME":"Vav"}},{"type":"Feature","id":2078,"geometry":{"type":"Point","coordinates":[71.773310492745978,24.105683271773021]},"properties":{"OBJECTID":2078,"stname":"GUJARAT","dtname":"Banas Kantha","STCODE11":"24","DTCODE11":"469","SDTCODE11":"03741","NAME11":"Deodar","LOC_NAME":"Deodar"}},{"type":"Feature","id":2079,"geometry":{"type":"Point","coordinates":[72.174672441867472,24.255594976532432]},"properties":{"OBJECTID":2079,"stname":"GUJARAT","dtname":"Banas Kantha","STCODE11":"24","DTCODE11":"469","SDTCODE11":"03740","NAME11":"Deesa","LOC_NAME":"Deesa"}},{"type":"Feature","id":2080,"geometry":{"type":"Point","coordinates":[72.023124871178965,24.511055350992834]},"properties":{"OBJECTID":2080,"stname":"GUJARAT","dtname":"Banas Kantha","STCODE11":"24","DTCODE11":"469","SDTCODE11":"03734","NAME11":"Dhanera","LOC_NAME":"Dhanera"}},{"type":"Feature","id":2081,"geometry":{"type":"Point","coordinates":[72.766128903182647,24.188154528493204]},"properties":{"OBJECTID":2081,"stname":"GUJARAT","dtname":"Banas Kantha","STCODE11":"24","DTCODE11":"469","SDTCODE11":"03737","NAME11":"Danta","LOC_NAME":"Danta"}},{"type":"Feature","id":2082,"geometry":{"type":"Point","coordinates":[72.488408323617563,24.079400614187204]},"properties":{"OBJECTID":2082,"stname":"GUJARAT","dtname":"Banas Kantha","STCODE11":"24","DTCODE11":"469","SDTCODE11":"03738","NAME11":"Vadgam","LOC_NAME":"Vadgam"}},{"type":"Feature","id":2083,"geometry":{"type":"Point","coordinates":[73.359891240119211,24.006587336173535]},"properties":{"OBJECTID":2083,"stname":"GUJARAT","dtname":"Sabar Kantha","STCODE11":"24","DTCODE11":"472","SDTCODE11":"03761","NAME11":"Vijaynagar","LOC_NAME":"Vijaynagar"}},{"type":"Feature","id":2084,"geometry":{"type":"Point","coordinates":[73.050960512400877,24.041998203380153]},"properties":{"OBJECTID":2084,"stname":"GUJARAT","dtname":"Sabar Kantha","STCODE11":"24","DTCODE11":"472","SDTCODE11":"03760","NAME11":"Khedbrahma","LOC_NAME":"Khedbrahma"}},{"type":"Feature","id":2085,"geometry":{"type":"Point","coordinates":[71.830594208783083,23.324270939388022]},"properties":{"OBJECTID":2085,"stname":"GUJARAT","dtname":"Surendranagar","STCODE11":"24","DTCODE11":"475","SDTCODE11":"03790","NAME11":"Dasada","LOC_NAME":"Dasada"}},{"type":"Feature","id":2086,"geometry":{"type":"Point","coordinates":[71.907081896961728,23.691354486615477]},"properties":{"OBJECTID":2086,"stname":"GUJARAT","dtname":"Patan","STCODE11":"24","DTCODE11":"470","SDTCODE11":"03748","NAME11":"Harij","LOC_NAME":"Harij"}},{"type":"Feature","id":2087,"geometry":{"type":"Point","coordinates":[72.112291606754795,23.714016369923105]},"properties":{"OBJECTID":2087,"stname":"GUJARAT","dtname":"Patan","STCODE11":"24","DTCODE11":"470","SDTCODE11":"03750","NAME11":"Chanasma","LOC_NAME":"Chanasma"}},{"type":"Feature","id":2088,"geometry":{"type":"Point","coordinates":[72.374540359349396,23.917374851855463]},"properties":{"OBJECTID":2088,"stname":"GUJARAT","dtname":"Patan","STCODE11":"24","DTCODE11":"470","SDTCODE11":"03746","NAME11":"Sidhpur","LOC_NAME":"Sidhpur"}},{"type":"Feature","id":2089,"geometry":{"type":"Point","coordinates":[72.545360093292601,23.702029624642488]},"properties":{"OBJECTID":2089,"stname":"GUJARAT","dtname":"Mahesana","STCODE11":"24","DTCODE11":"471","SDTCODE11":"03754","NAME11":"Visnagar","LOC_NAME":"Visnagar"}},{"type":"Feature","id":2090,"geometry":{"type":"Point","coordinates":[72.504743214183833,23.241051638603054]},"properties":{"OBJECTID":2090,"stname":"GUJARAT","dtname":"Gandhinagar","STCODE11":"24","DTCODE11":"473","SDTCODE11":"03773","NAME11":"Kalol","LOC_NAME":"Kalol"}},{"type":"Feature","id":2091,"geometry":{"type":"Point","coordinates":[72.049208920605608,23.126651252173446]},"properties":{"OBJECTID":2091,"stname":"GUJARAT","dtname":"Ahmadabad","STCODE11":"24","DTCODE11":"474","SDTCODE11":"03779","NAME11":"Viramgam","LOC_NAME":"Viramgam"}},{"type":"Feature","id":2092,"geometry":{"type":"Point","coordinates":[72.853572511041747,23.437101818935407]},"properties":{"OBJECTID":2092,"stname":"GUJARAT","dtname":"Sabar Kantha","STCODE11":"24","DTCODE11":"472","SDTCODE11":"03767","NAME11":"Prantij","LOC_NAME":"Prantij"}},{"type":"Feature","id":2093,"geometry":{"type":"Point","coordinates":[73.075664797161792,23.021513779407424]},"properties":{"OBJECTID":2093,"stname":"GUJARAT","dtname":"Kheda","STCODE11":"24","DTCODE11":"483","SDTCODE11":"03869","NAME11":"Kapadvanj","LOC_NAME":"Kapadvanj"}},{"type":"Feature","id":2094,"geometry":{"type":"Point","coordinates":[73.251948126883846,23.766507024705799]},"properties":{"OBJECTID":2094,"stname":"GUJARAT","dtname":"Aravalli","STCODE11":"24","DTCODE11":"725","SDTCODE11":"03764","NAME11":"Bhiloda","LOC_NAME":"Bhiloda"}},{"type":"Feature","id":2095,"geometry":{"type":"Point","coordinates":[73.297404223241656,23.462752384258771]},"properties":{"OBJECTID":2095,"stname":"GUJARAT","dtname":"Aravalli","STCODE11":"24","DTCODE11":"725","SDTCODE11":"03769","NAME11":"Modasa","LOC_NAME":"Modasa"}},{"type":"Feature","id":2096,"geometry":{"type":"Point","coordinates":[73.513791279347885,23.498772736883815]},"properties":{"OBJECTID":2096,"stname":"GUJARAT","dtname":"Aravalli","STCODE11":"24","DTCODE11":"725","SDTCODE11":"03765","NAME11":"Meghraj","LOC_NAME":"Meghraj"}},{"type":"Feature","id":2097,"geometry":{"type":"Point","coordinates":[73.465791146918917,23.36245863100665]},"properties":{"OBJECTID":2097,"stname":"GUJARAT","dtname":"Aravalli","STCODE11":"24","DTCODE11":"725","SDTCODE11":"03771","NAME11":"Malpur","LOC_NAME":"Malpur"}},{"type":"Feature","id":2098,"geometry":{"type":"Point","coordinates":[69.403247949161781,22.017518683462971]},"properties":{"OBJECTID":2098,"stname":"GUJARAT","dtname":"Devbhumi Dwarka","STCODE11":"24","DTCODE11":"728","SDTCODE11":"03819","NAME11":"Kalyanpur","LOC_NAME":"Kalyanpur"}},{"type":"Feature","id":2099,"geometry":{"type":"Point","coordinates":[69.720466725930876,22.840261896531604]},"properties":{"OBJECTID":2099,"stname":"GUJARAT","dtname":"Kachchh","STCODE11":"24","DTCODE11":"468","SDTCODE11":"03730","NAME11":"Mundra","LOC_NAME":"Mundra"}},{"type":"Feature","id":2100,"geometry":{"type":"Point","coordinates":[69.351728838185537,22.832317986577891]},"properties":{"OBJECTID":2100,"stname":"GUJARAT","dtname":"Kachchh","STCODE11":"24","DTCODE11":"468","SDTCODE11":"03729","NAME11":"Mandvi","LOC_NAME":"Mandvi"}},{"type":"Feature","id":2101,"geometry":{"type":"Point","coordinates":[69.964815540376279,22.190965788158337]},"properties":{"OBJECTID":2101,"stname":"GUJARAT","dtname":"Jamnagar","STCODE11":"24","DTCODE11":"477","SDTCODE11":"03818","NAME11":"Lalpur","LOC_NAME":"Lalpur"}},{"type":"Feature","id":2102,"geometry":{"type":"Point","coordinates":[70.865076923947541,22.044219128968724]},"properties":{"OBJECTID":2102,"stname":"GUJARAT","dtname":"Rajkot","STCODE11":"24","DTCODE11":"476","SDTCODE11":"03805","NAME11":"Kotda Sangani","LOC_NAME":"Kotda Sangani"}},{"type":"Feature","id":2103,"geometry":{"type":"Point","coordinates":[70.63249655625539,22.133962621586388]},"properties":{"OBJECTID":2103,"stname":"GUJARAT","dtname":"Rajkot","STCODE11":"24","DTCODE11":"476","SDTCODE11":"03804","NAME11":"Lodhika","LOC_NAME":"Lodhika"}},{"type":"Feature","id":2104,"geometry":{"type":"Point","coordinates":[70.59977594934243,22.43559094558908]},"properties":{"OBJECTID":2104,"stname":"GUJARAT","dtname":"Rajkot","STCODE11":"24","DTCODE11":"476","SDTCODE11":"03802","NAME11":"Paddhari","LOC_NAME":"Paddhari"}},{"type":"Feature","id":2105,"geometry":{"type":"Point","coordinates":[70.417290919495073,22.567973704036891]},"properties":{"OBJECTID":2105,"stname":"GUJARAT","dtname":"Jamnagar","STCODE11":"24","DTCODE11":"477","SDTCODE11":"03816","NAME11":"Dhrol","LOC_NAME":"Dhrol"}},{"type":"Feature","id":2106,"geometry":{"type":"Point","coordinates":[70.831179148516554,22.818645794014781]},"properties":{"OBJECTID":2106,"stname":"GUJARAT","dtname":"Morbi","STCODE11":"24","DTCODE11":"727","SDTCODE11":"03799","NAME11":"Morvi","LOC_NAME":"Morvi"}},{"type":"Feature","id":2107,"geometry":{"type":"Point","coordinates":[70.945706148318195,22.61132832989562]},"properties":{"OBJECTID":2107,"stname":"GUJARAT","dtname":"Morbi","STCODE11":"24","DTCODE11":"727","SDTCODE11":"03801","NAME11":"Wankaner","LOC_NAME":"Wankaner"}},{"type":"Feature","id":2108,"geometry":{"type":"Point","coordinates":[71.208034751260087,22.03768630982217]},"properties":{"OBJECTID":2108,"stname":"GUJARAT","dtname":"Rajkot","STCODE11":"24","DTCODE11":"476","SDTCODE11":"03806","NAME11":"Jasdan","LOC_NAME":"Jasdan"}},{"type":"Feature","id":2109,"geometry":{"type":"Point","coordinates":[71.666213462252543,22.17063579320007]},"properties":{"OBJECTID":2109,"stname":"GUJARAT","dtname":"Botad","STCODE11":"24","DTCODE11":"726","SDTCODE11":"03850","NAME11":"Botad","LOC_NAME":"Botad"}},{"type":"Feature","id":2110,"geometry":{"type":"Point","coordinates":[71.195485193316145,22.423232122171999]},"properties":{"OBJECTID":2110,"stname":"GUJARAT","dtname":"Surendranagar","STCODE11":"24","DTCODE11":"475","SDTCODE11":"03794","NAME11":"Chotila","LOC_NAME":"Chotila"}},{"type":"Feature","id":2111,"geometry":{"type":"Point","coordinates":[71.98411814855514,22.381803247451849]},"properties":{"OBJECTID":2111,"stname":"GUJARAT","dtname":"Ahmadabad","STCODE11":"24","DTCODE11":"474","SDTCODE11":"03787","NAME11":"Dhandhuka","LOC_NAME":"Dhandhuka"}},{"type":"Feature","id":2112,"geometry":{"type":"Point","coordinates":[71.482743151218457,22.549602986172506]},"properties":{"OBJECTID":2112,"stname":"GUJARAT","dtname":"Surendranagar","STCODE11":"24","DTCODE11":"475","SDTCODE11":"03795","NAME11":"Sayla","LOC_NAME":"Sayla"}},{"type":"Feature","id":2113,"geometry":{"type":"Point","coordinates":[71.678231534653563,22.710277578421312]},"properties":{"OBJECTID":2113,"stname":"GUJARAT","dtname":"Surendranagar","STCODE11":"24","DTCODE11":"475","SDTCODE11":"03792","NAME11":"Wadhwan","LOC_NAME":"Wadhwan"}},{"type":"Feature","id":2114,"geometry":{"type":"Point","coordinates":[71.467930018421569,22.992599441877342]},"properties":{"OBJECTID":2114,"stname":"GUJARAT","dtname":"Surendranagar","STCODE11":"24","DTCODE11":"475","SDTCODE11":"03789","NAME11":"Dhrangadhra","LOC_NAME":"Dhrangadhra"}},{"type":"Feature","id":2115,"geometry":{"type":"Point","coordinates":[71.183074253505367,23.014732456154466]},"properties":{"OBJECTID":2115,"stname":"GUJARAT","dtname":"Morbi","STCODE11":"24","DTCODE11":"727","SDTCODE11":"03788","NAME11":"Halvad","LOC_NAME":"Halvad"}},{"type":"Feature","id":2116,"geometry":{"type":"Point","coordinates":[72.802011662540735,22.052967314349399]},"properties":{"OBJECTID":2116,"stname":"GUJARAT","dtname":"Bharuch","STCODE11":"24","DTCODE11":"488","SDTCODE11":"03913","NAME11":"Jambusar","LOC_NAME":"Jambusar"}},{"type":"Feature","id":2117,"geometry":{"type":"Point","coordinates":[73.082127330316368,22.239298907872019]},"properties":{"OBJECTID":2117,"stname":"GUJARAT","dtname":"Vadodara","STCODE11":"24","DTCODE11":"486","SDTCODE11":"03906","NAME11":"Padra","LOC_NAME":"Padra"}},{"type":"Feature","id":2118,"geometry":{"type":"Point","coordinates":[72.625132692293164,22.318985288993598]},"properties":{"OBJECTID":2118,"stname":"GUJARAT","dtname":"Anand","STCODE11":"24","DTCODE11":"482","SDTCODE11":"03866","NAME11":"Khambhat","LOC_NAME":"Khambhat"}},{"type":"Feature","id":2119,"geometry":{"type":"Point","coordinates":[72.799292152256939,22.478614631583191]},"properties":{"OBJECTID":2119,"stname":"GUJARAT","dtname":"Anand","STCODE11":"24","DTCODE11":"482","SDTCODE11":"03865","NAME11":"Petlad","LOC_NAME":"Petlad"}},{"type":"Feature","id":2120,"geometry":{"type":"Point","coordinates":[72.897505189543509,22.409011949205173]},"properties":{"OBJECTID":2120,"stname":"GUJARAT","dtname":"Anand","STCODE11":"24","DTCODE11":"482","SDTCODE11":"03867","NAME11":"Borsad","LOC_NAME":"Borsad"}},{"type":"Feature","id":2121,"geometry":{"type":"Point","coordinates":[72.441748097605171,22.731364010602707]},"properties":{"OBJECTID":2121,"stname":"GUJARAT","dtname":"Ahmadabad","STCODE11":"24","DTCODE11":"474","SDTCODE11":"03783","NAME11":"Dholka","LOC_NAME":"Dholka"}},{"type":"Feature","id":2122,"geometry":{"type":"Point","coordinates":[72.866177228239067,22.694464285336295]},"properties":{"OBJECTID":2122,"stname":"GUJARAT","dtname":"Kheda","STCODE11":"24","DTCODE11":"483","SDTCODE11":"03876","NAME11":"Nadiad","LOC_NAME":"Nadiad"}},{"type":"Feature","id":2123,"geometry":{"type":"Point","coordinates":[72.381640620897173,22.99269981607161]},"properties":{"OBJECTID":2123,"stname":"GUJARAT","dtname":"Ahmadabad","STCODE11":"24","DTCODE11":"474","SDTCODE11":"03780","NAME11":"Sanand","LOC_NAME":"Sanand"}},{"type":"Feature","id":2124,"geometry":{"type":"Point","coordinates":[72.755428564980321,22.822072792491422]},"properties":{"OBJECTID":2124,"stname":"GUJARAT","dtname":"Kheda","STCODE11":"24","DTCODE11":"483","SDTCODE11":"03873","NAME11":"Mehmedabad","LOC_NAME":"Mehmedabad"}},{"type":"Feature","id":2125,"geometry":{"type":"Point","coordinates":[73.119816570269776,22.051546561436353]},"properties":{"OBJECTID":2125,"stname":"GUJARAT","dtname":"Vadodara","STCODE11":"24","DTCODE11":"486","SDTCODE11":"03907","NAME11":"Karjan","LOC_NAME":"Karjan"}},{"type":"Feature","id":2126,"geometry":{"type":"Point","coordinates":[73.577448200966032,22.171606006998665]},"properties":{"OBJECTID":2126,"stname":"GUJARAT","dtname":"Chota Udaipur","STCODE11":"24","DTCODE11":"731","SDTCODE11":"03904","NAME11":"Sankheda","LOC_NAME":"Sankheda"}},{"type":"Feature","id":2127,"geometry":{"type":"Point","coordinates":[73.419186407146682,22.134181058923009]},"properties":{"OBJECTID":2127,"stname":"GUJARAT","dtname":"Vadodara","STCODE11":"24","DTCODE11":"486","SDTCODE11":"03905","NAME11":"Dabhoi","LOC_NAME":"Dabhoi"}},{"type":"Feature","id":2128,"geometry":{"type":"Point","coordinates":[74.011885858337365,22.306241813187309]},"properties":{"OBJECTID":2128,"stname":"GUJARAT","dtname":"Chota Udaipur","STCODE11":"24","DTCODE11":"731","SDTCODE11":"03901","NAME11":"Chhota Udaipur","LOC_NAME":"Chhota Udaipur"}},{"type":"Feature","id":2129,"geometry":{"type":"Point","coordinates":[73.223182099684308,22.563359637657573]},"properties":{"OBJECTID":2129,"stname":"GUJARAT","dtname":"Vadodara","STCODE11":"24","DTCODE11":"486","SDTCODE11":"03897","NAME11":"Savli","LOC_NAME":"Savli"}},{"type":"Feature","id":2130,"geometry":{"type":"Point","coordinates":[73.212202405191533,22.798801517571203]},"properties":{"OBJECTID":2130,"stname":"GUJARAT","dtname":"Kheda","STCODE11":"24","DTCODE11":"483","SDTCODE11":"03878","NAME11":"Thasra","LOC_NAME":"Thasra"}},{"type":"Feature","id":2131,"geometry":{"type":"Point","coordinates":[73.333576551836614,22.957088763259776]},"properties":{"OBJECTID":2131,"stname":"GUJARAT","dtname":"Mahisagar","STCODE11":"24","DTCODE11":"730","SDTCODE11":"03871","NAME11":"Balasinor","LOC_NAME":"Balasinor"}},{"type":"Feature","id":2132,"geometry":{"type":"Point","coordinates":[73.400563128462707,22.305192553639134]},"properties":{"OBJECTID":2132,"stname":"GUJARAT","dtname":"Vadodara","STCODE11":"24","DTCODE11":"486","SDTCODE11":"03899","NAME11":"Vaghodia","LOC_NAME":"Vaghodia"}},{"type":"Feature","id":2133,"geometry":{"type":"Point","coordinates":[71.574980674286763,21.966567303049022]},"properties":{"OBJECTID":2133,"stname":"GUJARAT","dtname":"Botad","STCODE11":"24","DTCODE11":"726","SDTCODE11":"03852","NAME11":"Gadhada","LOC_NAME":"Gadhada"}},{"type":"Feature","id":2134,"geometry":{"type":"Point","coordinates":[71.879389171473747,21.888227855458425]},"properties":{"OBJECTID":2134,"stname":"GUJARAT","dtname":"Bhavnagar","STCODE11":"24","DTCODE11":"481","SDTCODE11":"03851","NAME11":"Vallabhipur","LOC_NAME":"Vallabhipur"}},{"type":"Feature","id":2135,"geometry":{"type":"Point","coordinates":[71.805177674986211,21.844139155871677]},"properties":{"OBJECTID":2135,"stname":"GUJARAT","dtname":"Bhavnagar","STCODE11":"24","DTCODE11":"481","SDTCODE11":"03853","NAME11":"Umrala","LOC_NAME":"Umrala"}},{"type":"Feature","id":2136,"geometry":{"type":"Point","coordinates":[71.304143779641009,21.846523917425813]},"properties":{"OBJECTID":2136,"stname":"GUJARAT","dtname":"Amreli","STCODE11":"24","DTCODE11":"480","SDTCODE11":"03840","NAME11":"Babra","LOC_NAME":"Babra"}},{"type":"Feature","id":2137,"geometry":{"type":"Point","coordinates":[71.388160815052771,21.722941747264105]},"properties":{"OBJECTID":2137,"stname":"GUJARAT","dtname":"Amreli","STCODE11":"24","DTCODE11":"480","SDTCODE11":"03841","NAME11":"Lathi","LOC_NAME":"Lathi"}},{"type":"Feature","id":2138,"geometry":{"type":"Point","coordinates":[71.959838356393504,21.719904234260394]},"properties":{"OBJECTID":2138,"stname":"GUJARAT","dtname":"Bhavnagar","STCODE11":"24","DTCODE11":"481","SDTCODE11":"03856","NAME11":"Sihor","LOC_NAME":"Sihor"}},{"type":"Feature","id":2139,"geometry":{"type":"Point","coordinates":[71.361491873442972,21.536881554840107]},"properties":{"OBJECTID":2139,"stname":"GUJARAT","dtname":"Amreli","STCODE11":"24","DTCODE11":"480","SDTCODE11":"03842","NAME11":"Lilia","LOC_NAME":"Lilia"}},{"type":"Feature","id":2140,"geometry":{"type":"Point","coordinates":[71.820438909006356,21.523996271626146]},"properties":{"OBJECTID":2140,"stname":"GUJARAT","dtname":"Bhavnagar","STCODE11":"24","DTCODE11":"481","SDTCODE11":"03858","NAME11":"Palitana","LOC_NAME":"Palitana"}},{"type":"Feature","id":2141,"geometry":{"type":"Point","coordinates":[71.021537454586692,21.329646182891711]},"properties":{"OBJECTID":2141,"stname":"GUJARAT","dtname":"Amreli","STCODE11":"24","DTCODE11":"480","SDTCODE11":"03845","NAME11":"Dhari","LOC_NAME":"Dhari"}},{"type":"Feature","id":2142,"geometry":{"type":"Point","coordinates":[71.309389466589764,21.339928120507302]},"properties":{"OBJECTID":2142,"stname":"GUJARAT","dtname":"Amreli","STCODE11":"24","DTCODE11":"480","SDTCODE11":"03846","NAME11":"Savar Kundla","LOC_NAME":"Savar Kundla"}},{"type":"Feature","id":2143,"geometry":{"type":"Point","coordinates":[71.77127851974295,21.088973816720397]},"properties":{"OBJECTID":2143,"stname":"GUJARAT","dtname":"Bhavnagar","STCODE11":"24","DTCODE11":"481","SDTCODE11":"03860","NAME11":"Mahuva","LOC_NAME":"Mahuva"}},{"type":"Feature","id":2144,"geometry":{"type":"Point","coordinates":[71.443584881009528,21.040187393235922]},"properties":{"OBJECTID":2144,"stname":"GUJARAT","dtname":"Amreli","STCODE11":"24","DTCODE11":"480","SDTCODE11":"03849","NAME11":"Rajula","LOC_NAME":"Rajula"}},{"type":"Feature","id":2145,"geometry":{"type":"Point","coordinates":[71.253520578260492,21.141242680053502]},"properties":{"OBJECTID":2145,"stname":"GUJARAT","dtname":"Amreli","STCODE11":"24","DTCODE11":"480","SDTCODE11":"03847","NAME11":"Khambha","LOC_NAME":"Khambha"}},{"type":"Feature","id":2146,"geometry":{"type":"Point","coordinates":[71.043178496805211,20.820752229096765]},"properties":{"OBJECTID":2146,"stname":"GUJARAT","dtname":"Gir Somnath","STCODE11":"24","DTCODE11":"729","SDTCODE11":"03838","NAME11":"Una","LOC_NAME":"Una"}},{"type":"Feature","id":2147,"geometry":{"type":"Point","coordinates":[71.366591863534126,20.866197122217216]},"properties":{"OBJECTID":2147,"stname":"GUJARAT","dtname":"Amreli","STCODE11":"24","DTCODE11":"480","SDTCODE11":"03848","NAME11":"Jafrabad","LOC_NAME":"Jafrabad"}},{"type":"Feature","id":2148,"geometry":{"type":"Point","coordinates":[70.702610954411369,20.794112936110704]},"properties":{"OBJECTID":2148,"stname":"GUJARAT","dtname":"Gir Somnath","STCODE11":"24","DTCODE11":"729","SDTCODE11":"03837","NAME11":"Kodinar","LOC_NAME":"Kodinar"}},{"type":"Feature","id":2149,"geometry":{"type":"Point","coordinates":[70.366445671644342,20.906548630017411]},"properties":{"OBJECTID":2149,"stname":"GUJARAT","dtname":"Gir Somnath","STCODE11":"24","DTCODE11":"729","SDTCODE11":"03835","NAME11":"Patan-Veraval","LOC_NAME":"Patan-Veraval"}},{"type":"Feature","id":2150,"geometry":{"type":"Point","coordinates":[70.801414125550778,21.959416864613118]},"properties":{"OBJECTID":2150,"stname":"GUJARAT","dtname":"Rajkot","STCODE11":"24","DTCODE11":"476","SDTCODE11":"03807","NAME11":"Gondal","LOC_NAME":"Gondal"}},{"type":"Feature","id":2151,"geometry":{"type":"Point","coordinates":[70.032187551751434,21.901431538783225]},"properties":{"OBJECTID":2151,"stname":"GUJARAT","dtname":"Jamnagar","STCODE11":"24","DTCODE11":"477","SDTCODE11":"03821","NAME11":"Jamjodhpur","LOC_NAME":"Jamjodhpur"}},{"type":"Feature","id":2152,"geometry":{"type":"Point","coordinates":[70.492791449007981,21.892652495221029]},"properties":{"OBJECTID":2152,"stname":"GUJARAT","dtname":"Rajkot","STCODE11":"24","DTCODE11":"476","SDTCODE11":"03808","NAME11":"Jamkandorna","LOC_NAME":"Jamkandorna"}},{"type":"Feature","id":2153,"geometry":{"type":"Point","coordinates":[70.625069563964047,21.755824935496737]},"properties":{"OBJECTID":2153,"stname":"GUJARAT","dtname":"Rajkot","STCODE11":"24","DTCODE11":"476","SDTCODE11":"03811","NAME11":"Jetpur","LOC_NAME":"Jetpur"}},{"type":"Feature","id":2154,"geometry":{"type":"Point","coordinates":[70.285314437251913,21.740249725091523]},"properties":{"OBJECTID":2154,"stname":"GUJARAT","dtname":"Rajkot","STCODE11":"24","DTCODE11":"476","SDTCODE11":"03809","NAME11":"Upleta","LOC_NAME":"Upleta"}},{"type":"Feature","id":2155,"geometry":{"type":"Point","coordinates":[70.331002331292353,21.477630515578134]},"properties":{"OBJECTID":2155,"stname":"GUJARAT","dtname":"Junagadh","STCODE11":"24","DTCODE11":"479","SDTCODE11":"03826","NAME11":"Vanthali","LOC_NAME":"Vanthali"}},{"type":"Feature","id":2156,"geometry":{"type":"Point","coordinates":[70.246414041920048,21.303207067068033]},"properties":{"OBJECTID":2156,"stname":"GUJARAT","dtname":"Junagadh","STCODE11":"24","DTCODE11":"479","SDTCODE11":"03831","NAME11":"Keshod","LOC_NAME":"Keshod"}},{"type":"Feature","id":2157,"geometry":{"type":"Point","coordinates":[70.308795153713788,21.158919809534556]},"properties":{"OBJECTID":2157,"stname":"GUJARAT","dtname":"Junagadh","STCODE11":"24","DTCODE11":"479","SDTCODE11":"03833","NAME11":"Malia","LOC_NAME":"Malia"}},{"type":"Feature","id":2158,"geometry":{"type":"Point","coordinates":[70.440475138912618,21.321069677788454]},"properties":{"OBJECTID":2158,"stname":"GUJARAT","dtname":"Junagadh","STCODE11":"24","DTCODE11":"479","SDTCODE11":"03830","NAME11":"Mendarda","LOC_NAME":"Mendarda"}},{"type":"Feature","id":2159,"geometry":{"type":"Point","coordinates":[70.532118595303785,21.055007144554519]},"properties":{"OBJECTID":2159,"stname":"GUJARAT","dtname":"Gir Somnath","STCODE11":"24","DTCODE11":"729","SDTCODE11":"03834","NAME11":"Talala","LOC_NAME":"Talala"}},{"type":"Feature","id":2160,"geometry":{"type":"Point","coordinates":[72.808378896121766,21.585193246598383]},"properties":{"OBJECTID":2160,"stname":"GUJARAT","dtname":"Bharuch","STCODE11":"24","DTCODE11":"488","SDTCODE11":"03919","NAME11":"Hansot","LOC_NAME":"Hansot"}},{"type":"Feature","id":2161,"geometry":{"type":"Point","coordinates":[72.276111579070928,21.687093130449668]},"properties":{"OBJECTID":2161,"stname":"GUJARAT","dtname":"Bhavnagar","STCODE11":"24","DTCODE11":"481","SDTCODE11":"03855","NAME11":"Ghogha","LOC_NAME":"Ghogha"}},{"type":"Feature","id":2162,"geometry":{"type":"Point","coordinates":[72.036741722003541,21.352743601558956]},"properties":{"OBJECTID":2162,"stname":"GUJARAT","dtname":"Bhavnagar","STCODE11":"24","DTCODE11":"481","SDTCODE11":"03859","NAME11":"Talaja","LOC_NAME":"Talaja"}},{"type":"Feature","id":2163,"geometry":{"type":"Point","coordinates":[72.75132868097306,21.338581243326537]},"properties":{"OBJECTID":2163,"stname":"GUJARAT","dtname":"Surat","STCODE11":"24","DTCODE11":"492","SDTCODE11":"03932","NAME11":"Olpad","LOC_NAME":"Olpad"}},{"type":"Feature","id":2164,"geometry":{"type":"Point","coordinates":[72.844102927660728,21.846113818068716]},"properties":{"OBJECTID":2164,"stname":"GUJARAT","dtname":"Bharuch","STCODE11":"24","DTCODE11":"488","SDTCODE11":"03915","NAME11":"Vagra","LOC_NAME":"Vagra"}},{"type":"Feature","id":2165,"geometry":{"type":"Point","coordinates":[72.870170060013933,21.993690378427004]},"properties":{"OBJECTID":2165,"stname":"GUJARAT","dtname":"Bharuch","STCODE11":"24","DTCODE11":"488","SDTCODE11":"03914","NAME11":"Amod","LOC_NAME":"Amod"}},{"type":"Feature","id":2166,"geometry":{"type":"Point","coordinates":[73.261633165795885,21.049243409487747]},"properties":{"OBJECTID":2166,"stname":"GUJARAT","dtname":"Tapi","STCODE11":"24","DTCODE11":"493","SDTCODE11":"03946","NAME11":"Valod","LOC_NAME":"Valod"}},{"type":"Feature","id":2167,"geometry":{"type":"Point","coordinates":[73.138235793942016,21.016945978844578]},"properties":{"OBJECTID":2167,"stname":"GUJARAT","dtname":"Surat","STCODE11":"24","DTCODE11":"492","SDTCODE11":"03941","NAME11":"Mahuva","LOC_NAME":"Mahuva"}},{"type":"Feature","id":2168,"geometry":{"type":"Point","coordinates":[73.305497462741585,21.256350354189287]},"properties":{"OBJECTID":2168,"stname":"GUJARAT","dtname":"Surat","STCODE11":"24","DTCODE11":"492","SDTCODE11":"03935","NAME11":"Mandvi","LOC_NAME":"Mandvi"}},{"type":"Feature","id":2169,"geometry":{"type":"Point","coordinates":[73.562432330087617,21.168518490363557]},"properties":{"OBJECTID":2169,"stname":"GUJARAT","dtname":"Tapi","STCODE11":"24","DTCODE11":"493","SDTCODE11":"03944","NAME11":"Songadh","LOC_NAME":"Songadh"}},{"type":"Feature","id":2170,"geometry":{"type":"Point","coordinates":[73.76886103126337,21.177088883028048]},"properties":{"OBJECTID":2170,"stname":"GUJARAT","dtname":"Tapi","STCODE11":"24","DTCODE11":"493","SDTCODE11":"03943","NAME11":"Uchchhal","LOC_NAME":"Uchchhal"}},{"type":"Feature","id":2171,"geometry":{"type":"Point","coordinates":[73.79093577021959,21.545724848966323]},"properties":{"OBJECTID":2171,"stname":"GUJARAT","dtname":"Narmada","STCODE11":"24","DTCODE11":"487","SDTCODE11":"03912","NAME11":"Sagbara","LOC_NAME":"Sagbara"}},{"type":"Feature","id":2172,"geometry":{"type":"Point","coordinates":[73.150232751442289,21.716693996511559]},"properties":{"OBJECTID":2172,"stname":"GUJARAT","dtname":"Bharuch","STCODE11":"24","DTCODE11":"488","SDTCODE11":"03917","NAME11":"Jhagadia","LOC_NAME":"Jhagadia"}},{"type":"Feature","id":2173,"geometry":{"type":"Point","coordinates":[73.340384921104231,21.912615488778961]},"properties":{"OBJECTID":2173,"stname":"GUJARAT","dtname":"Vadodara","STCODE11":"24","DTCODE11":"486","SDTCODE11":"03908","NAME11":"Sinor","LOC_NAME":"Sinor"}},{"type":"Feature","id":2174,"geometry":{"type":"Point","coordinates":[73.063013382841064,20.758818150414449]},"properties":{"OBJECTID":2174,"stname":"GUJARAT","dtname":"Navsari","STCODE11":"24","DTCODE11":"490","SDTCODE11":"03925","NAME11":"Chikhli","LOC_NAME":"Chikhli"}},{"type":"Feature","id":2175,"geometry":{"type":"Point","coordinates":[72.989183113393793,21.632925497993345]},"properties":{"OBJECTID":2175,"stname":"GUJARAT","dtname":"Bharuch","STCODE11":"24","DTCODE11":"488","SDTCODE11":"03918","NAME11":"Anklesvar","LOC_NAME":"Anklesvar"}},{"type":"Feature","id":2176,"geometry":{"type":"Point","coordinates":[73.981460000512612,22.835026341556553]},"properties":{"OBJECTID":2176,"stname":"GUJARAT","dtname":"Dohad","STCODE11":"24","DTCODE11":"485","SDTCODE11":"03892","NAME11":"Limkheda","LOC_NAME":"Limkheda"}},{"type":"Feature","id":2177,"geometry":{"type":"Point","coordinates":[73.610977665333877,23.127219527129377]},"properties":{"OBJECTID":2177,"stname":"GUJARAT","dtname":"Mahisagar","STCODE11":"24","DTCODE11":"730","SDTCODE11":"03882","NAME11":"Lunawada","LOC_NAME":"Lunawada"}},{"type":"Feature","id":2178,"geometry":{"type":"Point","coordinates":[73.895579356144992,23.19184115706534]},"properties":{"OBJECTID":2178,"stname":"GUJARAT","dtname":"Mahisagar","STCODE11":"24","DTCODE11":"730","SDTCODE11":"03881","NAME11":"Santrampur","LOC_NAME":"Santrampur"}},{"type":"Feature","id":2179,"geometry":{"type":"Point","coordinates":[74.155158126170647,23.100297949805157]},"properties":{"OBJECTID":2179,"stname":"GUJARAT","dtname":"Dohad","STCODE11":"24","DTCODE11":"485","SDTCODE11":"03891","NAME11":"Jhalod","LOC_NAME":"Jhalod"}},{"type":"Feature","id":2180,"geometry":{"type":"Point","coordinates":[73.730643665466232,22.369583501963373]},"properties":{"OBJECTID":2180,"stname":"GUJARAT","dtname":"Panch Mahals","STCODE11":"24","DTCODE11":"484","SDTCODE11":"03889","NAME11":"Jambughoda","LOC_NAME":"Jambughoda"}},{"type":"Feature","id":2181,"geometry":{"type":"Point","coordinates":[73.462206258979208,22.606641522974847]},"properties":{"OBJECTID":2181,"stname":"GUJARAT","dtname":"Panch Mahals","STCODE11":"24","DTCODE11":"484","SDTCODE11":"03886","NAME11":"Kalol","LOC_NAME":"Kalol"}},{"type":"Feature","id":2182,"geometry":{"type":"Point","coordinates":[73.906181049447682,22.702305531612875]},"properties":{"OBJECTID":2182,"stname":"GUJARAT","dtname":"Dohad","STCODE11":"24","DTCODE11":"485","SDTCODE11":"03895","NAME11":"Devgadbaria","LOC_NAME":"Devgadbaria"}},{"type":"Feature","id":2183,"geometry":{"type":"Point","coordinates":[73.632050983970899,22.952083820362009]},"properties":{"OBJECTID":2183,"stname":"GUJARAT","dtname":"Panch Mahals","STCODE11":"24","DTCODE11":"484","SDTCODE11":"03883","NAME11":"Shehera","LOC_NAME":"Shehera"}},{"type":"Feature","id":2184,"geometry":{"type":"Point","coordinates":[71.598859399216764,24.068065074282465]},"properties":{"OBJECTID":2184,"stname":"GUJARAT","dtname":"Banas Kantha","STCODE11":"24","DTCODE11":"469","SDTCODE11":"03742","NAME11":"Bhabhar","LOC_NAME":"Bhabhar"}},{"type":"Feature","id":2185,"geometry":{"type":"Point","coordinates":[72.33098817306599,24.323578559393681]},"properties":{"OBJECTID":2185,"stname":"GUJARAT","dtname":"Banas Kantha","STCODE11":"24","DTCODE11":"469","SDTCODE11":"03735","NAME11":"Dantiwada","LOC_NAME":"Dantiwada"}},{"type":"Feature","id":2186,"geometry":{"type":"Point","coordinates":[72.794646855226603,24.025859772731884]},"properties":{"OBJECTID":2186,"stname":"GUJARAT","dtname":"Mahesana","STCODE11":"24","DTCODE11":"471","SDTCODE11":"03751","NAME11":"Satlasana","LOC_NAME":"Satlasana"}},{"type":"Feature","id":2187,"geometry":{"type":"Point","coordinates":[71.917752348214563,23.289228398098963]},"properties":{"OBJECTID":2187,"stname":"GUJARAT","dtname":"Ahmadabad","STCODE11":"24","DTCODE11":"474","SDTCODE11":"03777","NAME11":"Mandal","LOC_NAME":"Mandal"}},{"type":"Feature","id":2188,"geometry":{"type":"Point","coordinates":[73.037973482100099,23.942897226397012]},"properties":{"OBJECTID":2188,"stname":"GUJARAT","dtname":"Sabar Kantha","STCODE11":"24","DTCODE11":"472","SDTCODE11":"03762","NAME11":"Vadali","LOC_NAME":"Vadali"}},{"type":"Feature","id":2189,"geometry":{"type":"Point","coordinates":[72.639213376536603,23.785360527674168]},"properties":{"OBJECTID":2189,"stname":"GUJARAT","dtname":"Mahesana","STCODE11":"24","DTCODE11":"471","SDTCODE11":"03755","NAME11":"Vadnagar","LOC_NAME":"Vadnagar"}},{"type":"Feature","id":2190,"geometry":{"type":"Point","coordinates":[72.395266426128529,23.804465140561209]},"properties":{"OBJECTID":2190,"stname":"GUJARAT","dtname":"Mahesana","STCODE11":"24","DTCODE11":"471","SDTCODE11":"03753","NAME11":"Unjha","LOC_NAME":"Unjha"}},{"type":"Feature","id":2191,"geometry":{"type":"Point","coordinates":[72.658844987177517,23.425222447720557]},"properties":{"OBJECTID":2191,"stname":"GUJARAT","dtname":"Gandhinagar","STCODE11":"24","DTCODE11":"473","SDTCODE11":"03774","NAME11":"Mansa","LOC_NAME":"Mansa"}},{"type":"Feature","id":2192,"geometry":{"type":"Point","coordinates":[72.1885914266648,23.333888955886732]},"properties":{"OBJECTID":2192,"stname":"GUJARAT","dtname":"Ahmadabad","STCODE11":"24","DTCODE11":"474","SDTCODE11":"03778","NAME11":"Detroj-Rampura","LOC_NAME":"Detroj-Rampura"}},{"type":"Feature","id":2193,"geometry":{"type":"Point","coordinates":[73.210835109141968,23.350544100683738]},"properties":{"OBJECTID":2193,"stname":"GUJARAT","dtname":"Aravalli","STCODE11":"24","DTCODE11":"725","SDTCODE11":"03770","NAME11":"Dhansura","LOC_NAME":"Dhansura"}},{"type":"Feature","id":2194,"geometry":{"type":"Point","coordinates":[73.004512579849674,23.847069086607348]},"properties":{"OBJECTID":2194,"stname":"GUJARAT","dtname":"Sabar Kantha","STCODE11":"24","DTCODE11":"472","SDTCODE11":"03763","NAME11":"Idar","LOC_NAME":"Idar"}},{"type":"Feature","id":2195,"geometry":{"type":"Point","coordinates":[68.969833664240227,22.242890252255027]},"properties":{"OBJECTID":2195,"stname":"GUJARAT","dtname":"Devbhumi Dwarka","STCODE11":"24","DTCODE11":"728","SDTCODE11":"03812","NAME11":"Okhamandal","LOC_NAME":"Okhamandal"}},{"type":"Feature","id":2196,"geometry":{"type":"Point","coordinates":[71.688325945722042,22.482380894897489]},"properties":{"OBJECTID":2196,"stname":"GUJARAT","dtname":"Surendranagar","STCODE11":"24","DTCODE11":"475","SDTCODE11":"03796","NAME11":"Chuda","LOC_NAME":"Chuda"}},{"type":"Feature","id":2197,"geometry":{"type":"Point","coordinates":[71.711224119095235,22.350756493727218]},"properties":{"OBJECTID":2197,"stname":"GUJARAT","dtname":"Botad","STCODE11":"24","DTCODE11":"726","SDTCODE11":"03785","NAME11":"Ranpur","LOC_NAME":"Ranpur"}},{"type":"Feature","id":2198,"geometry":{"type":"Point","coordinates":[71.890564454356678,22.152993460814727]},"properties":{"OBJECTID":2198,"stname":"GUJARAT","dtname":"Botad","STCODE11":"24","DTCODE11":"726","SDTCODE11":"03786","NAME11":"Barwala","LOC_NAME":"Barwala"}},{"type":"Feature","id":2199,"geometry":{"type":"Point","coordinates":[72.988116730506547,22.897567551085626]},"properties":{"OBJECTID":2199,"stname":"GUJARAT","dtname":"Kheda","STCODE11":"24","DTCODE11":"483","SDTCODE11":"03872","NAME11":"Kathlal","LOC_NAME":"Kathlal"}},{"type":"Feature","id":2200,"geometry":{"type":"Point","coordinates":[72.363034823428649,22.829237803951571]},"properties":{"OBJECTID":2200,"stname":"GUJARAT","dtname":"Ahmadabad","STCODE11":"24","DTCODE11":"474","SDTCODE11":"03784","NAME11":"Bavla","LOC_NAME":"Bavla"}},{"type":"Feature","id":2201,"geometry":{"type":"Point","coordinates":[72.940589264630646,22.82001760745954]},"properties":{"OBJECTID":2201,"stname":"GUJARAT","dtname":"Kheda","STCODE11":"24","DTCODE11":"483","SDTCODE11":"03877","NAME11":"Mahudha","LOC_NAME":"Mahudha"}},{"type":"Feature","id":2202,"geometry":{"type":"Point","coordinates":[73.115177944128746,22.699990730594809]},"properties":{"OBJECTID":2202,"stname":"GUJARAT","dtname":"Anand","STCODE11":"24","DTCODE11":"482","SDTCODE11":"03863","NAME11":"Umreth","LOC_NAME":"Umreth"}},{"type":"Feature","id":2203,"geometry":{"type":"Point","coordinates":[72.719409077544412,22.539020114344837]},"properties":{"OBJECTID":2203,"stname":"GUJARAT","dtname":"Anand","STCODE11":"24","DTCODE11":"482","SDTCODE11":"03862","NAME11":"Sojitra","LOC_NAME":"Sojitra"}},{"type":"Feature","id":2204,"geometry":{"type":"Point","coordinates":[74.197476586005777,21.476227992455122]},"properties":{"OBJECTID":2204,"stname":"GUJARAT","dtname":"Tapi","STCODE11":"24","DTCODE11":"493","SDTCODE11":"03942","NAME11":"Nizar","LOC_NAME":"Nizar"}},{"type":"Feature","id":2205,"geometry":{"type":"Point","coordinates":[73.481096861918672,23.190261206339017]},"properties":{"OBJECTID":2205,"stname":"GUJARAT","dtname":"Mahisagar","STCODE11":"24","DTCODE11":"730","SDTCODE11":"03870","NAME11":"Virpur","LOC_NAME":"Virpur"}},{"type":"Feature","id":2206,"geometry":{"type":"Point","coordinates":[73.475061808261742,21.45790097247648]},"properties":{"OBJECTID":2206,"stname":"GUJARAT","dtname":"Surat","STCODE11":"24","DTCODE11":"492","SDTCODE11":"03934","NAME11":"Umarpada","LOC_NAME":"Umarpada"}},{"type":"Feature","id":2207,"geometry":{"type":"Point","coordinates":[73.077227346529952,20.863517179116169]},"properties":{"OBJECTID":2207,"stname":"GUJARAT","dtname":"Navsari","STCODE11":"24","DTCODE11":"490","SDTCODE11":"03924","NAME11":"Gandevi","LOC_NAME":"Gandevi"}},{"type":"Feature","id":2208,"geometry":{"type":"Point","coordinates":[70.749360661609231,22.656337430210804]},"properties":{"OBJECTID":2208,"stname":"GUJARAT","dtname":"Morbi","STCODE11":"24","DTCODE11":"727","SDTCODE11":"03800","NAME11":"Tankara","LOC_NAME":"Tankara"}},{"type":"Feature","id":2209,"geometry":{"type":"Point","coordinates":[73.681200017630786,23.284645361680614]},"properties":{"OBJECTID":2209,"stname":"GUJARAT","dtname":"Mahisagar","STCODE11":"24","DTCODE11":"730","SDTCODE11":"03879","NAME11":"Khanpur","LOC_NAME":"Khanpur"}},{"type":"Feature","id":2210,"geometry":{"type":"Point","coordinates":[73.839912702840678,23.289135412682114]},"properties":{"OBJECTID":2210,"stname":"GUJARAT","dtname":"Mahisagar","STCODE11":"24","DTCODE11":"730","SDTCODE11":"03880","NAME11":"Kadana","LOC_NAME":"Kadana"}},{"type":"Feature","id":2211,"geometry":{"type":"Point","coordinates":[74.039251680605247,23.257749235521889]},"properties":{"OBJECTID":2211,"stname":"GUJARAT","dtname":"Dohad","STCODE11":"24","DTCODE11":"485","SDTCODE11":"03890","NAME11":"Fatepura","LOC_NAME":"Fatepura"}},{"type":"Feature","id":2212,"geometry":{"type":"Point","coordinates":[73.472682214193256,22.504075613701925]},"properties":{"OBJECTID":2212,"stname":"GUJARAT","dtname":"Panch Mahals","STCODE11":"24","DTCODE11":"484","SDTCODE11":"03888","NAME11":"Halol","LOC_NAME":"Halol"}},{"type":"Feature","id":2213,"geometry":{"type":"Point","coordinates":[73.841752118369286,22.920096860624049]},"properties":{"OBJECTID":2213,"stname":"GUJARAT","dtname":"Panch Mahals","STCODE11":"24","DTCODE11":"484","SDTCODE11":"03884","NAME11":"Morwa (Hadaf)","LOC_NAME":"Morwa (Hadaf)"}},{"type":"Feature","id":2214,"geometry":{"type":"Point","coordinates":[70.483200994610556,20.842885813284749]},"properties":{"OBJECTID":2214,"stname":"GUJARAT","dtname":"Gir Somnath","STCODE11":"24","DTCODE11":"729","SDTCODE11":"03836","NAME11":"Sutrapada","LOC_NAME":"Sutrapada"}},{"type":"Feature","id":2215,"geometry":{"type":"Point","coordinates":[74.051373320673704,22.096097722775159]},"properties":{"OBJECTID":2215,"stname":"GUJARAT","dtname":"Chota Udaipur","STCODE11":"24","DTCODE11":"731","SDTCODE11":"03902","NAME11":"Kavant","LOC_NAME":"Kavant"}},{"type":"Feature","id":2216,"geometry":{"type":"Point","coordinates":[69.672635917848169,23.254984223372052]},"properties":{"OBJECTID":2216,"stname":"GUJARAT","dtname":"Kachchh","STCODE11":"24","DTCODE11":"468","SDTCODE11":"03726","NAME11":"Bhuj","LOC_NAME":"Bhuj"}},{"type":"Feature","id":2217,"geometry":{"type":"Point","coordinates":[70.073385086588488,22.464690203196767]},"properties":{"OBJECTID":2217,"stname":"GUJARAT","dtname":"Jamnagar","STCODE11":"24","DTCODE11":"477","SDTCODE11":"03814","NAME11":"Jamnagar","LOC_NAME":"Jamnagar"}},{"type":"Feature","id":2218,"geometry":{"type":"Point","coordinates":[70.803039799533934,22.297769985412842]},"properties":{"OBJECTID":2218,"stname":"GUJARAT","dtname":"Rajkot","STCODE11":"24","DTCODE11":"476","SDTCODE11":"03803","NAME11":"Rajkot","LOC_NAME":"Rajkot"}},{"type":"Feature","id":2219,"geometry":{"type":"Point","coordinates":[70.464609492931459,21.522293498884142]},"properties":{"OBJECTID":2219,"stname":"GUJARAT","dtname":"Junagadh","STCODE11":"24","DTCODE11":"479","SDTCODE11":"03827","NAME11":"Junagadh","LOC_NAME":"Junagadh"}},{"type":"Feature","id":2220,"geometry":{"type":"Point","coordinates":[71.213554001264001,21.600060767741372]},"properties":{"OBJECTID":2220,"stname":"GUJARAT","dtname":"Amreli","STCODE11":"24","DTCODE11":"480","SDTCODE11":"03843","NAME11":"Amreli","LOC_NAME":"Amreli"}},{"type":"Feature","id":2221,"geometry":{"type":"Point","coordinates":[72.662915730735293,23.241971733913818]},"properties":{"OBJECTID":2221,"stname":"GUJARAT","dtname":"Gandhinagar","STCODE11":"24","DTCODE11":"473","SDTCODE11":"03775","NAME11":"Gandhinagar","LOC_NAME":"Gandhinagar"}},{"type":"Feature","id":2222,"geometry":{"type":"Point","coordinates":[72.394601398832094,23.60365692595132]},"properties":{"OBJECTID":2222,"stname":"GUJARAT","dtname":"Mahesana","STCODE11":"24","DTCODE11":"471","SDTCODE11":"03757","NAME11":"Mahesana","LOC_NAME":"Mahesana"}},{"type":"Feature","id":2223,"geometry":{"type":"Point","coordinates":[72.602273318953706,23.030303366911937]},"properties":{"OBJECTID":2223,"stname":"GUJARAT","dtname":"Ahmadabad","STCODE11":"24","DTCODE11":"474","SDTCODE11":"03781","NAME11":"Ahmadabad City","LOC_NAME":"Ahmadabad City"}},{"type":"Feature","id":2224,"geometry":{"type":"Point","coordinates":[72.68342097993947,22.748505158850946]},"properties":{"OBJECTID":2224,"stname":"GUJARAT","dtname":"Kheda","STCODE11":"24","DTCODE11":"483","SDTCODE11":"03874","NAME11":"Kheda","LOC_NAME":"Kheda"}},{"type":"Feature","id":2225,"geometry":{"type":"Point","coordinates":[72.146802453621106,21.770909958336315]},"properties":{"OBJECTID":2225,"stname":"GUJARAT","dtname":"Bhavnagar","STCODE11":"24","DTCODE11":"481","SDTCODE11":"03854","NAME11":"Bhavnagar","LOC_NAME":"Bhavnagar"}},{"type":"Feature","id":2226,"geometry":{"type":"Point","coordinates":[72.988612374167914,21.699204977554263]},"properties":{"OBJECTID":2226,"stname":"GUJARAT","dtname":"Bharuch","STCODE11":"24","DTCODE11":"488","SDTCODE11":"03916","NAME11":"Bharuch","LOC_NAME":"Bharuch"}},{"type":"Feature","id":2227,"geometry":{"type":"Point","coordinates":[72.831571636958088,21.201295891584802]},"properties":{"OBJECTID":2227,"stname":"GUJARAT","dtname":"Surat","STCODE11":"24","DTCODE11":"492","SDTCODE11":"03937","NAME11":"Surat City","LOC_NAME":"Surat City"}},{"type":"Feature","id":2228,"geometry":{"type":"Point","coordinates":[72.927544171721451,20.608172022754161]},"properties":{"OBJECTID":2228,"stname":"GUJARAT","dtname":"Valsad","STCODE11":"24","DTCODE11":"491","SDTCODE11":"03927","NAME11":"Valsad","LOC_NAME":"Valsad"}},{"type":"Feature","id":2229,"geometry":{"type":"Point","coordinates":[73.206901465564584,22.3013070479739]},"properties":{"OBJECTID":2229,"stname":"GUJARAT","dtname":"Vadodara","STCODE11":"24","DTCODE11":"486","SDTCODE11":"03898","NAME11":"Vadodara","LOC_NAME":"Vadodara"}},{"type":"Feature","id":2230,"geometry":{"type":"Point","coordinates":[73.68833322489165,20.759525248373102]},"properties":{"OBJECTID":2230,"stname":"GUJARAT","dtname":"The Dangs","STCODE11":"24","DTCODE11":"489","SDTCODE11":"03921","NAME11":"The Dangs","LOC_NAME":"The Dangs"}},{"type":"Feature","id":2231,"geometry":{"type":"Point","coordinates":[74.311392876941269,22.685115946168985]},"properties":{"OBJECTID":2231,"stname":"GUJARAT","dtname":"Dohad","STCODE11":"24","DTCODE11":"485","SDTCODE11":"03894","NAME11":"Garbada","LOC_NAME":"Garbada"}},{"type":"Feature","id":2232,"geometry":{"type":"Point","coordinates":[74.098151334684459,22.63739533087352]},"properties":{"OBJECTID":2232,"stname":"GUJARAT","dtname":"Dohad","STCODE11":"24","DTCODE11":"485","SDTCODE11":"03896","NAME11":"Dhanpur","LOC_NAME":"Dhanpur"}},{"type":"Feature","id":2233,"geometry":{"type":"Point","coordinates":[72.436564954061382,24.173339808626189]},"properties":{"OBJECTID":2233,"stname":"GUJARAT","dtname":"Banas Kantha","STCODE11":"24","DTCODE11":"469","SDTCODE11":"03739","NAME11":"Palanpur","LOC_NAME":"Palanpur"}},{"type":"Feature","id":2234,"geometry":{"type":"Point","coordinates":[72.119420545221402,23.847942687065011]},"properties":{"OBJECTID":2234,"stname":"GUJARAT","dtname":"Patan","STCODE11":"24","DTCODE11":"470","SDTCODE11":"03747","NAME11":"Patan","LOC_NAME":"Patan"}},{"type":"Feature","id":2235,"geometry":{"type":"Point","coordinates":[72.96267124670301,23.596778305468042]},"properties":{"OBJECTID":2235,"stname":"GUJARAT","dtname":"Sabar Kantha","STCODE11":"24","DTCODE11":"472","SDTCODE11":"03766","NAME11":"Himatnagar","LOC_NAME":"Himatnagar"}},{"type":"Feature","id":2236,"geometry":{"type":"Point","coordinates":[69.608516174314147,21.641406243802773]},"properties":{"OBJECTID":2236,"stname":"GUJARAT","dtname":"Porbandar","STCODE11":"24","DTCODE11":"478","SDTCODE11":"03822","NAME11":"Porbandar","LOC_NAME":"Porbandar"}},{"type":"Feature","id":2237,"geometry":{"type":"Point","coordinates":[72.960056734204528,22.557020589389168]},"properties":{"OBJECTID":2237,"stname":"GUJARAT","dtname":"Anand","STCODE11":"24","DTCODE11":"482","SDTCODE11":"03864","NAME11":"Anand","LOC_NAME":"Anand"}},{"type":"Feature","id":2238,"geometry":{"type":"Point","coordinates":[72.900402717170536,20.948549009648666]},"properties":{"OBJECTID":2238,"stname":"GUJARAT","dtname":"Navsari","STCODE11":"24","DTCODE11":"490","SDTCODE11":"03923","NAME11":"Jalalpore","LOC_NAME":"Jalalpore"}},{"type":"Feature","id":2239,"geometry":{"type":"Point","coordinates":[73.503296571802267,21.873768868700409]},"properties":{"OBJECTID":2239,"stname":"GUJARAT","dtname":"Narmada","STCODE11":"24","DTCODE11":"487","SDTCODE11":"03910","NAME11":"Nandod","LOC_NAME":"Nandod"}},{"type":"Feature","id":2240,"geometry":{"type":"Point","coordinates":[73.605934734432907,22.775698446845446]},"properties":{"OBJECTID":2240,"stname":"GUJARAT","dtname":"Panch Mahals","STCODE11":"24","DTCODE11":"484","SDTCODE11":"03885","NAME11":"Godhra","LOC_NAME":"Godhra"}},{"type":"Feature","id":2241,"geometry":{"type":"Point","coordinates":[74.258614020712869,22.83172905910801]},"properties":{"OBJECTID":2241,"stname":"GUJARAT","dtname":"Dohad","STCODE11":"24","DTCODE11":"485","SDTCODE11":"03893","NAME11":"Dohad","LOC_NAME":"Dohad"}},{"type":"Feature","id":2242,"geometry":{"type":"Point","coordinates":[70.140078827703292,23.072111216855706]},"properties":{"OBJECTID":2242,"stname":"GUJARAT","dtname":"Kachchh","STCODE11":"24","DTCODE11":"468","SDTCODE11":"03731","NAME11":"Gandhidham","LOC_NAME":"Gandhidham"}},{"type":"Feature","id":2243,"geometry":{"type":"Point","coordinates":[72.641647889110004,24.40447155030558]},"properties":{"OBJECTID":2243,"stname":"GUJARAT","dtname":"Banas Kantha","STCODE11":"24","DTCODE11":"469","SDTCODE11":"03736","NAME11":"Amirgadh","LOC_NAME":"Amirgadh"}},{"type":"Feature","id":2244,"geometry":{"type":"Point","coordinates":[71.167830804331217,23.764702894987963]},"properties":{"OBJECTID":2244,"stname":"GUJARAT","dtname":"Patan","STCODE11":"24","DTCODE11":"470","SDTCODE11":"03744","NAME11":"Santalpur","LOC_NAME":"Santalpur"}},{"type":"Feature","id":2245,"geometry":{"type":"Point","coordinates":[72.045801007065094,23.499526115975335]},"properties":{"OBJECTID":2245,"stname":"GUJARAT","dtname":"Mahesana","STCODE11":"24","DTCODE11":"471","SDTCODE11":"03758","NAME11":"Becharaji","LOC_NAME":"Becharaji"}},{"type":"Feature","id":2246,"geometry":{"type":"Point","coordinates":[72.951055363529406,23.352853442651377]},"properties":{"OBJECTID":2246,"stname":"GUJARAT","dtname":"Sabar Kantha","STCODE11":"24","DTCODE11":"472","SDTCODE11":"03768","NAME11":"Talod","LOC_NAME":"Talod"}},{"type":"Feature","id":2247,"geometry":{"type":"Point","coordinates":[71.788534000219116,22.857552130971595]},"properties":{"OBJECTID":2247,"stname":"GUJARAT","dtname":"Surendranagar","STCODE11":"24","DTCODE11":"475","SDTCODE11":"03791","NAME11":"Lakhtar","LOC_NAME":"Lakhtar"}},{"type":"Feature","id":2248,"geometry":{"type":"Point","coordinates":[70.954427941717356,21.48473857849541]},"properties":{"OBJECTID":2248,"stname":"GUJARAT","dtname":"Amreli","STCODE11":"24","DTCODE11":"480","SDTCODE11":"03844","NAME11":"Bagasara","LOC_NAME":"Bagasara"}},{"type":"Feature","id":2249,"geometry":{"type":"Point","coordinates":[72.660045898168491,22.486299103386688]},"properties":{"OBJECTID":2249,"stname":"GUJARAT","dtname":"Anand","STCODE11":"24","DTCODE11":"482","SDTCODE11":"03861","NAME11":"Tarapur","LOC_NAME":"Tarapur"}},{"type":"Feature","id":2250,"geometry":{"type":"Point","coordinates":[73.001577502643784,22.378346786408741]},"properties":{"OBJECTID":2250,"stname":"GUJARAT","dtname":"Anand","STCODE11":"24","DTCODE11":"482","SDTCODE11":"03868","NAME11":"Anklav","LOC_NAME":"Anklav"}},{"type":"Feature","id":2251,"geometry":{"type":"Point","coordinates":[73.646136817357558,22.571483249059753]},"properties":{"OBJECTID":2251,"stname":"GUJARAT","dtname":"Panch Mahals","STCODE11":"24","DTCODE11":"484","SDTCODE11":"03887","NAME11":"Ghoghamba","LOC_NAME":"Ghoghamba"}},{"type":"Feature","id":2252,"geometry":{"type":"Point","coordinates":[73.841196341482799,22.343582364964426]},"properties":{"OBJECTID":2252,"stname":"GUJARAT","dtname":"Chota Udaipur","STCODE11":"24","DTCODE11":"731","SDTCODE11":"03900","NAME11":"Jetpur Pavi","LOC_NAME":"Jetpur Pavi"}},{"type":"Feature","id":2253,"geometry":{"type":"Point","coordinates":[73.726104142365642,22.044825222173166]},"properties":{"OBJECTID":2253,"stname":"GUJARAT","dtname":"Chota Udaipur","STCODE11":"24","DTCODE11":"731","SDTCODE11":"03903","NAME11":"Nasvadi","LOC_NAME":"Nasvadi"}},{"type":"Feature","id":2254,"geometry":{"type":"Point","coordinates":[73.591500860467534,21.952459353129822]},"properties":{"OBJECTID":2254,"stname":"GUJARAT","dtname":"Narmada","STCODE11":"24","DTCODE11":"487","SDTCODE11":"03909","NAME11":"Tilakwada","LOC_NAME":"Tilakwada"}},{"type":"Feature","id":2255,"geometry":{"type":"Point","coordinates":[72.971470098485568,21.28580648130173]},"properties":{"OBJECTID":2255,"stname":"GUJARAT","dtname":"Surat","STCODE11":"24","DTCODE11":"492","SDTCODE11":"03936","NAME11":"Kamrej","LOC_NAME":"Kamrej"}},{"type":"Feature","id":2256,"geometry":{"type":"Point","coordinates":[73.218659559234155,20.344092308033176]},"properties":{"OBJECTID":2256,"stname":"GUJARAT","dtname":"Valsad","STCODE11":"24","DTCODE11":"491","SDTCODE11":"03930","NAME11":"Kaprada","LOC_NAME":"Kaprada"}},{"type":"Feature","id":2257,"geometry":{"type":"Point","coordinates":[72.747685535490518,20.191588491893555]},"properties":{"OBJECTID":2257,"stname":"GUJARAT","dtname":"Valsad","STCODE11":"24","DTCODE11":"491","SDTCODE11":"03931","NAME11":"Umbergaon","LOC_NAME":"Umbergaon"}},{"type":"Feature","id":2258,"geometry":{"type":"Point","coordinates":[72.612858644053588,22.95267849581872]},"properties":{"OBJECTID":2258,"stname":"GUJARAT","dtname":"Ahmadabad","STCODE11":"24","DTCODE11":"474","SDTCODE11":"03782","NAME11":"Daskroi","LOC_NAME":"Daskroi"}},{"type":"Feature","id":2259,"geometry":{"type":"Point","coordinates":[69.262637068816801,23.350266228773869]},"properties":{"OBJECTID":2259,"stname":"GUJARAT","dtname":"Kachchh","STCODE11":"24","DTCODE11":"468","SDTCODE11":"03727","NAME11":"Nakhatrana","LOC_NAME":"Nakhatrana"}},{"type":"Feature","id":2260,"geometry":{"type":"Point","coordinates":[73.22524108772285,23.218485764001912]},"properties":{"OBJECTID":2260,"stname":"GUJARAT","dtname":"Aravalli","STCODE11":"24","DTCODE11":"725","SDTCODE11":"03772","NAME11":"Bayad","LOC_NAME":"Bayad"}},{"type":"Feature","id":2261,"geometry":{"type":"Point","coordinates":[71.942174932980492,24.036863517063416]},"properties":{"OBJECTID":2261,"stname":"GUJARAT","dtname":"Banas Kantha","STCODE11":"24","DTCODE11":"469","SDTCODE11":"03743","NAME11":"Kankrej","LOC_NAME":"Kankrej"}},{"type":"Feature","id":5882,"geometry":{"type":"Point","coordinates":[72.8026950837409,21.127757433259809]},"properties":{"OBJECTID":5882,"stname":"GUJARAT","dtname":"Surat","STCODE11":"24","DTCODE11":"492","SDTCODE11":"03938","NAME11":"Chorasi","LOC_NAME":"Chorasi"}},{"type":"Feature","id":5883,"geometry":{"type":"Point","coordinates":[68.819878914348322,23.262283771703018]},"properties":{"OBJECTID":5883,"stname":"GUJARAT","dtname":"Kachchh","STCODE11":"24","DTCODE11":"468","SDTCODE11":"03728","NAME11":"Abdasa","LOC_NAME":"Abdasa"}},{"type":"Feature","id":5884,"geometry":{"type":"Point","coordinates":[72.931299498816685,20.94973340884712]},"properties":{"OBJECTID":5884,"stname":"GUJARAT","dtname":"Navsari","STCODE11":"24","DTCODE11":"490","SDTCODE11":"03922","NAME11":"Navsari","LOC_NAME":"Navsari"}}]}