{"type":"FeatureCollection","crs":{"type":"name","properties":{"name":"EPSG:4326"}},"features":[{"type":"Feature","id":2879,"geometry":{"type":"Point","coordinates":[76.375894392015482,10.775992284455054]},"properties":{"OBJECTID":2879,"stname":"KERALA","dtname":"Palakkad","STCODE11":"32","DTCODE11":"593","SDTCODE11":"05647","NAME11":"Ottappalam","LOC_NAME":"Ottappalam"}},{"type":"Feature","id":2880,"geometry":{"type":"Point","coordinates":[75.69133630827865,11.437927937494646]},"properties":{"OBJECTID":2880,"stname":"KERALA","dtname":"Kozhikode","STCODE11":"32","DTCODE11":"591","SDTCODE11":"05639","NAME11":"Quilandy","LOC_NAME":"Quilandy"}},{"type":"Feature","id":2881,"geometry":{"type":"Point","coordinates":[76.741322208026062,10.705943015734162]},"properties":{"OBJECTID":2881,"stname":"KERALA","dtname":"Palakkad","STCODE11":"32","DTCODE11":"593","SDTCODE11":"05650","NAME11":"Chittur","LOC_NAME":"Chittur"}},{"type":"Feature","id":2882,"geometry":{"type":"Point","coordinates":[76.590471216161717,9.9840862373520629]},"properties":{"OBJECTID":2882,"stname":"KERALA","dtname":"Ernakulam","STCODE11":"32","DTCODE11":"595","SDTCODE11":"05662","NAME11":"Muvattupuzha","LOC_NAME":"Muvattupuzha"}},{"type":"Feature","id":2883,"geometry":{"type":"Point","coordinates":[76.391355653899907,9.7496789094103171]},"properties":{"OBJECTID":2883,"stname":"KERALA","dtname":"Kottayam","STCODE11":"32","DTCODE11":"597","SDTCODE11":"05669","NAME11":"Vaikom","LOC_NAME":"Vaikom"}},{"type":"Feature","id":2884,"geometry":{"type":"Point","coordinates":[76.357346084030155,9.3818334144607753]},"properties":{"OBJECTID":2884,"stname":"KERALA","dtname":"Alappuzha","STCODE11":"32","DTCODE11":"598","SDTCODE11":"05674","NAME11":"Ambalappuzha","LOC_NAME":"Ambalappuzha"}},{"type":"Feature","id":2885,"geometry":{"type":"Point","coordinates":[76.777231506312617,9.0064558172129949]},"properties":{"OBJECTID":2885,"stname":"KERALA","dtname":"Kollam","STCODE11":"32","DTCODE11":"600","SDTCODE11":"05687","NAME11":"Kottarakkara","LOC_NAME":"Kottarakkara"}},{"type":"Feature","id":2886,"geometry":{"type":"Point","coordinates":[76.536844740173919,9.0579622418013681]},"properties":{"OBJECTID":2886,"stname":"KERALA","dtname":"Kollam","STCODE11":"32","DTCODE11":"600","SDTCODE11":"05684","NAME11":"Karunagappally","LOC_NAME":"Karunagappally"}},{"type":"Feature","id":2887,"geometry":{"type":"Point","coordinates":[76.792049782862804,9.5602782297215487]},"properties":{"OBJECTID":2887,"stname":"KERALA","dtname":"Kottayam","STCODE11":"32","DTCODE11":"597","SDTCODE11":"05672","NAME11":"Kanjirappally","LOC_NAME":"Kanjirappally"}},{"type":"Feature","id":2888,"geometry":{"type":"Point","coordinates":[76.225826579263583,10.150900780369447]},"properties":{"OBJECTID":2888,"stname":"KERALA","dtname":"Ernakulam","STCODE11":"32","DTCODE11":"595","SDTCODE11":"05659","NAME11":"Paravur","LOC_NAME":"Paravur"}},{"type":"Feature","id":2889,"geometry":{"type":"Point","coordinates":[76.533753078529159,9.4453443794252596]},"properties":{"OBJECTID":2889,"stname":"KERALA","dtname":"Kottayam","STCODE11":"32","DTCODE11":"597","SDTCODE11":"05671","NAME11":"Changanassery","LOC_NAME":"Changanassery"}},{"type":"Feature","id":2890,"geometry":{"type":"Point","coordinates":[76.351181860720217,10.109572791732724]},"properties":{"OBJECTID":2890,"stname":"KERALA","dtname":"Ernakulam","STCODE11":"32","DTCODE11":"595","SDTCODE11":"05658","NAME11":"Aluva","LOC_NAME":"Aluva"}},{"type":"Feature","id":2891,"geometry":{"type":"Point","coordinates":[77.109466061433608,10.066494549243437]},"properties":{"OBJECTID":2891,"stname":"KERALA","dtname":"Idukki","STCODE11":"32","DTCODE11":"596","SDTCODE11":"05664","NAME11":"Devikulam","LOC_NAME":"Devikulam"}},{"type":"Feature","id":2892,"geometry":{"type":"Point","coordinates":[75.493221649804767,11.746004704619201]},"properties":{"OBJECTID":2892,"stname":"KERALA","dtname":"Kannur","STCODE11":"32","DTCODE11":"589","SDTCODE11":"05634","NAME11":"Thalassery","LOC_NAME":"Thalassery"}},{"type":"Feature","id":2893,"geometry":{"type":"Point","coordinates":[76.024076087593542,10.580932543106949]},"properties":{"OBJECTID":2893,"stname":"KERALA","dtname":"Thrissur","STCODE11":"32","DTCODE11":"594","SDTCODE11":"05653","NAME11":"Chavakkad","LOC_NAME":"Chavakkad"}},{"type":"Feature","id":2894,"geometry":{"type":"Point","coordinates":[75.923306321040883,10.779977482008979]},"properties":{"OBJECTID":2894,"stname":"KERALA","dtname":"Malappuram","STCODE11":"32","DTCODE11":"592","SDTCODE11":"05646","NAME11":"Ponnani","LOC_NAME":"Ponnani"}},{"type":"Feature","id":2895,"geometry":{"type":"Point","coordinates":[76.227203423506296,10.976915742263749]},"properties":{"OBJECTID":2895,"stname":"KERALA","dtname":"Malappuram","STCODE11":"32","DTCODE11":"592","SDTCODE11":"05643","NAME11":"Perinthalmanna","LOC_NAME":"Perinthalmanna"}},{"type":"Feature","id":2896,"geometry":{"type":"Point","coordinates":[76.574613746032995,9.3820094228267887]},"properties":{"OBJECTID":2896,"stname":"KERALA","dtname":"Pathanamthitta","STCODE11":"32","DTCODE11":"599","SDTCODE11":"05679","NAME11":"Thiruvalla","LOC_NAME":"Thiruvalla"}},{"type":"Feature","id":2897,"geometry":{"type":"Point","coordinates":[77.003073237359402,8.6043956051170536]},"properties":{"OBJECTID":2897,"stname":"KERALA","dtname":"Thiruvananthapuram","STCODE11":"32","DTCODE11":"601","SDTCODE11":"05690","NAME11":"Nedumangad","LOC_NAME":"Nedumangad"}},{"type":"Feature","id":2898,"geometry":{"type":"Point","coordinates":[77.088281766723,8.3989989019236369]},"properties":{"OBJECTID":2898,"stname":"KERALA","dtname":"Thiruvananthapuram","STCODE11":"32","DTCODE11":"601","SDTCODE11":"05692","NAME11":"Neyyattinkara","LOC_NAME":"Neyyattinkara"}},{"type":"Feature","id":2899,"geometry":{"type":"Point","coordinates":[76.194513541670972,10.225952031273946]},"properties":{"OBJECTID":2899,"stname":"KERALA","dtname":"Thrissur","STCODE11":"32","DTCODE11":"594","SDTCODE11":"05655","NAME11":"Kodungallur","LOC_NAME":"Kodungallur"}},{"type":"Feature","id":2900,"geometry":{"type":"Point","coordinates":[76.733784325001096,9.1554401206357792]},"properties":{"OBJECTID":2900,"stname":"KERALA","dtname":"Pathanamthitta","STCODE11":"32","DTCODE11":"599","SDTCODE11":"05683","NAME11":"Adoor","LOC_NAME":"Adoor"}},{"type":"Feature","id":2901,"geometry":{"type":"Point","coordinates":[75.360224201698443,12.042872506333207]},"properties":{"OBJECTID":2901,"stname":"KERALA","dtname":"Kannur","STCODE11":"32","DTCODE11":"589","SDTCODE11":"05632","NAME11":"Taliparamba","LOC_NAME":"Taliparamba"}},{"type":"Feature","id":2902,"geometry":{"type":"Point","coordinates":[76.461792124136409,10.993039741906983]},"properties":{"OBJECTID":2902,"stname":"KERALA","dtname":"Palakkad","STCODE11":"32","DTCODE11":"593","SDTCODE11":"05648","NAME11":"Mannarkad","LOC_NAME":"Mannarkad"}},{"type":"Feature","id":2903,"geometry":{"type":"Point","coordinates":[76.632358065147216,10.063285713675731]},"properties":{"OBJECTID":2903,"stname":"KERALA","dtname":"Ernakulam","STCODE11":"32","DTCODE11":"595","SDTCODE11":"05663","NAME11":"Kothamangalam","LOC_NAME":"Kothamangalam"}},{"type":"Feature","id":2904,"geometry":{"type":"Point","coordinates":[76.537796203383522,9.2506052953352995]},"properties":{"OBJECTID":2904,"stname":"KERALA","dtname":"Alappuzha","STCODE11":"32","DTCODE11":"598","SDTCODE11":"05678","NAME11":"Mavelikkara","LOC_NAME":"Mavelikkara"}},{"type":"Feature","id":2905,"geometry":{"type":"Point","coordinates":[76.261339565999577,11.66338315826807]},"properties":{"OBJECTID":2905,"stname":"KERALA","dtname":"Wayanad","STCODE11":"32","DTCODE11":"590","SDTCODE11":"05636","NAME11":"Sulthanbathery","LOC_NAME":"Sulthanbathery"}},{"type":"Feature","id":2906,"geometry":{"type":"Point","coordinates":[76.615780159635364,9.3185843020468635]},"properties":{"OBJECTID":2906,"stname":"KERALA","dtname":"Alappuzha","STCODE11":"32","DTCODE11":"598","SDTCODE11":"05677","NAME11":"Chengannur","LOC_NAME":"Chengannur"}},{"type":"Feature","id":2907,"geometry":{"type":"Point","coordinates":[75.927351022438572,11.043522445458064]},"properties":{"OBJECTID":2907,"stname":"KERALA","dtname":"Malappuram","STCODE11":"32","DTCODE11":"592","SDTCODE11":"05645","NAME11":"Tirurangadi","LOC_NAME":"Tirurangadi"}},{"type":"Feature","id":2908,"geometry":{"type":"Point","coordinates":[76.227844138797849,11.27784055191993]},"properties":{"OBJECTID":2908,"stname":"KERALA","dtname":"Malappuram","STCODE11":"32","DTCODE11":"592","SDTCODE11":"05642","NAME11":"Nilambur","LOC_NAME":"Nilambur"}},{"type":"Feature","id":2909,"geometry":{"type":"Point","coordinates":[76.779215765299298,9.3763771267669878]},"properties":{"OBJECTID":2909,"stname":"KERALA","dtname":"Pathanamthitta","STCODE11":"32","DTCODE11":"599","SDTCODE11":"05681","NAME11":"Ranni","LOC_NAME":"Ranni"}},{"type":"Feature","id":2910,"geometry":{"type":"Point","coordinates":[74.989433844090215,12.499581144060993]},"properties":{"OBJECTID":2910,"stname":"KERALA","dtname":"Kasaragod","STCODE11":"32","DTCODE11":"588","SDTCODE11":"05630","NAME11":"Kasaragod","LOC_NAME":"Kasaragod"}},{"type":"Feature","id":2911,"geometry":{"type":"Point","coordinates":[75.775810114554531,11.252098293436271]},"properties":{"OBJECTID":2911,"stname":"KERALA","dtname":"Kozhikode","STCODE11":"32","DTCODE11":"591","SDTCODE11":"05640","NAME11":"Kozhikode","LOC_NAME":"Kozhikode"}},{"type":"Feature","id":2912,"geometry":{"type":"Point","coordinates":[76.522948318361571,9.5894038501727064]},"properties":{"OBJECTID":2912,"stname":"KERALA","dtname":"Kottayam","STCODE11":"32","DTCODE11":"597","SDTCODE11":"05670","NAME11":"Kottayam","LOC_NAME":"Kottayam"}},{"type":"Feature","id":2913,"geometry":{"type":"Point","coordinates":[76.657439111423159,10.778008772506711]},"properties":{"OBJECTID":2913,"stname":"KERALA","dtname":"Palakkad","STCODE11":"32","DTCODE11":"593","SDTCODE11":"05649","NAME11":"Palakkad","LOC_NAME":"Palakkad"}},{"type":"Feature","id":2914,"geometry":{"type":"Point","coordinates":[76.951547936092496,8.4777993248545336]},"properties":{"OBJECTID":2914,"stname":"KERALA","dtname":"Thiruvananthapuram","STCODE11":"32","DTCODE11":"601","SDTCODE11":"05691","NAME11":"Thiruvananthapuram","LOC_NAME":"Thiruvananthapuram"}},{"type":"Feature","id":2915,"geometry":{"type":"Point","coordinates":[75.591095900956617,11.596422770591177]},"properties":{"OBJECTID":2915,"stname":"KERALA","dtname":"Kozhikode","STCODE11":"32","DTCODE11":"591","SDTCODE11":"05638","NAME11":"Vadakara","LOC_NAME":"Vadakara"}},{"type":"Feature","id":2916,"geometry":{"type":"Point","coordinates":[75.922418339077467,10.915375513748321]},"properties":{"OBJECTID":2916,"stname":"KERALA","dtname":"Malappuram","STCODE11":"32","DTCODE11":"592","SDTCODE11":"05644","NAME11":"Tirur","LOC_NAME":"Tirur"}},{"type":"Feature","id":2917,"geometry":{"type":"Point","coordinates":[76.539157969404187,10.648198088384827]},"properties":{"OBJECTID":2917,"stname":"KERALA","dtname":"Palakkad","STCODE11":"32","DTCODE11":"593","SDTCODE11":"05651","NAME11":"Alathur","LOC_NAME":"Alathur"}},{"type":"Feature","id":2918,"geometry":{"type":"Point","coordinates":[76.271995919990673,10.243826692084451]},"properties":{"OBJECTID":2918,"stname":"KERALA","dtname":"Thrissur","STCODE11":"32","DTCODE11":"594","SDTCODE11":"05656","NAME11":"Mukundapuram","LOC_NAME":"Mukundapuram"}},{"type":"Feature","id":2919,"geometry":{"type":"Point","coordinates":[76.475187424360783,10.116470992632623]},"properties":{"OBJECTID":2919,"stname":"KERALA","dtname":"Ernakulam","STCODE11":"32","DTCODE11":"595","SDTCODE11":"05657","NAME11":"Kunnathunad","LOC_NAME":"Kunnathunad"}},{"type":"Feature","id":2920,"geometry":{"type":"Point","coordinates":[76.256352422274418,9.9595790068730832]},"properties":{"OBJECTID":2920,"stname":"KERALA","dtname":"Ernakulam","STCODE11":"32","DTCODE11":"595","SDTCODE11":"05660","NAME11":"Kochi","LOC_NAME":"Kochi"}},{"type":"Feature","id":2921,"geometry":{"type":"Point","coordinates":[77.178212729653751,9.9006386439958103]},"properties":{"OBJECTID":2921,"stname":"KERALA","dtname":"Idukki","STCODE11":"32","DTCODE11":"596","SDTCODE11":"05665","NAME11":"Udumbanchola","LOC_NAME":"Udumbanchola"}},{"type":"Feature","id":2922,"geometry":{"type":"Point","coordinates":[76.714885410848623,9.8983577320833085]},"properties":{"OBJECTID":2922,"stname":"KERALA","dtname":"Idukki","STCODE11":"32","DTCODE11":"596","SDTCODE11":"05666","NAME11":"Thodupuzha","LOC_NAME":"Thodupuzha"}},{"type":"Feature","id":2923,"geometry":{"type":"Point","coordinates":[76.683934242500229,9.713548418950019]},"properties":{"OBJECTID":2923,"stname":"KERALA","dtname":"Kottayam","STCODE11":"32","DTCODE11":"597","SDTCODE11":"05668","NAME11":"Meenachil","LOC_NAME":"Meenachil"}},{"type":"Feature","id":2924,"geometry":{"type":"Point","coordinates":[76.338529355844699,9.6870879911531542]},"properties":{"OBJECTID":2924,"stname":"KERALA","dtname":"Alappuzha","STCODE11":"32","DTCODE11":"598","SDTCODE11":"05673","NAME11":"Cherthala","LOC_NAME":"Cherthala"}},{"type":"Feature","id":2925,"geometry":{"type":"Point","coordinates":[76.486926109928675,9.3726510971924082]},"properties":{"OBJECTID":2925,"stname":"KERALA","dtname":"Alappuzha","STCODE11":"32","DTCODE11":"598","SDTCODE11":"05675","NAME11":"Kuttanad","LOC_NAME":"Kuttanad"}},{"type":"Feature","id":2926,"geometry":{"type":"Point","coordinates":[76.650117618177077,9.4458469584409777]},"properties":{"OBJECTID":2926,"stname":"KERALA","dtname":"Pathanamthitta","STCODE11":"32","DTCODE11":"599","SDTCODE11":"05680","NAME11":"Mallappally","LOC_NAME":"Mallappally"}},{"type":"Feature","id":2927,"geometry":{"type":"Point","coordinates":[76.708830063351087,9.3361285149325646]},"properties":{"OBJECTID":2927,"stname":"KERALA","dtname":"Pathanamthitta","STCODE11":"32","DTCODE11":"599","SDTCODE11":"05682","NAME11":"Kozhenchery","LOC_NAME":"Kozhenchery"}},{"type":"Feature","id":2928,"geometry":{"type":"Point","coordinates":[76.673356937559205,9.0634420499708455]},"properties":{"OBJECTID":2928,"stname":"KERALA","dtname":"Kollam","STCODE11":"32","DTCODE11":"600","SDTCODE11":"05685","NAME11":"Kunnathur","LOC_NAME":"Kunnathur"}},{"type":"Feature","id":2929,"geometry":{"type":"Point","coordinates":[76.854635296417996,9.0930477181168641]},"properties":{"OBJECTID":2929,"stname":"KERALA","dtname":"Kollam","STCODE11":"32","DTCODE11":"600","SDTCODE11":"05686","NAME11":"Pathanapuram","LOC_NAME":"Pathanapuram"}},{"type":"Feature","id":2930,"geometry":{"type":"Point","coordinates":[76.584044035306846,8.8909705595803157]},"properties":{"OBJECTID":2930,"stname":"KERALA","dtname":"Kollam","STCODE11":"32","DTCODE11":"600","SDTCODE11":"05688","NAME11":"Kollam","LOC_NAME":"Kollam"}},{"type":"Feature","id":2931,"geometry":{"type":"Point","coordinates":[76.789409149152519,8.6620027128183317]},"properties":{"OBJECTID":2931,"stname":"KERALA","dtname":"Thiruvananthapuram","STCODE11":"32","DTCODE11":"601","SDTCODE11":"05689","NAME11":"Chirayinkeezhu","LOC_NAME":"Chirayinkeezhu"}},{"type":"Feature","id":2932,"geometry":{"type":"Point","coordinates":[75.093317608897195,12.313999614013811]},"properties":{"OBJECTID":2932,"stname":"KERALA","dtname":"Kasaragod","STCODE11":"32","DTCODE11":"588","SDTCODE11":"05631","NAME11":"Hosdurg","LOC_NAME":"Hosdurg"}},{"type":"Feature","id":2933,"geometry":{"type":"Point","coordinates":[75.365564149768289,11.870016274079235]},"properties":{"OBJECTID":2933,"stname":"KERALA","dtname":"Kannur","STCODE11":"32","DTCODE11":"589","SDTCODE11":"05633","NAME11":"Kannur","LOC_NAME":"Kannur"}},{"type":"Feature","id":2934,"geometry":{"type":"Point","coordinates":[76.004883549208998,11.802977307424255]},"properties":{"OBJECTID":2934,"stname":"KERALA","dtname":"Wayanad","STCODE11":"32","DTCODE11":"590","SDTCODE11":"05635","NAME11":"Mananthavady","LOC_NAME":"Mananthavady"}},{"type":"Feature","id":2935,"geometry":{"type":"Point","coordinates":[76.04002888873687,11.555994110920285]},"properties":{"OBJECTID":2935,"stname":"KERALA","dtname":"Wayanad","STCODE11":"32","DTCODE11":"590","SDTCODE11":"05637","NAME11":"Vythiri","LOC_NAME":"Vythiri"}},{"type":"Feature","id":2936,"geometry":{"type":"Point","coordinates":[76.083737546271394,11.043233459626764]},"properties":{"OBJECTID":2936,"stname":"KERALA","dtname":"Malappuram","STCODE11":"32","DTCODE11":"592","SDTCODE11":"05641","NAME11":"Ernad","LOC_NAME":"Ernad"}},{"type":"Feature","id":2937,"geometry":{"type":"Point","coordinates":[76.070485832762017,10.650532481925104]},"properties":{"OBJECTID":2937,"stname":"KERALA","dtname":"Thrissur","STCODE11":"32","DTCODE11":"594","SDTCODE11":"05652","NAME11":"Talappilly","LOC_NAME":"Talappilly"}},{"type":"Feature","id":2938,"geometry":{"type":"Point","coordinates":[76.213798826617037,10.517318527652762]},"properties":{"OBJECTID":2938,"stname":"KERALA","dtname":"Thrissur","STCODE11":"32","DTCODE11":"594","SDTCODE11":"05654","NAME11":"Thrissur","LOC_NAME":"Thrissur"}},{"type":"Feature","id":2939,"geometry":{"type":"Point","coordinates":[76.389259595084553,9.9212973336770123]},"properties":{"OBJECTID":2939,"stname":"KERALA","dtname":"Ernakulam","STCODE11":"32","DTCODE11":"595","SDTCODE11":"05661","NAME11":"Kanayannur","LOC_NAME":"Kanayannur"}},{"type":"Feature","id":2940,"geometry":{"type":"Point","coordinates":[76.992641569987171,9.5707747030656041]},"properties":{"OBJECTID":2940,"stname":"KERALA","dtname":"Idukki","STCODE11":"32","DTCODE11":"596","SDTCODE11":"05667","NAME11":"Peerumade","LOC_NAME":"Peerumade"}},{"type":"Feature","id":2941,"geometry":{"type":"Point","coordinates":[76.453343067342345,9.2658642083156355]},"properties":{"OBJECTID":2941,"stname":"KERALA","dtname":"Alappuzha","STCODE11":"32","DTCODE11":"598","SDTCODE11":"05676","NAME11":"Karthikappally","LOC_NAME":"Karthikappally"}}]}