{"type":"FeatureCollection","crs":{"type":"name","properties":{"name":"EPSG:4326"}},"features":[{"type":"Feature","id":1275,"geometry":{"type":"Point","coordinates":[95.842323265861339,28.138807699920989]},"properties":{"OBJECTID":1275,"stname":"ARUNACHAL PRADESH","dtname":"Lower Dibang Valley","STCODE11":"12","DTCODE11":"258","SDTCODE11":"01698","NAME11":"Roing","LOC_NAME":"Roing"}},{"type":"Feature","id":1276,"geometry":{"type":"Point","coordinates":[95.446715091711653,26.792142187242863]},"properties":{"OBJECTID":1276,"stname":"ARUNACHAL PRADESH","dtname":"Longding","STCODE11":"12","DTCODE11":"761","SDTCODE11":"01742","NAME11":"Wakka","LOC_NAME":"Wakka"}},{"type":"Feature","id":1277,"geometry":{"type":"Point","coordinates":[95.578465885714436,26.898763736063302]},"properties":{"OBJECTID":1277,"stname":"ARUNACHAL PRADESH","dtname":"Tirap","STCODE11":"12","DTCODE11":"254","SDTCODE11":"01743","NAME11":"Laju","LOC_NAME":"Laju"}},{"type":"Feature","id":1278,"geometry":{"type":"Point","coordinates":[95.273355991140136,26.724723000559845]},"properties":{"OBJECTID":1278,"stname":"ARUNACHAL PRADESH","dtname":"Longding","STCODE11":"12","DTCODE11":"761","SDTCODE11":"01741","NAME11":"Pangchao","LOC_NAME":"Pangchao"}},{"type":"Feature","id":1279,"geometry":{"type":"Point","coordinates":[95.916303206313046,27.244127499228902]},"properties":{"OBJECTID":1279,"stname":"ARUNACHAL PRADESH","dtname":"Changlang","STCODE11":"12","DTCODE11":"253","SDTCODE11":"01722","NAME11":"Manmao","LOC_NAME":"Manmao"}},{"type":"Feature","id":1280,"geometry":{"type":"Point","coordinates":[96.348959207133589,27.783677442658139]},"properties":{"OBJECTID":1280,"stname":"ARUNACHAL PRADESH","dtname":"Lohit","STCODE11":"12","DTCODE11":"259","SDTCODE11":"01704","NAME11":"Wakro","LOC_NAME":"Wakro"}},{"type":"Feature","id":1281,"geometry":{"type":"Point","coordinates":[96.206191870643408,27.48832436316718]},"properties":{"OBJECTID":1281,"stname":"ARUNACHAL PRADESH","dtname":"Changlang","STCODE11":"12","DTCODE11":"253","SDTCODE11":"01729","NAME11":"Miao","LOC_NAME":"Miao"}},{"type":"Feature","id":1282,"geometry":{"type":"Point","coordinates":[95.884641164249388,27.515510160124503]},"properties":{"OBJECTID":1282,"stname":"ARUNACHAL PRADESH","dtname":"Changlang","STCODE11":"12","DTCODE11":"253","SDTCODE11":"01732","NAME11":"Bordumsa","LOC_NAME":"Bordumsa"}},{"type":"Feature","id":1283,"geometry":{"type":"Point","coordinates":[95.862102104089118,27.666372957636518]},"properties":{"OBJECTID":1283,"stname":"ARUNACHAL PRADESH","dtname":"Namsai","STCODE11":"12","DTCODE11":"762","SDTCODE11":"01706","NAME11":"Namsai","LOC_NAME":"Namsai"}},{"type":"Feature","id":1284,"geometry":{"type":"Point","coordinates":[96.04289739929375,27.809369357870349]},"properties":{"OBJECTID":1284,"stname":"ARUNACHAL PRADESH","dtname":"Namsai","STCODE11":"12","DTCODE11":"762","SDTCODE11":"01705","NAME11":"Chongkham","LOC_NAME":"Chongkham"}},{"type":"Feature","id":1285,"geometry":{"type":"Point","coordinates":[94.821920737152837,27.875741406961652]},"properties":{"OBJECTID":1285,"stname":"ARUNACHAL PRADESH","dtname":"Lepa Rada","STCODE11":"12","DTCODE11":"784","SDTCODE11":"01659","NAME11":"Daring","LOC_NAME":"Daring"}},{"type":"Feature","id":1286,"geometry":{"type":"Point","coordinates":[94.574345063714105,28.035302291963301]},"properties":{"OBJECTID":1286,"stname":"ARUNACHAL PRADESH","dtname":"Lepa Rada","STCODE11":"12","DTCODE11":"784","SDTCODE11":"01657","NAME11":"Tirbin","LOC_NAME":"Tirbin"}},{"type":"Feature","id":1287,"geometry":{"type":"Point","coordinates":[93.63886325762688,27.731658480162103]},"properties":{"OBJECTID":1287,"stname":"ARUNACHAL PRADESH","dtname":"Kra Daadi","STCODE11":"12","DTCODE11":"763","SDTCODE11":"01615","NAME11":"Palin","LOC_NAME":"Palin"}},{"type":"Feature","id":1288,"geometry":{"type":"Point","coordinates":[95.410493579456542,28.171746664976556]},"properties":{"OBJECTID":1288,"stname":"ARUNACHAL PRADESH","dtname":"East Siang","STCODE11":"12","DTCODE11":"251","SDTCODE11":"01678","NAME11":"Mebo","LOC_NAME":"Mebo"}},{"type":"Feature","id":1289,"geometry":{"type":"Point","coordinates":[95.614422371604519,28.266578655316223]},"properties":{"OBJECTID":1289,"stname":"ARUNACHAL PRADESH","dtname":"Lower Dibang Valley","STCODE11":"12","DTCODE11":"258","SDTCODE11":"01699","NAME11":"Dambuk","LOC_NAME":"Dambuk"}},{"type":"Feature","id":1290,"geometry":{"type":"Point","coordinates":[96.546785925016252,28.072999046553434]},"properties":{"OBJECTID":1290,"stname":"ARUNACHAL PRADESH","dtname":"Anjaw","STCODE11":"12","DTCODE11":"260","SDTCODE11":"01710","NAME11":"Hayuliang","LOC_NAME":"Hayuliang"}},{"type":"Feature","id":1291,"geometry":{"type":"Point","coordinates":[97.017242823685095,28.109296332630269]},"properties":{"OBJECTID":1291,"stname":"ARUNACHAL PRADESH","dtname":"Anjaw","STCODE11":"12","DTCODE11":"260","SDTCODE11":"01716","NAME11":"Walong","LOC_NAME":"Walong"}},{"type":"Feature","id":1292,"geometry":{"type":"Point","coordinates":[95.814078232780489,28.951234113367232]},"properties":{"OBJECTID":1292,"stname":"ARUNACHAL PRADESH","dtname":"Upper Dibang Valley","STCODE11":"12","DTCODE11":"257","SDTCODE11":"01691","NAME11":"Mipi","LOC_NAME":"Mipi"}},{"type":"Feature","id":1293,"geometry":{"type":"Point","coordinates":[95.779393469380253,28.518121893464826]},"properties":{"OBJECTID":1293,"stname":"ARUNACHAL PRADESH","dtname":"Upper Dibang Valley","STCODE11":"12","DTCODE11":"257","SDTCODE11":"01694","NAME11":"Anelih","LOC_NAME":"Anelih"}},{"type":"Feature","id":1294,"geometry":{"type":"Point","coordinates":[94.772671740764764,28.853148677162615]},"properties":{"OBJECTID":1294,"stname":"ARUNACHAL PRADESH","dtname":"Upper Siang","STCODE11":"12","DTCODE11":"252","SDTCODE11":"01681","NAME11":"Migging","LOC_NAME":"Migging"}},{"type":"Feature","id":1295,"geometry":{"type":"Point","coordinates":[94.358580994647298,28.626808271256749]},"properties":{"OBJECTID":1295,"stname":"ARUNACHAL PRADESH","dtname":"Shi Yomi","STCODE11":"12","DTCODE11":"785","SDTCODE11":"01646","NAME11":"Pidi","LOC_NAME":"Pidi"}},{"type":"Feature","id":1296,"geometry":{"type":"Point","coordinates":[94.374646297203554,28.529858291667516]},"properties":{"OBJECTID":1296,"stname":"ARUNACHAL PRADESH","dtname":"Shi Yomi","STCODE11":"12","DTCODE11":"785","SDTCODE11":"01648","NAME11":"Tato","LOC_NAME":"Tato"}},{"type":"Feature","id":1297,"geometry":{"type":"Point","coordinates":[91.957766729369084,27.598640421320233]},"properties":{"OBJECTID":1297,"stname":"ARUNACHAL PRADESH","dtname":"Tawang","STCODE11":"12","DTCODE11":"245","SDTCODE11":"01562","NAME11":"Lhou","LOC_NAME":"Lhou"}},{"type":"Feature","id":1298,"geometry":{"type":"Point","coordinates":[92.26531509629055,27.124540901140914]},"properties":{"OBJECTID":1298,"stname":"ARUNACHAL PRADESH","dtname":"West Kameng","STCODE11":"12","DTCODE11":"246","SDTCODE11":"01571","NAME11":"Shergaon","LOC_NAME":"Shergaon"}},{"type":"Feature","id":1299,"geometry":{"type":"Point","coordinates":[92.388387175603597,27.341725792081718]},"properties":{"OBJECTID":1299,"stname":"ARUNACHAL PRADESH","dtname":"West Kameng","STCODE11":"12","DTCODE11":"246","SDTCODE11":"01567","NAME11":"Thembang","LOC_NAME":"Thembang"}},{"type":"Feature","id":1300,"geometry":{"type":"Point","coordinates":[92.397528110337959,27.208721164528967]},"properties":{"OBJECTID":1300,"stname":"ARUNACHAL PRADESH","dtname":"West Kameng","STCODE11":"12","DTCODE11":"246","SDTCODE11":"01572","NAME11":"Rupa","LOC_NAME":"Rupa"}},{"type":"Feature","id":1301,"geometry":{"type":"Point","coordinates":[92.575540035821859,27.193461511801001]},"properties":{"OBJECTID":1301,"stname":"ARUNACHAL PRADESH","dtname":"West Kameng","STCODE11":"12","DTCODE11":"246","SDTCODE11":"01574","NAME11":"Jamiri","LOC_NAME":"Jamiri"}},{"type":"Feature","id":1302,"geometry":{"type":"Point","coordinates":[93.391037653113216,27.749367632791106]},"properties":{"OBJECTID":1302,"stname":"ARUNACHAL PRADESH","dtname":"Kurung Kumey","STCODE11":"12","DTCODE11":"256","SDTCODE11":"01618","NAME11":"Nyapin","LOC_NAME":"Nyapin"}},{"type":"Feature","id":1303,"geometry":{"type":"Point","coordinates":[93.753932177801772,28.021625749611026]},"properties":{"OBJECTID":1303,"stname":"ARUNACHAL PRADESH","dtname":"Kra Daadi","STCODE11":"12","DTCODE11":"763","SDTCODE11":"01628","NAME11":"Tali","LOC_NAME":"Tali"}},{"type":"Feature","id":1304,"geometry":{"type":"Point","coordinates":[94.497298933347537,28.080279120144645]},"properties":{"OBJECTID":1304,"stname":"ARUNACHAL PRADESH","dtname":"West Siang","STCODE11":"12","DTCODE11":"250","SDTCODE11":"01654","NAME11":"Liromoba","LOC_NAME":"Liromoba"}},{"type":"Feature","id":1305,"geometry":{"type":"Point","coordinates":[95.042479257723073,28.434214752096882]},"properties":{"OBJECTID":1305,"stname":"ARUNACHAL PRADESH","dtname":"Siang","STCODE11":"12","DTCODE11":"764","SDTCODE11":"01666","NAME11":"Riga","LOC_NAME":"Riga"}},{"type":"Feature","id":1306,"geometry":{"type":"Point","coordinates":[94.985448351861422,28.211973820077681]},"properties":{"OBJECTID":1306,"stname":"ARUNACHAL PRADESH","dtname":"Siang","STCODE11":"12","DTCODE11":"764","SDTCODE11":"01667","NAME11":"Pangin","LOC_NAME":"Pangin"}},{"type":"Feature","id":1307,"geometry":{"type":"Point","coordinates":[92.638448478450357,27.012449741436761]},"properties":{"OBJECTID":1307,"stname":"ARUNACHAL PRADESH","dtname":"West Kameng","STCODE11":"12","DTCODE11":"246","SDTCODE11":"01576","NAME11":"Bhalukpong","LOC_NAME":"Bhalukpong"}},{"type":"Feature","id":1308,"geometry":{"type":"Point","coordinates":[93.011771887530386,26.958907377949391]},"properties":{"OBJECTID":1308,"stname":"ARUNACHAL PRADESH","dtname":"Pakke Kessang","STCODE11":"12","DTCODE11":"783","SDTCODE11":"01579","NAME11":"Seijosa","LOC_NAME":"Seijosa"}},{"type":"Feature","id":1309,"geometry":{"type":"Point","coordinates":[93.018341824158625,27.617370225374785]},"properties":{"OBJECTID":1309,"stname":"ARUNACHAL PRADESH","dtname":"East Kameng","STCODE11":"12","DTCODE11":"247","SDTCODE11":"01589","NAME11":"Khenewa","LOC_NAME":"Khenewa"}},{"type":"Feature","id":1310,"geometry":{"type":"Point","coordinates":[91.727368519520738,27.706424152309182]},"properties":{"OBJECTID":1310,"stname":"ARUNACHAL PRADESH","dtname":"Tawang","STCODE11":"12","DTCODE11":"245","SDTCODE11":"01556","NAME11":"Zemithang","LOC_NAME":"Zemithang"}},{"type":"Feature","id":1311,"geometry":{"type":"Point","coordinates":[94.797009626975807,28.169015097357697]},"properties":{"OBJECTID":1311,"stname":"ARUNACHAL PRADESH","dtname":"West Siang","STCODE11":"12","DTCODE11":"250","SDTCODE11":"01656","NAME11":"Aalo","LOC_NAME":"Aalo"}},{"type":"Feature","id":1312,"geometry":{"type":"Point","coordinates":[94.285757763582993,27.830197449118405]},"properties":{"OBJECTID":1312,"stname":"ARUNACHAL PRADESH","dtname":"Upper Subansiri","STCODE11":"12","DTCODE11":"249","SDTCODE11":"01638","NAME11":"Puchi Geko","LOC_NAME":"Puchi Geko"}},{"type":"Feature","id":1313,"geometry":{"type":"Point","coordinates":[95.903508409194856,28.800999734955052]},"properties":{"OBJECTID":1313,"stname":"ARUNACHAL PRADESH","dtname":"Upper Dibang Valley","STCODE11":"12","DTCODE11":"257","SDTCODE11":"01692","NAME11":"Anini","LOC_NAME":"Anini"}},{"type":"Feature","id":1314,"geometry":{"type":"Point","coordinates":[95.329797838432341,28.065788855364048]},"properties":{"OBJECTID":1314,"stname":"ARUNACHAL PRADESH","dtname":"East Siang","STCODE11":"12","DTCODE11":"251","SDTCODE11":"01677","NAME11":"Pasighat","LOC_NAME":"Pasighat"}},{"type":"Feature","id":1315,"geometry":{"type":"Point","coordinates":[92.474573977498125,27.19692055572515]},"properties":{"OBJECTID":1315,"stname":"ARUNACHAL PRADESH","dtname":"West Kameng","STCODE11":"12","DTCODE11":"246","SDTCODE11":"01573","NAME11":"Singchung","LOC_NAME":"Singchung"}},{"type":"Feature","id":1316,"geometry":{"type":"Point","coordinates":[92.824384088220938,27.382680211252556]},"properties":{"OBJECTID":1316,"stname":"ARUNACHAL PRADESH","dtname":"East Kameng","STCODE11":"12","DTCODE11":"247","SDTCODE11":"01583","NAME11":"Richukrong","LOC_NAME":"Richukrong"}},{"type":"Feature","id":1317,"geometry":{"type":"Point","coordinates":[93.616084937478902,27.025760603430825]},"properties":{"OBJECTID":1317,"stname":"ARUNACHAL PRADESH","dtname":"Papum Pare","STCODE11":"12","DTCODE11":"248","SDTCODE11":"01592","NAME11":"Balijan","LOC_NAME":"Balijan"}},{"type":"Feature","id":1318,"geometry":{"type":"Point","coordinates":[96.163430402134381,27.919973860611076]},"properties":{"OBJECTID":1318,"stname":"ARUNACHAL PRADESH","dtname":"Lohit","STCODE11":"12","DTCODE11":"259","SDTCODE11":"01703","NAME11":"Tezu","LOC_NAME":"Tezu"}},{"type":"Feature","id":1319,"geometry":{"type":"Point","coordinates":[91.922001746331262,27.539382535940653]},"properties":{"OBJECTID":1319,"stname":"ARUNACHAL PRADESH","dtname":"Tawang","STCODE11":"12","DTCODE11":"245","SDTCODE11":"01563","NAME11":"MUKTO CIRCLE","LOC_NAME":"MUKTO CIRCLE"}},{"type":"Feature","id":1320,"geometry":{"type":"Point","coordinates":[93.088870169590777,27.266952214125748]},"properties":{"OBJECTID":1320,"stname":"ARUNACHAL PRADESH","dtname":"Pakke Kessang","STCODE11":"12","DTCODE11":"783","SDTCODE11":"01582","NAME11":"Pizirang(Veo)","LOC_NAME":"Pizirang(Veo)"}},{"type":"Feature","id":1321,"geometry":{"type":"Point","coordinates":[92.789428489050735,27.558143943111091]},"properties":{"OBJECTID":1321,"stname":"ARUNACHAL PRADESH","dtname":"East Kameng","STCODE11":"12","DTCODE11":"247","SDTCODE11":"01585","NAME11":"Lada","LOC_NAME":"Lada"}},{"type":"Feature","id":1322,"geometry":{"type":"Point","coordinates":[93.825460165787149,27.096029446955477]},"properties":{"OBJECTID":1322,"stname":"ARUNACHAL PRADESH","dtname":"Papum Pare","STCODE11":"12","DTCODE11":"248","SDTCODE11":"01593","NAME11":"Banderdawa","LOC_NAME":"Banderdawa"}},{"type":"Feature","id":1323,"geometry":{"type":"Point","coordinates":[93.797438272426234,27.139128995847283]},"properties":{"OBJECTID":1323,"stname":"ARUNACHAL PRADESH","dtname":"Papum Pare","STCODE11":"12","DTCODE11":"248","SDTCODE11":"01599","NAME11":"Gumto","LOC_NAME":"Gumto"}},{"type":"Feature","id":1324,"geometry":{"type":"Point","coordinates":[94.223779715975738,27.520397223386929]},"properties":{"OBJECTID":1324,"stname":"ARUNACHAL PRADESH","dtname":"Kamle","STCODE11":"12","DTCODE11":"778","SDTCODE11":"01613","NAME11":"Dollungmukh","LOC_NAME":"Dollungmukh"}},{"type":"Feature","id":1325,"geometry":{"type":"Point","coordinates":[93.491517771377218,27.532234071171967]},"properties":{"OBJECTID":1325,"stname":"ARUNACHAL PRADESH","dtname":"Papum Pare","STCODE11":"12","DTCODE11":"248","SDTCODE11":"01604","NAME11":"Mengio","LOC_NAME":"Mengio"}},{"type":"Feature","id":1326,"geometry":{"type":"Point","coordinates":[93.876822374320952,27.694452137299283]},"properties":{"OBJECTID":1326,"stname":"ARUNACHAL PRADESH","dtname":"Lower Subansiri","STCODE11":"12","DTCODE11":"255","SDTCODE11":"01608","NAME11":"Old Ziro","LOC_NAME":"Old Ziro"}},{"type":"Feature","id":1327,"geometry":{"type":"Point","coordinates":[95.7372702853216,27.139059132003371]},"properties":{"OBJECTID":1327,"stname":"ARUNACHAL PRADESH","dtname":"Changlang","STCODE11":"12","DTCODE11":"253","SDTCODE11":"01720","NAME11":"Changlang","LOC_NAME":"Changlang"}},{"type":"Feature","id":1328,"geometry":{"type":"Point","coordinates":[96.01485244078961,27.355451546107936]},"properties":{"OBJECTID":1328,"stname":"ARUNACHAL PRADESH","dtname":"Changlang","STCODE11":"12","DTCODE11":"253","SDTCODE11":"01727","NAME11":"Jairampur","LOC_NAME":"Jairampur"}},{"type":"Feature","id":1329,"geometry":{"type":"Point","coordinates":[95.506485223182651,26.99244475989509]},"properties":{"OBJECTID":1329,"stname":"ARUNACHAL PRADESH","dtname":"Tirap","STCODE11":"12","DTCODE11":"254","SDTCODE11":"01735","NAME11":"Khonsa","LOC_NAME":"Khonsa"}},{"type":"Feature","id":1330,"geometry":{"type":"Point","coordinates":[94.951977856502083,28.316883453099386]},"properties":{"OBJECTID":1330,"stname":"ARUNACHAL PRADESH","dtname":"Siang","STCODE11":"12","DTCODE11":"764","SDTCODE11":"01665","NAME11":"Boleng","LOC_NAME":"Boleng"}},{"type":"Feature","id":1331,"geometry":{"type":"Point","coordinates":[95.02467153523105,28.642291109070609]},"properties":{"OBJECTID":1331,"stname":"ARUNACHAL PRADESH","dtname":"Upper Siang","STCODE11":"12","DTCODE11":"252","SDTCODE11":"01685","NAME11":"Yingkiong","LOC_NAME":"Yingkiong"}},{"type":"Feature","id":1332,"geometry":{"type":"Point","coordinates":[91.660392695728603,27.573001344845942]},"properties":{"OBJECTID":1332,"stname":"ARUNACHAL PRADESH","dtname":"Tawang","STCODE11":"12","DTCODE11":"245","SDTCODE11":"01557","NAME11":"LUMLA","LOC_NAME":"LUMLA"}},{"type":"Feature","id":1333,"geometry":{"type":"Point","coordinates":[92.187501377971572,27.841783454539048]},"properties":{"OBJECTID":1333,"stname":"ARUNACHAL PRADESH","dtname":"Tawang","STCODE11":"12","DTCODE11":"245","SDTCODE11":"01565","NAME11":"Thingbu","LOC_NAME":"Thingbu"}},{"type":"Feature","id":1334,"geometry":{"type":"Point","coordinates":[92.545790927409655,27.371173831386773]},"properties":{"OBJECTID":1334,"stname":"ARUNACHAL PRADESH","dtname":"West Kameng","STCODE11":"12","DTCODE11":"246","SDTCODE11":"01568","NAME11":"Nafra","LOC_NAME":"Nafra"}},{"type":"Feature","id":1335,"geometry":{"type":"Point","coordinates":[92.7417247557498,27.340279525731656]},"properties":{"OBJECTID":1335,"stname":"ARUNACHAL PRADESH","dtname":"West Kameng","STCODE11":"12","DTCODE11":"246","SDTCODE11":"01575","NAME11":"Thrizino","LOC_NAME":"Thrizino"}},{"type":"Feature","id":1336,"geometry":{"type":"Point","coordinates":[92.947793367243904,27.542206179705332]},"properties":{"OBJECTID":1336,"stname":"ARUNACHAL PRADESH","dtname":"East Kameng","STCODE11":"12","DTCODE11":"247","SDTCODE11":"01586","NAME11":"Bameng","LOC_NAME":"Bameng"}},{"type":"Feature","id":1337,"geometry":{"type":"Point","coordinates":[93.119720231655648,27.557214932788156]},"properties":{"OBJECTID":1337,"stname":"ARUNACHAL PRADESH","dtname":"East Kameng","STCODE11":"12","DTCODE11":"247","SDTCODE11":"01587","NAME11":"Pipu-Dipu","LOC_NAME":"Pipu-Dipu"}},{"type":"Feature","id":1338,"geometry":{"type":"Point","coordinates":[92.996209696330496,27.726453773940921]},"properties":{"OBJECTID":1338,"stname":"ARUNACHAL PRADESH","dtname":"East Kameng","STCODE11":"12","DTCODE11":"247","SDTCODE11":"01591","NAME11":"Sawa","LOC_NAME":"Sawa"}},{"type":"Feature","id":1339,"geometry":{"type":"Point","coordinates":[93.339793903619295,27.228833650790421]},"properties":{"OBJECTID":1339,"stname":"ARUNACHAL PRADESH","dtname":"Papum Pare","STCODE11":"12","DTCODE11":"248","SDTCODE11":"01603","NAME11":"Leporiang","LOC_NAME":"Leporiang"}},{"type":"Feature","id":1340,"geometry":{"type":"Point","coordinates":[93.506298033919535,27.334995673857119]},"properties":{"OBJECTID":1340,"stname":"ARUNACHAL PRADESH","dtname":"Papum Pare","STCODE11":"12","DTCODE11":"248","SDTCODE11":"01602","NAME11":"Parang","LOC_NAME":"Parang"}},{"type":"Feature","id":1341,"geometry":{"type":"Point","coordinates":[93.662875635701496,27.214037581432134]},"properties":{"OBJECTID":1341,"stname":"ARUNACHAL PRADESH","dtname":"Papum Pare","STCODE11":"12","DTCODE11":"248","SDTCODE11":"01600","NAME11":"Toru","LOC_NAME":"Toru"}},{"type":"Feature","id":1342,"geometry":{"type":"Point","coordinates":[93.770163500700619,27.460691769527145]},"properties":{"OBJECTID":1342,"stname":"ARUNACHAL PRADESH","dtname":"Lower Subansiri","STCODE11":"12","DTCODE11":"255","SDTCODE11":"01609","NAME11":"Yachuli","LOC_NAME":"Yachuli"}},{"type":"Feature","id":1343,"geometry":{"type":"Point","coordinates":[93.860860217223944,27.820175412329277]},"properties":{"OBJECTID":1343,"stname":"ARUNACHAL PRADESH","dtname":"Kra Daadi","STCODE11":"12","DTCODE11":"763","SDTCODE11":"01621","NAME11":"Chambang","LOC_NAME":"Chambang"}},{"type":"Feature","id":1344,"geometry":{"type":"Point","coordinates":[93.530398507977409,27.810064560289259]},"properties":{"OBJECTID":1344,"stname":"ARUNACHAL PRADESH","dtname":"Kurung Kumey","STCODE11":"12","DTCODE11":"256","SDTCODE11":"01617","NAME11":"Sangram","LOC_NAME":"Sangram"}},{"type":"Feature","id":1345,"geometry":{"type":"Point","coordinates":[93.35106602488986,27.905236043993241]},"properties":{"OBJECTID":1345,"stname":"ARUNACHAL PRADESH","dtname":"Kurung Kumey","STCODE11":"12","DTCODE11":"256","SDTCODE11":"01620","NAME11":"Koloriang","LOC_NAME":"Koloriang"}},{"type":"Feature","id":1346,"geometry":{"type":"Point","coordinates":[93.165439255913938,27.952832473192551]},"properties":{"OBJECTID":1346,"stname":"ARUNACHAL PRADESH","dtname":"Kurung Kumey","STCODE11":"12","DTCODE11":"256","SDTCODE11":"01624","NAME11":"Sarli","LOC_NAME":"Sarli"}},{"type":"Feature","id":1347,"geometry":{"type":"Point","coordinates":[93.514638112493245,27.990624309517141]},"properties":{"OBJECTID":1347,"stname":"ARUNACHAL PRADESH","dtname":"Kurung Kumey","STCODE11":"12","DTCODE11":"256","SDTCODE11":"01625","NAME11":"Parsi-Parlo","LOC_NAME":"Parsi-Parlo"}},{"type":"Feature","id":1348,"geometry":{"type":"Point","coordinates":[93.692524888285021,28.142287795691924]},"properties":{"OBJECTID":1348,"stname":"ARUNACHAL PRADESH","dtname":"Kra Daadi","STCODE11":"12","DTCODE11":"763","SDTCODE11":"01627","NAME11":"Longding Koling (Pipsorang)","LOC_NAME":"Longding Koling (Pipsorang)"}},{"type":"Feature","id":1349,"geometry":{"type":"Point","coordinates":[93.937437802508029,27.82056230201637]},"properties":{"OBJECTID":1349,"stname":"ARUNACHAL PRADESH","dtname":"Kamle","STCODE11":"12","DTCODE11":"778","SDTCODE11":"01612","NAME11":"Kamporijo","LOC_NAME":"Kamporijo"}},{"type":"Feature","id":1350,"geometry":{"type":"Point","coordinates":[93.613305019983827,28.368457684234162]},"properties":{"OBJECTID":1350,"stname":"ARUNACHAL PRADESH","dtname":"Upper Subansiri","STCODE11":"12","DTCODE11":"249","SDTCODE11":"01630","NAME11":"Limeking","LOC_NAME":"Limeking"}},{"type":"Feature","id":1351,"geometry":{"type":"Point","coordinates":[94.151844111141983,28.290387988021727]},"properties":{"OBJECTID":1351,"stname":"ARUNACHAL PRADESH","dtname":"Upper Subansiri","STCODE11":"12","DTCODE11":"249","SDTCODE11":"01634","NAME11":"Payeng","LOC_NAME":"Payeng"}},{"type":"Feature","id":1352,"geometry":{"type":"Point","coordinates":[94.052972164984439,28.110530412594482]},"properties":{"OBJECTID":1352,"stname":"ARUNACHAL PRADESH","dtname":"Upper Subansiri","STCODE11":"12","DTCODE11":"249","SDTCODE11":"01635","NAME11":"Giba","LOC_NAME":"Giba"}},{"type":"Feature","id":1353,"geometry":{"type":"Point","coordinates":[94.183322444136792,28.109542356767555]},"properties":{"OBJECTID":1353,"stname":"ARUNACHAL PRADESH","dtname":"Upper Subansiri","STCODE11":"12","DTCODE11":"249","SDTCODE11":"01640","NAME11":"Gussar","LOC_NAME":"Gussar"}},{"type":"Feature","id":1354,"geometry":{"type":"Point","coordinates":[94.131474379086612,28.596766832237972]},"properties":{"OBJECTID":1354,"stname":"ARUNACHAL PRADESH","dtname":"Shi Yomi","STCODE11":"12","DTCODE11":"785","SDTCODE11":"01644","NAME11":"Mechuka","LOC_NAME":"Mechuka"}},{"type":"Feature","id":1355,"geometry":{"type":"Point","coordinates":[94.67987749308729,28.415816592914915]},"properties":{"OBJECTID":1355,"stname":"ARUNACHAL PRADESH","dtname":"Siang","STCODE11":"12","DTCODE11":"764","SDTCODE11":"01649","NAME11":"Kaying","LOC_NAME":"Kaying"}},{"type":"Feature","id":1356,"geometry":{"type":"Point","coordinates":[94.595625127817158,28.171835575241651]},"properties":{"OBJECTID":1356,"stname":"ARUNACHAL PRADESH","dtname":"West Siang","STCODE11":"12","DTCODE11":"250","SDTCODE11":"01650","NAME11":"Darak","LOC_NAME":"Darak"}},{"type":"Feature","id":1357,"geometry":{"type":"Point","coordinates":[94.675703421712313,27.650957570864659]},"properties":{"OBJECTID":1357,"stname":"ARUNACHAL PRADESH","dtname":"Lower Siang","STCODE11":"12","DTCODE11":"779","SDTCODE11":"01662","NAME11":"Likabali","LOC_NAME":"Likabali"}},{"type":"Feature","id":1358,"geometry":{"type":"Point","coordinates":[94.648789309200183,28.577555964520858]},"properties":{"OBJECTID":1358,"stname":"ARUNACHAL PRADESH","dtname":"Siang","STCODE11":"12","DTCODE11":"764","SDTCODE11":"01647","NAME11":"Payum","LOC_NAME":"Payum"}},{"type":"Feature","id":1359,"geometry":{"type":"Point","coordinates":[94.382236373244851,27.735572667880113]},"properties":{"OBJECTID":1359,"stname":"ARUNACHAL PRADESH","dtname":"Lower Siang","STCODE11":"12","DTCODE11":"779","SDTCODE11":"01661","NAME11":"Sibe","LOC_NAME":"Sibe"}},{"type":"Feature","id":1360,"geometry":{"type":"Point","coordinates":[94.814973621292964,28.22748635908135]},"properties":{"OBJECTID":1360,"stname":"ARUNACHAL PRADESH","dtname":"Siang","STCODE11":"12","DTCODE11":"764","SDTCODE11":"01653","NAME11":"Jomlo Mobuk","LOC_NAME":"Jomlo Mobuk"}},{"type":"Feature","id":1361,"geometry":{"type":"Point","coordinates":[94.740308208787326,28.091955146110397]},"properties":{"OBJECTID":1361,"stname":"ARUNACHAL PRADESH","dtname":"West Siang","STCODE11":"12","DTCODE11":"250","SDTCODE11":"01664","NAME11":"Bagra","LOC_NAME":"Bagra"}},{"type":"Feature","id":1362,"geometry":{"type":"Point","coordinates":[95.18764894979445,27.943811673928341]},"properties":{"OBJECTID":1362,"stname":"ARUNACHAL PRADESH","dtname":"East Siang","STCODE11":"12","DTCODE11":"251","SDTCODE11":"01674","NAME11":"Bilat","LOC_NAME":"Bilat"}},{"type":"Feature","id":1363,"geometry":{"type":"Point","coordinates":[95.220927622501279,27.842395864526864]},"properties":{"OBJECTID":1363,"stname":"ARUNACHAL PRADESH","dtname":"East Siang","STCODE11":"12","DTCODE11":"251","SDTCODE11":"01675","NAME11":"Ruksin","LOC_NAME":"Ruksin"}},{"type":"Feature","id":1364,"geometry":{"type":"Point","coordinates":[95.042625845709466,27.800459874384959]},"properties":{"OBJECTID":1364,"stname":"ARUNACHAL PRADESH","dtname":"Lower Siang","STCODE11":"12","DTCODE11":"779","SDTCODE11":"01672","NAME11":"Nari","LOC_NAME":"Nari"}},{"type":"Feature","id":1365,"geometry":{"type":"Point","coordinates":[94.951536295912376,27.985008297482185]},"properties":{"OBJECTID":1365,"stname":"ARUNACHAL PRADESH","dtname":"Lower Siang","STCODE11":"12","DTCODE11":"779","SDTCODE11":"01670","NAME11":"Koyu","LOC_NAME":"Koyu"}},{"type":"Feature","id":1366,"geometry":{"type":"Point","coordinates":[95.302721844116135,27.898821122980994]},"properties":{"OBJECTID":1366,"stname":"ARUNACHAL PRADESH","dtname":"East Siang","STCODE11":"12","DTCODE11":"251","SDTCODE11":"01676","NAME11":"Sille-Oyan","LOC_NAME":"Sille-Oyan"}},{"type":"Feature","id":1367,"geometry":{"type":"Point","coordinates":[94.889386087977556,28.993515863359413]},"properties":{"OBJECTID":1367,"stname":"ARUNACHAL PRADESH","dtname":"Upper Siang","STCODE11":"12","DTCODE11":"252","SDTCODE11":"01680","NAME11":"Tuting","LOC_NAME":"Tuting"}},{"type":"Feature","id":1368,"geometry":{"type":"Point","coordinates":[94.812488865047428,28.837844467435254]},"properties":{"OBJECTID":1368,"stname":"ARUNACHAL PRADESH","dtname":"Upper Siang","STCODE11":"12","DTCODE11":"252","SDTCODE11":"01682","NAME11":"Palling","LOC_NAME":"Palling"}},{"type":"Feature","id":1369,"geometry":{"type":"Point","coordinates":[95.214508343227649,28.491477673090326]},"properties":{"OBJECTID":1369,"stname":"ARUNACHAL PRADESH","dtname":"Upper Siang","STCODE11":"12","DTCODE11":"252","SDTCODE11":"01688","NAME11":"Mariyang","LOC_NAME":"Mariyang"}},{"type":"Feature","id":1370,"geometry":{"type":"Point","coordinates":[95.09171370230186,28.425360326675293]},"properties":{"OBJECTID":1370,"stname":"ARUNACHAL PRADESH","dtname":"Upper Siang","STCODE11":"12","DTCODE11":"252","SDTCODE11":"01687","NAME11":"Geku","LOC_NAME":"Geku"}},{"type":"Feature","id":1371,"geometry":{"type":"Point","coordinates":[95.163342755248308,28.310877420736865]},"properties":{"OBJECTID":1371,"stname":"ARUNACHAL PRADESH","dtname":"Upper Siang","STCODE11":"12","DTCODE11":"252","SDTCODE11":"01690","NAME11":"Katan","LOC_NAME":"Katan"}},{"type":"Feature","id":1372,"geometry":{"type":"Point","coordinates":[95.872104303093678,28.630058328962825]},"properties":{"OBJECTID":1372,"stname":"ARUNACHAL PRADESH","dtname":"Upper Dibang Valley","STCODE11":"12","DTCODE11":"257","SDTCODE11":"01693","NAME11":"Etalin","LOC_NAME":"Etalin"}},{"type":"Feature","id":1373,"geometry":{"type":"Point","coordinates":[95.877657370176493,27.836012876212898]},"properties":{"OBJECTID":1373,"stname":"ARUNACHAL PRADESH","dtname":"Lohit","STCODE11":"12","DTCODE11":"259","SDTCODE11":"01702","NAME11":"Sunpura","LOC_NAME":"Sunpura"}},{"type":"Feature","id":1374,"geometry":{"type":"Point","coordinates":[96.640840857583655,27.984316562872451]},"properties":{"OBJECTID":1374,"stname":"ARUNACHAL PRADESH","dtname":"Anjaw","STCODE11":"12","DTCODE11":"260","SDTCODE11":"01711","NAME11":"Manchal","LOC_NAME":"Manchal"}},{"type":"Feature","id":1375,"geometry":{"type":"Point","coordinates":[96.640385983961437,28.14679173572377]},"properties":{"OBJECTID":1375,"stname":"ARUNACHAL PRADESH","dtname":"Anjaw","STCODE11":"12","DTCODE11":"260","SDTCODE11":"01712","NAME11":"Goiliang","LOC_NAME":"Goiliang"}},{"type":"Feature","id":1376,"geometry":{"type":"Point","coordinates":[96.124238118115557,27.293277058849892]},"properties":{"OBJECTID":1376,"stname":"ARUNACHAL PRADESH","dtname":"Changlang","STCODE11":"12","DTCODE11":"253","SDTCODE11":"01726","NAME11":"Tikhak Rima Putok","LOC_NAME":"Tikhak Rima Putok"}},{"type":"Feature","id":1377,"geometry":{"type":"Point","coordinates":[96.023615280010759,27.422136328300539]},"properties":{"OBJECTID":1377,"stname":"ARUNACHAL PRADESH","dtname":"Changlang","STCODE11":"12","DTCODE11":"253","SDTCODE11":"01730","NAME11":"Kharsang","LOC_NAME":"Kharsang"}},{"type":"Feature","id":1378,"geometry":{"type":"Point","coordinates":[97.006596228092945,27.190001868366899]},"properties":{"OBJECTID":1378,"stname":"ARUNACHAL PRADESH","dtname":"Changlang","STCODE11":"12","DTCODE11":"253","SDTCODE11":"01728","NAME11":"Vijoynagar","LOC_NAME":"Vijoynagar"}},{"type":"Feature","id":1379,"geometry":{"type":"Point","coordinates":[95.706681571020653,27.011933493121273]},"properties":{"OBJECTID":1379,"stname":"ARUNACHAL PRADESH","dtname":"Changlang","STCODE11":"12","DTCODE11":"253","SDTCODE11":"01718","NAME11":"Khimiyong","LOC_NAME":"Khimiyong"}},{"type":"Feature","id":1380,"geometry":{"type":"Point","coordinates":[95.47329304476294,27.126203087417995]},"properties":{"OBJECTID":1380,"stname":"ARUNACHAL PRADESH","dtname":"Tirap","STCODE11":"12","DTCODE11":"254","SDTCODE11":"01733","NAME11":"Namsang","LOC_NAME":"Namsang"}},{"type":"Feature","id":1381,"geometry":{"type":"Point","coordinates":[95.206764060588029,27.029576177202173]},"properties":{"OBJECTID":1381,"stname":"ARUNACHAL PRADESH","dtname":"Longding","STCODE11":"12","DTCODE11":"761","SDTCODE11":"01737","NAME11":"Kanubari","LOC_NAME":"Kanubari"}},{"type":"Feature","id":1382,"geometry":{"type":"Point","coordinates":[95.32033575867888,26.886990094854038]},"properties":{"OBJECTID":1382,"stname":"ARUNACHAL PRADESH","dtname":"Longding","STCODE11":"12","DTCODE11":"761","SDTCODE11":"01739","NAME11":"Longding","LOC_NAME":"Longding"}},{"type":"Feature","id":1383,"geometry":{"type":"Point","coordinates":[95.237508655048657,26.826504840558304]},"properties":{"OBJECTID":1383,"stname":"ARUNACHAL PRADESH","dtname":"Longding","STCODE11":"12","DTCODE11":"761","SDTCODE11":"01740","NAME11":"Pumao","LOC_NAME":"Pumao"}},{"type":"Feature","id":5470,"geometry":{"type":"Point","coordinates":[94.216527172021017,28.684629173568471]},"properties":{"OBJECTID":5470,"stname":"ARUNACHAL PRADESH","dtname":"Shi Yomi","STCODE11":"12","DTCODE11":"785","SDTCODE11":"01645","NAME11":"Monigong","LOC_NAME":"Monigong"}},{"type":"Feature","id":5471,"geometry":{"type":"Point","coordinates":[91.862521904546014,27.582692179878887]},"properties":{"OBJECTID":5471,"stname":"ARUNACHAL PRADESH","dtname":"Tawang","STCODE11":"12","DTCODE11":"245","SDTCODE11":"01559","NAME11":"TAWANG CIRCLE","LOC_NAME":"TAWANG CIRCLE"}},{"type":"Feature","id":5472,"geometry":{"type":"Point","coordinates":[91.647543606231281,27.510183573975944]},"properties":{"OBJECTID":5472,"stname":"ARUNACHAL PRADESH","dtname":"Tawang","STCODE11":"12","DTCODE11":"245","SDTCODE11":"01558","NAME11":"DUDUNGHAR","LOC_NAME":"DUDUNGHAR"}},{"type":"Feature","id":5473,"geometry":{"type":"Point","coordinates":[91.803517275139313,27.535881753536927]},"properties":{"OBJECTID":5473,"stname":"ARUNACHAL PRADESH","dtname":"Tawang","STCODE11":"12","DTCODE11":"245","SDTCODE11":"01564","NAME11":"Bongkhar","LOC_NAME":"Bongkhar"}},{"type":"Feature","id":5474,"geometry":{"type":"Point","coordinates":[91.917553837914923,27.65468862522771]},"properties":{"OBJECTID":5474,"stname":"ARUNACHAL PRADESH","dtname":"Tawang","STCODE11":"12","DTCODE11":"245","SDTCODE11":"01560","NAME11":"KITPI CIRCLE","LOC_NAME":"KITPI CIRCLE"}},{"type":"Feature","id":5475,"geometry":{"type":"Point","coordinates":[91.982596404570643,27.576499536197616]},"properties":{"OBJECTID":5475,"stname":"ARUNACHAL PRADESH","dtname":"Tawang","STCODE11":"12","DTCODE11":"245","SDTCODE11":"01561","NAME11":"Jang","LOC_NAME":"Jang"}},{"type":"Feature","id":5476,"geometry":{"type":"Point","coordinates":[92.273506799230461,27.342249278542855]},"properties":{"OBJECTID":5476,"stname":"ARUNACHAL PRADESH","dtname":"West Kameng","STCODE11":"12","DTCODE11":"246","SDTCODE11":"01566","NAME11":"Dirang","LOC_NAME":"Dirang"}},{"type":"Feature","id":5477,"geometry":{"type":"Point","coordinates":[92.121417193184357,27.117105086561423]},"properties":{"OBJECTID":5477,"stname":"ARUNACHAL PRADESH","dtname":"West Kameng","STCODE11":"12","DTCODE11":"246","SDTCODE11":"01570","NAME11":"Kalaktang","LOC_NAME":"Kalaktang"}},{"type":"Feature","id":5478,"geometry":{"type":"Point","coordinates":[92.418252137043069,27.263057674330007]},"properties":{"OBJECTID":5478,"stname":"ARUNACHAL PRADESH","dtname":"West Kameng","STCODE11":"12","DTCODE11":"246","SDTCODE11":"01569","NAME11":"Bomdila","LOC_NAME":"Bomdila"}},{"type":"Feature","id":5479,"geometry":{"type":"Point","coordinates":[92.418965476633758,26.991653604694445]},"properties":{"OBJECTID":5479,"stname":"ARUNACHAL PRADESH","dtname":"West Kameng","STCODE11":"12","DTCODE11":"246","SDTCODE11":"01577","NAME11":"Kamengbari-Doimara","LOC_NAME":"Kamengbari-Doimara"}},{"type":"Feature","id":5480,"geometry":{"type":"Point","coordinates":[92.141284042953799,26.940974359383635]},"properties":{"OBJECTID":5480,"stname":"ARUNACHAL PRADESH","dtname":"West Kameng","STCODE11":"12","DTCODE11":"246","SDTCODE11":"01578","NAME11":"Balemu","LOC_NAME":"Balemu"}},{"type":"Feature","id":5481,"geometry":{"type":"Point","coordinates":[93.18054948133819,27.01070773020642]},"properties":{"OBJECTID":5481,"stname":"ARUNACHAL PRADESH","dtname":"Pakke Kessang","STCODE11":"12","DTCODE11":"783","SDTCODE11":"01580","NAME11":"Dissing-Passo","LOC_NAME":"Dissing-Passo"}},{"type":"Feature","id":5482,"geometry":{"type":"Point","coordinates":[93.230567072690107,27.165111282718904]},"properties":{"OBJECTID":5482,"stname":"ARUNACHAL PRADESH","dtname":"Pakke Kessang","STCODE11":"12","DTCODE11":"783","SDTCODE11":"01581","NAME11":"Pakke-Kessang","LOC_NAME":"Pakke-Kessang"}},{"type":"Feature","id":5483,"geometry":{"type":"Point","coordinates":[93.042967514417043,27.357797049741084]},"properties":{"OBJECTID":5483,"stname":"ARUNACHAL PRADESH","dtname":"East Kameng","STCODE11":"12","DTCODE11":"247","SDTCODE11":"01584","NAME11":"Seppa","LOC_NAME":"Seppa"}},{"type":"Feature","id":5484,"geometry":{"type":"Point","coordinates":[93.166275484137216,27.470198159785053]},"properties":{"OBJECTID":5484,"stname":"ARUNACHAL PRADESH","dtname":"East Kameng","STCODE11":"12","DTCODE11":"247","SDTCODE11":"01588","NAME11":"Gyawe Purang","LOC_NAME":"Gyawe Purang"}},{"type":"Feature","id":5485,"geometry":{"type":"Point","coordinates":[93.138441980067796,27.679340445062795]},"properties":{"OBJECTID":5485,"stname":"ARUNACHAL PRADESH","dtname":"East Kameng","STCODE11":"12","DTCODE11":"247","SDTCODE11":"01590","NAME11":"Chayangtajo","LOC_NAME":"Chayangtajo"}},{"type":"Feature","id":5486,"geometry":{"type":"Point","coordinates":[93.598615805288816,27.102749171977731]},"properties":{"OBJECTID":5486,"stname":"ARUNACHAL PRADESH","dtname":"Papum Pare","STCODE11":"12","DTCODE11":"248","SDTCODE11":"01596","NAME11":"Itanagar","LOC_NAME":"Itanagar"}},{"type":"Feature","id":5487,"geometry":{"type":"Point","coordinates":[93.693638026686202,27.105071398962437]},"properties":{"OBJECTID":5487,"stname":"ARUNACHAL PRADESH","dtname":"Papum Pare","STCODE11":"12","DTCODE11":"248","SDTCODE11":"01597","NAME11":"Naharlagun","LOC_NAME":"Naharlagun"}},{"type":"Feature","id":5488,"geometry":{"type":"Point","coordinates":[93.399125683282804,27.035897107395559]},"properties":{"OBJECTID":5488,"stname":"ARUNACHAL PRADESH","dtname":"Papum Pare","STCODE11":"12","DTCODE11":"248","SDTCODE11":"01594","NAME11":"Sangdupota (Besar Nello)","LOC_NAME":"Sangdupota (Besar Nello)"}},{"type":"Feature","id":5489,"geometry":{"type":"Point","coordinates":[93.420064975974398,27.002822608797629]},"properties":{"OBJECTID":5489,"stname":"ARUNACHAL PRADESH","dtname":"Papum Pare","STCODE11":"12","DTCODE11":"248","SDTCODE11":"01595","NAME11":"Taraso","LOC_NAME":"Taraso"}},{"type":"Feature","id":5490,"geometry":{"type":"Point","coordinates":[93.752072396567385,27.145615546860913]},"properties":{"OBJECTID":5490,"stname":"ARUNACHAL PRADESH","dtname":"Papum Pare","STCODE11":"12","DTCODE11":"248","SDTCODE11":"01598","NAME11":"Doimukh","LOC_NAME":"Doimukh"}},{"type":"Feature","id":5491,"geometry":{"type":"Point","coordinates":[93.491057585118426,27.24544465881069]},"properties":{"OBJECTID":5491,"stname":"ARUNACHAL PRADESH","dtname":"Papum Pare","STCODE11":"12","DTCODE11":"248","SDTCODE11":"01601","NAME11":"Sagalee","LOC_NAME":"Sagalee"}},{"type":"Feature","id":5492,"geometry":{"type":"Point","coordinates":[93.965631996333684,27.306198158689103]},"properties":{"OBJECTID":5492,"stname":"ARUNACHAL PRADESH","dtname":"Papum Pare","STCODE11":"12","DTCODE11":"248","SDTCODE11":"01605","NAME11":"Kimin","LOC_NAME":"Kimin"}},{"type":"Feature","id":5493,"geometry":{"type":"Point","coordinates":[93.825854319584366,27.594253034644204]},"properties":{"OBJECTID":5493,"stname":"ARUNACHAL PRADESH","dtname":"Lower Subansiri","STCODE11":"12","DTCODE11":"255","SDTCODE11":"01607","NAME11":"Ziro (Sadar)","LOC_NAME":"Ziro (Sadar)"}},{"type":"Feature","id":5494,"geometry":{"type":"Point","coordinates":[93.743037798108176,27.404774376241498]},"properties":{"OBJECTID":5494,"stname":"ARUNACHAL PRADESH","dtname":"Lower Subansiri","STCODE11":"12","DTCODE11":"255","SDTCODE11":"01610","NAME11":"Yazali","LOC_NAME":"Yazali"}},{"type":"Feature","id":5495,"geometry":{"type":"Point","coordinates":[93.663849347485709,27.516037972253745]},"properties":{"OBJECTID":5495,"stname":"ARUNACHAL PRADESH","dtname":"Lower Subansiri","STCODE11":"12","DTCODE11":"255","SDTCODE11":"01611","NAME11":"Pistana","LOC_NAME":"Pistana"}},{"type":"Feature","id":5496,"geometry":{"type":"Point","coordinates":[94.075684486806807,27.792722608665677]},"properties":{"OBJECTID":5496,"stname":"ARUNACHAL PRADESH","dtname":"Kamle","STCODE11":"12","DTCODE11":"778","SDTCODE11":"01614","NAME11":"Raga","LOC_NAME":"Raga"}},{"type":"Feature","id":5497,"geometry":{"type":"Point","coordinates":[94.208789111113063,27.501694659778284]},"properties":{"OBJECTID":5497,"stname":"ARUNACHAL PRADESH","dtname":"Papum Pare","STCODE11":"12","DTCODE11":"248","SDTCODE11":"01606","NAME11":"Kakoi","LOC_NAME":"Kakoi"}},{"type":"Feature","id":5498,"geometry":{"type":"Point","coordinates":[93.62733991440227,27.826409601086169]},"properties":{"OBJECTID":5498,"stname":"ARUNACHAL PRADESH","dtname":"Kra Daadi","STCODE11":"12","DTCODE11":"763","SDTCODE11":"01616","NAME11":"Yangte","LOC_NAME":"Yangte"}},{"type":"Feature","id":5499,"geometry":{"type":"Point","coordinates":[93.344464182797665,28.105050558825823]},"properties":{"OBJECTID":5499,"stname":"ARUNACHAL PRADESH","dtname":"Kurung Kumey","STCODE11":"12","DTCODE11":"256","SDTCODE11":"01626","NAME11":"Damin","LOC_NAME":"Damin"}},{"type":"Feature","id":5500,"geometry":{"type":"Point","coordinates":[93.32867371261608,28.423185432920487]},"properties":{"OBJECTID":5500,"stname":"ARUNACHAL PRADESH","dtname":"Upper Subansiri","STCODE11":"12","DTCODE11":"249","SDTCODE11":"01629","NAME11":"Taksing","LOC_NAME":"Taksing"}},{"type":"Feature","id":5501,"geometry":{"type":"Point","coordinates":[94.042274249538423,28.34918404997973]},"properties":{"OBJECTID":5501,"stname":"ARUNACHAL PRADESH","dtname":"Upper Subansiri","STCODE11":"12","DTCODE11":"249","SDTCODE11":"01632","NAME11":"Siyum","LOC_NAME":"Siyum"}},{"type":"Feature","id":5502,"geometry":{"type":"Point","coordinates":[93.859531644851373,28.388207210545072]},"properties":{"OBJECTID":5502,"stname":"ARUNACHAL PRADESH","dtname":"Upper Subansiri","STCODE11":"12","DTCODE11":"249","SDTCODE11":"01631","NAME11":"Nacho","LOC_NAME":"Nacho"}},{"type":"Feature","id":5503,"geometry":{"type":"Point","coordinates":[94.146668782042909,28.232805034103404]},"properties":{"OBJECTID":5503,"stname":"ARUNACHAL PRADESH","dtname":"Upper Subansiri","STCODE11":"12","DTCODE11":"249","SDTCODE11":"01633","NAME11":"Taliha","LOC_NAME":"Taliha"}},{"type":"Feature","id":5504,"geometry":{"type":"Point","coordinates":[94.026437087623307,28.070542228759223]},"properties":{"OBJECTID":5504,"stname":"ARUNACHAL PRADESH","dtname":"Upper Subansiri","STCODE11":"12","DTCODE11":"249","SDTCODE11":"01636","NAME11":"Chetam (Peer Yapu)","LOC_NAME":"Chetam (Peer Yapu)"}},{"type":"Feature","id":5505,"geometry":{"type":"Point","coordinates":[94.222255908250887,27.988877745701146]},"properties":{"OBJECTID":5505,"stname":"ARUNACHAL PRADESH","dtname":"Upper Subansiri","STCODE11":"12","DTCODE11":"249","SDTCODE11":"01637","NAME11":"Daporijo","LOC_NAME":"Daporijo"}},{"type":"Feature","id":5506,"geometry":{"type":"Point","coordinates":[94.419593402731465,27.980832546144008]},"properties":{"OBJECTID":5506,"stname":"ARUNACHAL PRADESH","dtname":"Upper Subansiri","STCODE11":"12","DTCODE11":"249","SDTCODE11":"01643","NAME11":"Maro","LOC_NAME":"Maro"}},{"type":"Feature","id":5507,"geometry":{"type":"Point","coordinates":[94.352055714170177,28.176699873694979]},"properties":{"OBJECTID":5507,"stname":"ARUNACHAL PRADESH","dtname":"Upper Subansiri","STCODE11":"12","DTCODE11":"249","SDTCODE11":"01641","NAME11":"Gite-Ripa","LOC_NAME":"Gite-Ripa"}},{"type":"Feature","id":5508,"geometry":{"type":"Point","coordinates":[94.430262905363364,27.939981959587971]},"properties":{"OBJECTID":5508,"stname":"ARUNACHAL PRADESH","dtname":"Upper Subansiri","STCODE11":"12","DTCODE11":"249","SDTCODE11":"01642","NAME11":"Baririjo","LOC_NAME":"Baririjo"}},{"type":"Feature","id":5509,"geometry":{"type":"Point","coordinates":[94.280118916373709,27.980908689247986]},"properties":{"OBJECTID":5509,"stname":"ARUNACHAL PRADESH","dtname":"Upper Subansiri","STCODE11":"12","DTCODE11":"249","SDTCODE11":"01639","NAME11":"Dumporijo","LOC_NAME":"Dumporijo"}},{"type":"Feature","id":5510,"geometry":{"type":"Point","coordinates":[94.882373954752396,28.308606983284832]},"properties":{"OBJECTID":5510,"stname":"ARUNACHAL PRADESH","dtname":"Siang","STCODE11":"12","DTCODE11":"764","SDTCODE11":"01652","NAME11":"Rumgong","LOC_NAME":"Rumgong"}},{"type":"Feature","id":5511,"geometry":{"type":"Point","coordinates":[94.675075311580798,28.261779191159196]},"properties":{"OBJECTID":5511,"stname":"ARUNACHAL PRADESH","dtname":"Siang","STCODE11":"12","DTCODE11":"764","SDTCODE11":"01651","NAME11":"Kamba","LOC_NAME":"Kamba"}},{"type":"Feature","id":5512,"geometry":{"type":"Point","coordinates":[94.570610126579226,28.127654189278974]},"properties":{"OBJECTID":5512,"stname":"ARUNACHAL PRADESH","dtname":"West Siang","STCODE11":"12","DTCODE11":"250","SDTCODE11":"01655","NAME11":"Yomcha","LOC_NAME":"Yomcha"}},{"type":"Feature","id":5513,"geometry":{"type":"Point","coordinates":[94.686179730862563,27.970009880486312]},"properties":{"OBJECTID":5513,"stname":"ARUNACHAL PRADESH","dtname":"Lepa Rada","STCODE11":"12","DTCODE11":"784","SDTCODE11":"01658","NAME11":"Basar","LOC_NAME":"Basar"}},{"type":"Feature","id":5514,"geometry":{"type":"Point","coordinates":[94.62600266705941,27.841564057264932]},"properties":{"OBJECTID":5514,"stname":"ARUNACHAL PRADESH","dtname":"Lower Siang","STCODE11":"12","DTCODE11":"779","SDTCODE11":"01661","NAME11":"Sibe","LOC_NAME":"Sibe"}},{"type":"Feature","id":5515,"geometry":{"type":"Point","coordinates":[94.46468426924757,27.570104738157998]},"properties":{"OBJECTID":5515,"stname":"ARUNACHAL PRADESH","dtname":"Lower Siang","STCODE11":"12","DTCODE11":"779","SDTCODE11":"01663","NAME11":"Kangku","LOC_NAME":"Kangku"}},{"type":"Feature","id":5516,"geometry":{"type":"Point","coordinates":[95.154270927908755,28.142374410323185]},"properties":{"OBJECTID":5516,"stname":"ARUNACHAL PRADESH","dtname":"Siang","STCODE11":"12","DTCODE11":"764","SDTCODE11":"01668","NAME11":"Kebang","LOC_NAME":"Kebang"}},{"type":"Feature","id":5517,"geometry":{"type":"Point","coordinates":[95.003659483493038,28.290518760569473]},"properties":{"OBJECTID":5517,"stname":"ARUNACHAL PRADESH","dtname":"Siang","STCODE11":"12","DTCODE11":"764","SDTCODE11":"01669","NAME11":"Rebo-Perging","LOC_NAME":"Rebo-Perging"}},{"type":"Feature","id":5518,"geometry":{"type":"Point","coordinates":[95.062583881666782,27.943288363178407]},"properties":{"OBJECTID":5518,"stname":"ARUNACHAL PRADESH","dtname":"Lower Siang","STCODE11":"12","DTCODE11":"779","SDTCODE11":"01671","NAME11":"Kora","LOC_NAME":"Kora"}},{"type":"Feature","id":5519,"geometry":{"type":"Point","coordinates":[94.904771020910658,27.757736957944886]},"properties":{"OBJECTID":5519,"stname":"ARUNACHAL PRADESH","dtname":"Lower Siang","STCODE11":"12","DTCODE11":"779","SDTCODE11":"01673","NAME11":"New Seren","LOC_NAME":"New Seren"}},{"type":"Feature","id":5520,"geometry":{"type":"Point","coordinates":[95.487009794535354,27.926302960090659]},"properties":{"OBJECTID":5520,"stname":"ARUNACHAL PRADESH","dtname":"East Siang","STCODE11":"12","DTCODE11":"251","SDTCODE11":"01679","NAME11":"Namsing","LOC_NAME":"Namsing"}},{"type":"Feature","id":5521,"geometry":{"type":"Point","coordinates":[94.951252965475149,29.090478501155388]},"properties":{"OBJECTID":5521,"stname":"ARUNACHAL PRADESH","dtname":"Upper Siang","STCODE11":"12","DTCODE11":"252","SDTCODE11":"01683","NAME11":"Gelling","LOC_NAME":"Gelling"}},{"type":"Feature","id":5522,"geometry":{"type":"Point","coordinates":[95.165541626247929,28.832752651045272]},"properties":{"OBJECTID":5522,"stname":"ARUNACHAL PRADESH","dtname":"Upper Siang","STCODE11":"12","DTCODE11":"252","SDTCODE11":"01684","NAME11":"Singa","LOC_NAME":"Singa"}},{"type":"Feature","id":5523,"geometry":{"type":"Point","coordinates":[94.91075484005367,28.650619223160962]},"properties":{"OBJECTID":5523,"stname":"ARUNACHAL PRADESH","dtname":"Upper Siang","STCODE11":"12","DTCODE11":"252","SDTCODE11":"01686","NAME11":"Jengging","LOC_NAME":"Jengging"}},{"type":"Feature","id":5524,"geometry":{"type":"Point","coordinates":[95.270133142226214,28.377764457317941]},"properties":{"OBJECTID":5524,"stname":"ARUNACHAL PRADESH","dtname":"Upper Siang","STCODE11":"12","DTCODE11":"252","SDTCODE11":"01689","NAME11":"Mopom ( Adipasi )","LOC_NAME":"Mopom ( Adipasi )"}},{"type":"Feature","id":5525,"geometry":{"type":"Point","coordinates":[95.858626988480509,28.398909952188443]},"properties":{"OBJECTID":5525,"stname":"ARUNACHAL PRADESH","dtname":"Upper Dibang Valley","STCODE11":"12","DTCODE11":"257","SDTCODE11":"01695","NAME11":"Kronli (Arzoo circle)","LOC_NAME":"Kronli (Arzoo circle)"}},{"type":"Feature","id":5526,"geometry":{"type":"Point","coordinates":[95.971053890641258,28.309889797678625]},"properties":{"OBJECTID":5526,"stname":"ARUNACHAL PRADESH","dtname":"Lower Dibang Valley","STCODE11":"12","DTCODE11":"258","SDTCODE11":"01696","NAME11":"Hunli","LOC_NAME":"Hunli"}},{"type":"Feature","id":5527,"geometry":{"type":"Point","coordinates":[96.086648109661667,28.327022182737952]},"properties":{"OBJECTID":5527,"stname":"ARUNACHAL PRADESH","dtname":"Lower Dibang Valley","STCODE11":"12","DTCODE11":"258","SDTCODE11":"01697","NAME11":"Desali","LOC_NAME":"Desali"}},{"type":"Feature","id":5528,"geometry":{"type":"Point","coordinates":[95.521574385808435,27.951067377298095]},"properties":{"OBJECTID":5528,"stname":"ARUNACHAL PRADESH","dtname":"Lower Dibang Valley","STCODE11":"12","DTCODE11":"258","SDTCODE11":"01700","NAME11":"Tinali ( Paglam )","LOC_NAME":"Tinali ( Paglam )"}},{"type":"Feature","id":5529,"geometry":{"type":"Point","coordinates":[95.932740824621931,28.058499824946846]},"properties":{"OBJECTID":5529,"stname":"ARUNACHAL PRADESH","dtname":"Lower Dibang Valley","STCODE11":"12","DTCODE11":"258","SDTCODE11":"01701","NAME11":"Koronu","LOC_NAME":"Koronu"}},{"type":"Feature","id":5530,"geometry":{"type":"Point","coordinates":[95.804519275113506,27.683219676920903]},"properties":{"OBJECTID":5530,"stname":"ARUNACHAL PRADESH","dtname":"Namsai","STCODE11":"12","DTCODE11":"762","SDTCODE11":"01709","NAME11":"Lekang (Mahadevpur)","LOC_NAME":"Lekang (Mahadevpur)"}},{"type":"Feature","id":5531,"geometry":{"type":"Point","coordinates":[95.912308804283043,27.743717922362023]},"properties":{"OBJECTID":5531,"stname":"ARUNACHAL PRADESH","dtname":"Namsai","STCODE11":"12","DTCODE11":"762","SDTCODE11":"01707","NAME11":"Lathao","LOC_NAME":"Lathao"}},{"type":"Feature","id":5532,"geometry":{"type":"Point","coordinates":[95.926633055037684,27.636962631500133]},"properties":{"OBJECTID":5532,"stname":"ARUNACHAL PRADESH","dtname":"Namsai","STCODE11":"12","DTCODE11":"762","SDTCODE11":"01708","NAME11":"Piyong","LOC_NAME":"Piyong"}},{"type":"Feature","id":5533,"geometry":{"type":"Point","coordinates":[96.610644754672606,28.319303291144628]},"properties":{"OBJECTID":5533,"stname":"ARUNACHAL PRADESH","dtname":"Anjaw","STCODE11":"12","DTCODE11":"260","SDTCODE11":"01713","NAME11":"Chaglagam","LOC_NAME":"Chaglagam"}},{"type":"Feature","id":5534,"geometry":{"type":"Point","coordinates":[96.531168749734448,28.20853894992975]},"properties":{"OBJECTID":5534,"stname":"ARUNACHAL PRADESH","dtname":"Anjaw","STCODE11":"12","DTCODE11":"260","SDTCODE11":"01714","NAME11":"Metengliang","LOC_NAME":"Metengliang"}},{"type":"Feature","id":5535,"geometry":{"type":"Point","coordinates":[97.07078699692488,28.255630889455649]},"properties":{"OBJECTID":5535,"stname":"ARUNACHAL PRADESH","dtname":"Anjaw","STCODE11":"12","DTCODE11":"260","SDTCODE11":"01715","NAME11":"Kibithoo","LOC_NAME":"Kibithoo"}},{"type":"Feature","id":5536,"geometry":{"type":"Point","coordinates":[96.828744252136929,27.887518322208333]},"properties":{"OBJECTID":5536,"stname":"ARUNACHAL PRADESH","dtname":"Anjaw","STCODE11":"12","DTCODE11":"260","SDTCODE11":"01717","NAME11":"Hawai","LOC_NAME":"Hawai"}},{"type":"Feature","id":5537,"geometry":{"type":"Point","coordinates":[95.71204800501836,27.106817434824446]},"properties":{"OBJECTID":5537,"stname":"ARUNACHAL PRADESH","dtname":"Changlang","STCODE11":"12","DTCODE11":"253","SDTCODE11":"01719","NAME11":"Yatdam","LOC_NAME":"Yatdam"}},{"type":"Feature","id":5538,"geometry":{"type":"Point","coordinates":[95.688372187951472,27.225076589863935]},"properties":{"OBJECTID":5538,"stname":"ARUNACHAL PRADESH","dtname":"Changlang","STCODE11":"12","DTCODE11":"253","SDTCODE11":"01721","NAME11":"Namtok","LOC_NAME":"Namtok"}},{"type":"Feature","id":5539,"geometry":{"type":"Point","coordinates":[95.883942556131018,27.167270901321928]},"properties":{"OBJECTID":5539,"stname":"ARUNACHAL PRADESH","dtname":"Changlang","STCODE11":"12","DTCODE11":"253","SDTCODE11":"01723","NAME11":"Renuk","LOC_NAME":"Renuk"}},{"type":"Feature","id":5540,"geometry":{"type":"Point","coordinates":[96.328826571922733,27.360972247103863]},"properties":{"OBJECTID":5540,"stname":"ARUNACHAL PRADESH","dtname":"Changlang","STCODE11":"12","DTCODE11":"253","SDTCODE11":"01725","NAME11":"Nampong","LOC_NAME":"Nampong"}},{"type":"Feature","id":5541,"geometry":{"type":"Point","coordinates":[95.910354535552131,27.246982852813865]},"properties":{"OBJECTID":5541,"stname":"ARUNACHAL PRADESH","dtname":"Changlang","STCODE11":"12","DTCODE11":"253","SDTCODE11":"01724","NAME11":"Lyngok-Longtoi","LOC_NAME":"Lyngok-Longtoi"}},{"type":"Feature","id":5542,"geometry":{"type":"Point","coordinates":[96.100900721569005,27.547216023357436]},"properties":{"OBJECTID":5542,"stname":"ARUNACHAL PRADESH","dtname":"Changlang","STCODE11":"12","DTCODE11":"253","SDTCODE11":"01731","NAME11":"Diyun","LOC_NAME":"Diyun"}},{"type":"Feature","id":5543,"geometry":{"type":"Point","coordinates":[95.60535325178725,27.200561984156788]},"properties":{"OBJECTID":5543,"stname":"ARUNACHAL PRADESH","dtname":"Tirap","STCODE11":"12","DTCODE11":"254","SDTCODE11":"01734","NAME11":"Soha","LOC_NAME":"Soha"}},{"type":"Feature","id":5544,"geometry":{"type":"Point","coordinates":[95.467234738214913,26.914675038137464]},"properties":{"OBJECTID":5544,"stname":"ARUNACHAL PRADESH","dtname":"Tirap","STCODE11":"12","DTCODE11":"254","SDTCODE11":"01736","NAME11":"Dadam","LOC_NAME":"Dadam"}},{"type":"Feature","id":5545,"geometry":{"type":"Point","coordinates":[95.322313690831038,27.05716648958526]},"properties":{"OBJECTID":5545,"stname":"ARUNACHAL PRADESH","dtname":"Longding","STCODE11":"12","DTCODE11":"761","SDTCODE11":"01738","NAME11":"Lawnu","LOC_NAME":"Lawnu"}}]}