{"type":"FeatureCollection","crs":{"type":"name","properties":{"name":"EPSG:4326"}},"features":[{"type":"Feature","id":4126,"geometry":{"type":"Point","coordinates":[75.652838106665811,32.27607288458394]},"properties":{"OBJECTID":4126,"stname":"PUNJAB","dtname":"Pathankot","STCODE11":"03","DTCODE11":"773","SDTCODE11":"00201","NAME11":"Pathankot","LOC_NAME":"Pathankot"}},{"type":"Feature","id":4127,"geometry":{"type":"Point","coordinates":[74.761290914949797,31.845242769610159]},"properties":{"OBJECTID":4127,"stname":"PUNJAB","dtname":"Amritsar","STCODE11":"03","DTCODE11":"049","SDTCODE11":"00255","NAME11":"Ajnala","LOC_NAME":"Ajnala"}},{"type":"Feature","id":4128,"geometry":{"type":"Point","coordinates":[74.856580957371023,31.281042779002519]},"properties":{"OBJECTID":4128,"stname":"PUNJAB","dtname":"Tarn Taran","STCODE11":"03","DTCODE11":"050","SDTCODE11":"00260","NAME11":"Patti","LOC_NAME":"Patti"}},{"type":"Feature","id":4129,"geometry":{"type":"Point","coordinates":[74.927793671725951,31.45383613612842]},"properties":{"OBJECTID":4129,"stname":"PUNJAB","dtname":"Tarn Taran","STCODE11":"03","DTCODE11":"050","SDTCODE11":"00259","NAME11":"Tarn Taran","LOC_NAME":"Tarn Taran"}},{"type":"Feature","id":4130,"geometry":{"type":"Point","coordinates":[75.193590988881724,31.213481067176765]},"properties":{"OBJECTID":4130,"stname":"PUNJAB","dtname":"Kapurthala","STCODE11":"03","DTCODE11":"036","SDTCODE11":"00207","NAME11":"Sultanpur Lodhi","LOC_NAME":"Sultanpur Lodhi"}},{"type":"Feature","id":4131,"geometry":{"type":"Point","coordinates":[75.203376724445533,31.80873264163321]},"properties":{"OBJECTID":4131,"stname":"PUNJAB","dtname":"Gurdaspur","STCODE11":"03","DTCODE11":"035","SDTCODE11":"00203","NAME11":"Batala","LOC_NAME":"Batala"}},{"type":"Feature","id":4132,"geometry":{"type":"Point","coordinates":[75.263319179737522,31.555156891416708]},"properties":{"OBJECTID":4132,"stname":"PUNJAB","dtname":"Amritsar","STCODE11":"03","DTCODE11":"049","SDTCODE11":"00258","NAME11":"Baba Bakala","LOC_NAME":"Baba Bakala"}},{"type":"Feature","id":4133,"geometry":{"type":"Point","coordinates":[75.477827842414968,31.125995379326145]},"properties":{"OBJECTID":4133,"stname":"PUNJAB","dtname":"Jalandhar","STCODE11":"03","DTCODE11":"037","SDTCODE11":"00210","NAME11":"Nakodar","LOC_NAME":"Nakodar"}},{"type":"Feature","id":4134,"geometry":{"type":"Point","coordinates":[75.7894682483563,31.022304855714005]},"properties":{"OBJECTID":4134,"stname":"PUNJAB","dtname":"Jalandhar","STCODE11":"03","DTCODE11":"037","SDTCODE11":"00211","NAME11":"Phillaur","LOC_NAME":"Phillaur"}},{"type":"Feature","id":4135,"geometry":{"type":"Point","coordinates":[75.77311579392962,31.223539125539421]},"properties":{"OBJECTID":4135,"stname":"PUNJAB","dtname":"Kapurthala","STCODE11":"03","DTCODE11":"036","SDTCODE11":"00208","NAME11":"Phagwara","LOC_NAME":"Phagwara"}},{"type":"Feature","id":4136,"geometry":{"type":"Point","coordinates":[75.651470911227548,31.817634695965083]},"properties":{"OBJECTID":4136,"stname":"PUNJAB","dtname":"Hoshiarpur","STCODE11":"03","DTCODE11":"038","SDTCODE11":"00214","NAME11":"Dasua","LOC_NAME":"Dasua"}},{"type":"Feature","id":4137,"geometry":{"type":"Point","coordinates":[76.143334842780035,31.216111213249292]},"properties":{"OBJECTID":4137,"stname":"PUNJAB","dtname":"Hoshiarpur","STCODE11":"03","DTCODE11":"038","SDTCODE11":"00217","NAME11":"Garhshankar","LOC_NAME":"Garhshankar"}},{"type":"Feature","id":4138,"geometry":{"type":"Point","coordinates":[76.300592305738689,31.060583091889715]},"properties":{"OBJECTID":4138,"stname":"PUNJAB","dtname":"Shahid Bhagat Singh Nagar","STCODE11":"03","DTCODE11":"039","SDTCODE11":"00219","NAME11":"Balachaur","LOC_NAME":"Balachaur"}},{"type":"Feature","id":4139,"geometry":{"type":"Point","coordinates":[74.026733714613215,30.403360433557015]},"properties":{"OBJECTID":4139,"stname":"PUNJAB","dtname":"Fazilka","STCODE11":"03","DTCODE11":"701","SDTCODE11":"00237","NAME11":"Fazilka","LOC_NAME":"Fazilka"}},{"type":"Feature","id":4140,"geometry":{"type":"Point","coordinates":[74.987800655699729,30.969727279390007]},"properties":{"OBJECTID":4140,"stname":"PUNJAB","dtname":"Firozpur","STCODE11":"03","DTCODE11":"043","SDTCODE11":"00234","NAME11":"Zira","LOC_NAME":"Zira"}},{"type":"Feature","id":4141,"geometry":{"type":"Point","coordinates":[75.237446839867118,30.266881867664193]},"properties":{"OBJECTID":4141,"stname":"PUNJAB","dtname":"Bathinda","STCODE11":"03","DTCODE11":"046","SDTCODE11":"00244","NAME11":"Rampura Phul","LOC_NAME":"Rampura Phul"}},{"type":"Feature","id":4142,"geometry":{"type":"Point","coordinates":[75.370693085374555,30.299034987753565]},"properties":{"OBJECTID":4142,"stname":"PUNJAB","dtname":"Barnala","STCODE11":"03","DTCODE11":"054","SDTCODE11":"00276","NAME11":"Tapa","LOC_NAME":"Tapa"}},{"type":"Feature","id":4143,"geometry":{"type":"Point","coordinates":[75.883850366214816,30.528448043990853]},"properties":{"OBJECTID":4143,"stname":"PUNJAB","dtname":"Sangrur","STCODE11":"03","DTCODE11":"053","SDTCODE11":"00269","NAME11":"Malerkotla","LOC_NAME":"Malerkotla"}},{"type":"Feature","id":4144,"geometry":{"type":"Point","coordinates":[75.470300770614429,30.799360495558911]},"properties":{"OBJECTID":4144,"stname":"PUNJAB","dtname":"Ludhiana","STCODE11":"03","DTCODE11":"041","SDTCODE11":"00230","NAME11":"Jagraon","LOC_NAME":"Jagraon"}},{"type":"Feature","id":4145,"geometry":{"type":"Point","coordinates":[76.052118325100722,29.956608916012193]},"properties":{"OBJECTID":4145,"stname":"PUNJAB","dtname":"Patiala","STCODE11":"03","DTCODE11":"048","SDTCODE11":"00251","NAME11":"Patran","LOC_NAME":"Patran"}},{"type":"Feature","id":4146,"geometry":{"type":"Point","coordinates":[76.147256593561423,30.373398516917188]},"properties":{"OBJECTID":4146,"stname":"PUNJAB","dtname":"Patiala","STCODE11":"03","DTCODE11":"048","SDTCODE11":"00252","NAME11":"Nabha","LOC_NAME":"Nabha"}},{"type":"Feature","id":4147,"geometry":{"type":"Point","coordinates":[76.194268386938361,30.835261433595711]},"properties":{"OBJECTID":4147,"stname":"PUNJAB","dtname":"Ludhiana","STCODE11":"03","DTCODE11":"041","SDTCODE11":"00224","NAME11":"Samrala","LOC_NAME":"Samrala"}},{"type":"Feature","id":4148,"geometry":{"type":"Point","coordinates":[76.645232394609096,30.745100180843039]},"properties":{"OBJECTID":4148,"stname":"PUNJAB","dtname":"Sahibzada Ajit Singh Nag*","STCODE11":"03","DTCODE11":"052","SDTCODE11":"00266","NAME11":"Kharar","LOC_NAME":"Kharar"}},{"type":"Feature","id":4149,"geometry":{"type":"Point","coordinates":[76.598023771370251,30.484461741644594]},"properties":{"OBJECTID":4149,"stname":"PUNJAB","dtname":"Patiala","STCODE11":"03","DTCODE11":"048","SDTCODE11":"00254","NAME11":"Rajpura","LOC_NAME":"Rajpura"}},{"type":"Feature","id":4150,"geometry":{"type":"Point","coordinates":[75.402694133660106,29.991092699869338]},"properties":{"OBJECTID":4150,"stname":"PUNJAB","dtname":"Mansa","STCODE11":"03","DTCODE11":"047","SDTCODE11":"00249","NAME11":"Mansa","LOC_NAME":"Mansa"}},{"type":"Feature","id":4151,"geometry":{"type":"Point","coordinates":[76.374894371271509,31.392602949965212]},"properties":{"OBJECTID":4151,"stname":"PUNJAB","dtname":"Rupnagar","STCODE11":"03","DTCODE11":"051","SDTCODE11":"00263","NAME11":"Nangal","LOC_NAME":"Nangal"}},{"type":"Feature","id":4152,"geometry":{"type":"Point","coordinates":[75.867578364904972,30.370550277037182]},"properties":{"OBJECTID":4152,"stname":"PUNJAB","dtname":"Sangrur","STCODE11":"03","DTCODE11":"053","SDTCODE11":"00270","NAME11":"Dhuri","LOC_NAME":"Dhuri"}},{"type":"Feature","id":4153,"geometry":{"type":"Point","coordinates":[75.797102481983714,30.128535241788189]},"properties":{"OBJECTID":4153,"stname":"PUNJAB","dtname":"Sangrur","STCODE11":"03","DTCODE11":"053","SDTCODE11":"00272","NAME11":"Sunam","LOC_NAME":"Sunam"}},{"type":"Feature","id":4154,"geometry":{"type":"Point","coordinates":[76.230371664732402,30.609425109826137]},"properties":{"OBJECTID":4154,"stname":"PUNJAB","dtname":"Fatehgarh Sahib","STCODE11":"03","DTCODE11":"040","SDTCODE11":"00222","NAME11":"Amloh","LOC_NAME":"Amloh"}},{"type":"Feature","id":4155,"geometry":{"type":"Point","coordinates":[75.029296346769499,32.032366961600438]},"properties":{"OBJECTID":4155,"stname":"PUNJAB","dtname":"Gurdaspur","STCODE11":"03","DTCODE11":"035","SDTCODE11":"00204","NAME11":"Dera Baba Nanak","LOC_NAME":"Dera Baba Nanak"}},{"type":"Feature","id":4156,"geometry":{"type":"Point","coordinates":[75.615992962380915,31.9546364593592]},"properties":{"OBJECTID":4156,"stname":"PUNJAB","dtname":"Hoshiarpur","STCODE11":"03","DTCODE11":"038","SDTCODE11":"00215","NAME11":"Mukerian","LOC_NAME":"Mukerian"}},{"type":"Feature","id":4157,"geometry":{"type":"Point","coordinates":[74.19543878652982,30.145010868870845]},"properties":{"OBJECTID":4157,"stname":"PUNJAB","dtname":"Fazilka","STCODE11":"03","DTCODE11":"701","SDTCODE11":"00238","NAME11":"Abohar","LOC_NAME":"Abohar"}},{"type":"Feature","id":4158,"geometry":{"type":"Point","coordinates":[74.882865623956803,30.447760370654258]},"properties":{"OBJECTID":4158,"stname":"PUNJAB","dtname":"Faridkot","STCODE11":"03","DTCODE11":"045","SDTCODE11":"00243","NAME11":"Jaitu","LOC_NAME":"Jaitu"}},{"type":"Feature","id":4159,"geometry":{"type":"Point","coordinates":[74.481850575451944,30.211411496476529]},"properties":{"OBJECTID":4159,"stname":"PUNJAB","dtname":"Sri Muktsar Sahib","STCODE11":"03","DTCODE11":"044","SDTCODE11":"00239","NAME11":"Malout","LOC_NAME":"Malout"}},{"type":"Feature","id":4160,"geometry":{"type":"Point","coordinates":[74.255792447439717,30.607883216399806]},"properties":{"OBJECTID":4160,"stname":"PUNJAB","dtname":"Fazilka","STCODE11":"03","DTCODE11":"701","SDTCODE11":"00236","NAME11":"Jalalabad","LOC_NAME":"Jalalabad"}},{"type":"Feature","id":4161,"geometry":{"type":"Point","coordinates":[75.598588553807048,30.646987977702185]},"properties":{"OBJECTID":4161,"stname":"PUNJAB","dtname":"Ludhiana","STCODE11":"03","DTCODE11":"041","SDTCODE11":"00229","NAME11":"Raikot","LOC_NAME":"Raikot"}},{"type":"Feature","id":4162,"geometry":{"type":"Point","coordinates":[75.276366704386149,30.585758820402528]},"properties":{"OBJECTID":4162,"stname":"PUNJAB","dtname":"Moga","STCODE11":"03","DTCODE11":"042","SDTCODE11":"00231","NAME11":"Nihal Singhwala","LOC_NAME":"Nihal Singhwala"}},{"type":"Feature","id":4163,"geometry":{"type":"Point","coordinates":[76.35392286589213,30.816049814402351]},"properties":{"OBJECTID":4163,"stname":"PUNJAB","dtname":"Fatehgarh Sahib","STCODE11":"03","DTCODE11":"040","SDTCODE11":"00223","NAME11":"Khamanon","LOC_NAME":"Khamanon"}},{"type":"Feature","id":4164,"geometry":{"type":"Point","coordinates":[76.845337344256819,30.587390640997302]},"properties":{"OBJECTID":4164,"stname":"PUNJAB","dtname":"Sahibzada Ajit Singh Nag*","STCODE11":"03","DTCODE11":"052","SDTCODE11":"00268","NAME11":"Dera Bassi","LOC_NAME":"Dera Bassi"}},{"type":"Feature","id":4165,"geometry":{"type":"Point","coordinates":[76.225231849629708,30.700700784699752]},"properties":{"OBJECTID":4165,"stname":"PUNJAB","dtname":"Ludhiana","STCODE11":"03","DTCODE11":"041","SDTCODE11":"00225","NAME11":"Khanna","LOC_NAME":"Khanna"}},{"type":"Feature","id":4166,"geometry":{"type":"Point","coordinates":[75.081173632219205,29.984044676022815]},"properties":{"OBJECTID":4166,"stname":"PUNJAB","dtname":"Bathinda","STCODE11":"03","DTCODE11":"046","SDTCODE11":"00246","NAME11":"Talwandi Sabo","LOC_NAME":"Talwandi Sabo"}},{"type":"Feature","id":4167,"geometry":{"type":"Point","coordinates":[75.552226890065853,29.92305043012302]},"properties":{"OBJECTID":4167,"stname":"PUNJAB","dtname":"Mansa","STCODE11":"03","DTCODE11":"047","SDTCODE11":"00248","NAME11":"Budhlada","LOC_NAME":"Budhlada"}},{"type":"Feature","id":4168,"geometry":{"type":"Point","coordinates":[75.238440695473301,29.692434142463931]},"properties":{"OBJECTID":4168,"stname":"PUNJAB","dtname":"Mansa","STCODE11":"03","DTCODE11":"047","SDTCODE11":"00247","NAME11":"Sardulgarh","LOC_NAME":"Sardulgarh"}},{"type":"Feature","id":4169,"geometry":{"type":"Point","coordinates":[74.661844080248045,30.201542417936608]},"properties":{"OBJECTID":4169,"stname":"PUNJAB","dtname":"Sri Muktsar Sahib","STCODE11":"03","DTCODE11":"044","SDTCODE11":"00240","NAME11":"Gidderbaha","LOC_NAME":"Gidderbaha"}},{"type":"Feature","id":4170,"geometry":{"type":"Point","coordinates":[76.399518642191779,30.690975216276215]},"properties":{"OBJECTID":4170,"stname":"PUNJAB","dtname":"Fatehgarh Sahib","STCODE11":"03","DTCODE11":"040","SDTCODE11":"00220","NAME11":"Bassi Pathana","LOC_NAME":"Bassi Pathana"}},{"type":"Feature","id":4171,"geometry":{"type":"Point","coordinates":[76.384411300359574,30.641659121638632]},"properties":{"OBJECTID":4171,"stname":"PUNJAB","dtname":"Fatehgarh Sahib","STCODE11":"03","DTCODE11":"040","SDTCODE11":"00221","NAME11":"Fatehgarh Sahib","LOC_NAME":"Fatehgarh Sahib"}},{"type":"Feature","id":4172,"geometry":{"type":"Point","coordinates":[75.400329841494184,32.042900454777929]},"properties":{"OBJECTID":4172,"stname":"PUNJAB","dtname":"Gurdaspur","STCODE11":"03","DTCODE11":"035","SDTCODE11":"00202","NAME11":"Gurdaspur","LOC_NAME":"Gurdaspur"}},{"type":"Feature","id":4173,"geometry":{"type":"Point","coordinates":[74.846012528683303,31.647403623242933]},"properties":{"OBJECTID":4173,"stname":"PUNJAB","dtname":"Amritsar","STCODE11":"03","DTCODE11":"049","SDTCODE11":"00256","NAME11":"Amritsar -I","LOC_NAME":"Amritsar -I"}},{"type":"Feature","id":4174,"geometry":{"type":"Point","coordinates":[74.618344440018888,30.939338044795871]},"properties":{"OBJECTID":4174,"stname":"PUNJAB","dtname":"Firozpur","STCODE11":"03","DTCODE11":"043","SDTCODE11":"00235","NAME11":"Firozpur","LOC_NAME":"Firozpur"}},{"type":"Feature","id":4175,"geometry":{"type":"Point","coordinates":[74.757636985192278,30.673176146330096]},"properties":{"OBJECTID":4175,"stname":"PUNJAB","dtname":"Faridkot","STCODE11":"03","DTCODE11":"045","SDTCODE11":"00242","NAME11":"Faridkot","LOC_NAME":"Faridkot"}},{"type":"Feature","id":4176,"geometry":{"type":"Point","coordinates":[74.941220004251818,30.213032477765999]},"properties":{"OBJECTID":4176,"stname":"PUNJAB","dtname":"Bathinda","STCODE11":"03","DTCODE11":"046","SDTCODE11":"00245","NAME11":"Bathinda","LOC_NAME":"Bathinda"}},{"type":"Feature","id":4177,"geometry":{"type":"Point","coordinates":[75.913351671660948,31.534852370652438]},"properties":{"OBJECTID":4177,"stname":"PUNJAB","dtname":"Hoshiarpur","STCODE11":"03","DTCODE11":"038","SDTCODE11":"00216","NAME11":"Hoshiarpur","LOC_NAME":"Hoshiarpur"}},{"type":"Feature","id":4178,"geometry":{"type":"Point","coordinates":[75.384680445439741,31.379386804184495]},"properties":{"OBJECTID":4178,"stname":"PUNJAB","dtname":"Kapurthala","STCODE11":"03","DTCODE11":"036","SDTCODE11":"00206","NAME11":"Kapurthala","LOC_NAME":"Kapurthala"}},{"type":"Feature","id":4179,"geometry":{"type":"Point","coordinates":[75.580676257534478,31.339481871271602]},"properties":{"OBJECTID":4179,"stname":"PUNJAB","dtname":"Jalandhar","STCODE11":"03","DTCODE11":"037","SDTCODE11":"00212","NAME11":"Jalandhar - I","LOC_NAME":"Jalandhar - I"}},{"type":"Feature","id":4180,"geometry":{"type":"Point","coordinates":[75.860747816233044,30.909563102146109]},"properties":{"OBJECTID":4180,"stname":"PUNJAB","dtname":"Ludhiana","STCODE11":"03","DTCODE11":"041","SDTCODE11":"00227","NAME11":"Ludhiana (East)","LOC_NAME":"Ludhiana (East)"}},{"type":"Feature","id":4181,"geometry":{"type":"Point","coordinates":[75.845107814759857,30.244721775098927]},"properties":{"OBJECTID":4181,"stname":"PUNJAB","dtname":"Sangrur","STCODE11":"03","DTCODE11":"053","SDTCODE11":"00271","NAME11":"Sangrur","LOC_NAME":"Sangrur"}},{"type":"Feature","id":4182,"geometry":{"type":"Point","coordinates":[76.414538729762128,30.896925566396245]},"properties":{"OBJECTID":4182,"stname":"PUNJAB","dtname":"Rupnagar","STCODE11":"03","DTCODE11":"051","SDTCODE11":"00265","NAME11":"Chamkaur Sahib","LOC_NAME":"Chamkaur Sahib"}},{"type":"Feature","id":4183,"geometry":{"type":"Point","coordinates":[76.404544730579474,30.325461532869827]},"properties":{"OBJECTID":4183,"stname":"PUNJAB","dtname":"Patiala","STCODE11":"03","DTCODE11":"048","SDTCODE11":"00253","NAME11":"Patiala","LOC_NAME":"Patiala"}},{"type":"Feature","id":4184,"geometry":{"type":"Point","coordinates":[74.517466582781339,30.474886223165036]},"properties":{"OBJECTID":4184,"stname":"PUNJAB","dtname":"Sri Muktsar Sahib","STCODE11":"03","DTCODE11":"044","SDTCODE11":"00241","NAME11":"Muktsar","LOC_NAME":"Muktsar"}},{"type":"Feature","id":4185,"geometry":{"type":"Point","coordinates":[75.172364838967098,30.814513501181729]},"properties":{"OBJECTID":4185,"stname":"PUNJAB","dtname":"Moga","STCODE11":"03","DTCODE11":"042","SDTCODE11":"00233","NAME11":"Moga","LOC_NAME":"Moga"}},{"type":"Feature","id":4186,"geometry":{"type":"Point","coordinates":[76.1164022141933,31.125644575172871]},"properties":{"OBJECTID":4186,"stname":"PUNJAB","dtname":"Shahid Bhagat Singh Nagar","STCODE11":"03","DTCODE11":"039","SDTCODE11":"00218","NAME11":"Nawanshahr","LOC_NAME":"Nawanshahr"}},{"type":"Feature","id":4187,"geometry":{"type":"Point","coordinates":[76.714410980902684,30.728439188368689]},"properties":{"OBJECTID":4187,"stname":"PUNJAB","dtname":"Sahibzada Ajit Singh Nag*","STCODE11":"03","DTCODE11":"052","SDTCODE11":"00267","NAME11":"SAS Nagar (Mohali)","LOC_NAME":"SAS Nagar (Mohali)"}},{"type":"Feature","id":4188,"geometry":{"type":"Point","coordinates":[75.797656773056744,32.412055577190479]},"properties":{"OBJECTID":4188,"stname":"PUNJAB","dtname":"Pathankot","STCODE11":"03","DTCODE11":"773","SDTCODE11":"00200","NAME11":"Dhar Kalan","LOC_NAME":"Dhar Kalan"}},{"type":"Feature","id":4189,"geometry":{"type":"Point","coordinates":[75.098782075143546,31.424281334985444]},"properties":{"OBJECTID":4189,"stname":"PUNJAB","dtname":"Tarn Taran","STCODE11":"03","DTCODE11":"050","SDTCODE11":"00261","NAME11":"Khadur Sahib","LOC_NAME":"Khadur Sahib"}},{"type":"Feature","id":4190,"geometry":{"type":"Point","coordinates":[75.506217332678332,31.542836041431496]},"properties":{"OBJECTID":4190,"stname":"PUNJAB","dtname":"Kapurthala","STCODE11":"03","DTCODE11":"036","SDTCODE11":"00205","NAME11":"Bhulath","LOC_NAME":"Bhulath"}},{"type":"Feature","id":4191,"geometry":{"type":"Point","coordinates":[75.341369649049639,31.082114346626874]},"properties":{"OBJECTID":4191,"stname":"PUNJAB","dtname":"Jalandhar","STCODE11":"03","DTCODE11":"037","SDTCODE11":"00209","NAME11":"Shahkot","LOC_NAME":"Shahkot"}},{"type":"Feature","id":4192,"geometry":{"type":"Point","coordinates":[76.061317425749664,30.721130269182837]},"properties":{"OBJECTID":4192,"stname":"PUNJAB","dtname":"Ludhiana","STCODE11":"03","DTCODE11":"041","SDTCODE11":"00226","NAME11":"Payal","LOC_NAME":"Payal"}},{"type":"Feature","id":4193,"geometry":{"type":"Point","coordinates":[75.097061182435226,30.687108989151298]},"properties":{"OBJECTID":4193,"stname":"PUNJAB","dtname":"Moga","STCODE11":"03","DTCODE11":"042","SDTCODE11":"00232","NAME11":"Bagha Purana","LOC_NAME":"Bagha Purana"}},{"type":"Feature","id":4194,"geometry":{"type":"Point","coordinates":[75.808904320014392,29.937547401487588]},"properties":{"OBJECTID":4194,"stname":"PUNJAB","dtname":"Sangrur","STCODE11":"03","DTCODE11":"053","SDTCODE11":"00273","NAME11":"Lehra","LOC_NAME":"Lehra"}},{"type":"Feature","id":4195,"geometry":{"type":"Point","coordinates":[74.882075411933968,31.625401681670688]},"properties":{"OBJECTID":4195,"stname":"PUNJAB","dtname":"Amritsar","STCODE11":"03","DTCODE11":"049","SDTCODE11":"00257","NAME11":"Amritsar- II","LOC_NAME":"Amritsar- II"}},{"type":"Feature","id":4196,"geometry":{"type":"Point","coordinates":[75.580676257534478,31.339481871271602]},"properties":{"OBJECTID":4196,"stname":"PUNJAB","dtname":"Jalandhar","STCODE11":"03","DTCODE11":"037","SDTCODE11":"00213","NAME11":"Jalandhar - II","LOC_NAME":"Jalandhar - II"}},{"type":"Feature","id":4197,"geometry":{"type":"Point","coordinates":[75.847327817728228,30.917766776128172]},"properties":{"OBJECTID":4197,"stname":"PUNJAB","dtname":"Ludhiana","STCODE11":"03","DTCODE11":"041","SDTCODE11":"00228","NAME11":"Ludhiana (West)","LOC_NAME":"Ludhiana (West)"}},{"type":"Feature","id":5392,"geometry":{"type":"Point","coordinates":[76.194600444691545,30.155603241795308]},"properties":{"OBJECTID":5392,"stname":"PUNJAB","dtname":"Patiala","STCODE11":"03","DTCODE11":"048","SDTCODE11":"00250","NAME11":"Samana","LOC_NAME":"Samana"}},{"type":"Feature","id":5393,"geometry":{"type":"Point","coordinates":[76.50056190442595,31.23761642638744]},"properties":{"OBJECTID":5393,"stname":"PUNJAB","dtname":"Rupnagar","STCODE11":"03","DTCODE11":"051","SDTCODE11":"00262","NAME11":"Anandpur Sahib","LOC_NAME":"Anandpur Sahib"}},{"type":"Feature","id":5394,"geometry":{"type":"Point","coordinates":[76.526055625065311,30.968797619079545]},"properties":{"OBJECTID":5394,"stname":"PUNJAB","dtname":"Rupnagar","STCODE11":"03","DTCODE11":"051","SDTCODE11":"00264","NAME11":"Rup Nagar","LOC_NAME":"Rup Nagar"}},{"type":"Feature","id":5395,"geometry":{"type":"Point","coordinates":[75.889167620145656,29.817964316934965]},"properties":{"OBJECTID":5395,"stname":"PUNJAB","dtname":"Sangrur","STCODE11":"03","DTCODE11":"053","SDTCODE11":"00274","NAME11":"Moonak","LOC_NAME":"Moonak"}},{"type":"Feature","id":5396,"geometry":{"type":"Point","coordinates":[75.54997086645119,30.373230049085187]},"properties":{"OBJECTID":5396,"stname":"PUNJAB","dtname":"Barnala","STCODE11":"03","DTCODE11":"054","SDTCODE11":"00275","NAME11":"Barnala","LOC_NAME":"Barnala"}}]}