{"type":"FeatureCollection","crs":{"type":"name","properties":{"name":"EPSG:4326"}},"features":[{"type":"Feature","id":102,"geometry":{"type":"Point","coordinates":[76.116763825621021,31.125400982651097]},"properties":{"OBJECTID":102,"STNAME":"PUNJAB","DTNAME":"Shahid Bhagat Singh Nagar","DIST_HQ":"Nawanshahr","STATE_HQ":0,"STCODE11":"03","DTCODE11":"039","YEAR_STAT":"2011_c","DIST_HQNM":"Nawanshahr","Dist_LGD":40,"LOC_STAT_1":"District Hq","LOC_NAME":"Shahid Bhagat Singh Nagar"}},{"type":"Feature","id":113,"geometry":{"type":"Point","coordinates":[75.653556701400916,32.275768435200483]},"properties":{"OBJECTID":113,"STNAME":"PUNJAB","DTNAME":"Pathankot","DIST_HQ":"Pathankot","STATE_HQ":null,"STCODE11":"03","DTCODE11":"773","YEAR_STAT":"2011_c","DIST_HQNM":"Pathankot","Dist_LGD":662,"LOC_STAT_1":"District Hq","LOC_NAME":"Pathankot"}},{"type":"Feature","id":116,"geometry":{"type":"Point","coordinates":[74.871546440846785,31.622862189072041]},"properties":{"OBJECTID":116,"STNAME":"PUNJAB","DTNAME":"Amritsar","DIST_HQ":"Amritsar","STATE_HQ":2,"STCODE11":"03","DTCODE11":"049","YEAR_STAT":"2011_c","DIST_HQNM":"Amritsar","Dist_LGD":27,"LOC_STAT_1":"District Hq","LOC_NAME":"Amritsar"}},{"type":"Feature","id":117,"geometry":{"type":"Point","coordinates":[74.60934492526313,30.93056917656892]},"properties":{"OBJECTID":117,"STNAME":"PUNJAB","DTNAME":"Firozpur","DIST_HQ":"Firozpur","STATE_HQ":2,"STCODE11":"03","DTCODE11":"043","YEAR_STAT":"2011_c","DIST_HQNM":"Firozpur","Dist_LGD":31,"LOC_STAT_1":"District Hq","LOC_NAME":"Firozpur"}},{"type":"Feature","id":118,"geometry":{"type":"Point","coordinates":[74.757637330145343,30.673176847108298]},"properties":{"OBJECTID":118,"STNAME":"PUNJAB","DTNAME":"Faridkot","DIST_HQ":"Faridkot","STATE_HQ":0,"STCODE11":"03","DTCODE11":"045","YEAR_STAT":"2011_c","DIST_HQNM":"Faridkot","Dist_LGD":29,"LOC_STAT_1":"District Hq","LOC_NAME":"Faridkot"}},{"type":"Feature","id":119,"geometry":{"type":"Point","coordinates":[74.943081814780427,30.206775454384765]},"properties":{"OBJECTID":119,"STNAME":"PUNJAB","DTNAME":"Bathinda","DIST_HQ":"Bathinda","STATE_HQ":2,"STCODE11":"03","DTCODE11":"046","YEAR_STAT":"2011_c","DIST_HQNM":"Bathinda","Dist_LGD":28,"LOC_STAT_1":"District Hq","LOC_NAME":"Bathinda"}},{"type":"Feature","id":121,"geometry":{"type":"Point","coordinates":[75.912593912176078,31.533541408605011]},"properties":{"OBJECTID":121,"STNAME":"PUNJAB","DTNAME":"Hoshiarpur","DIST_HQ":"Hoshiarpur","STATE_HQ":0,"STCODE11":"03","DTCODE11":"038","YEAR_STAT":"2011_c","DIST_HQNM":"Hoshiarpur","Dist_LGD":33,"LOC_STAT_1":"District Hq","LOC_NAME":"Hoshiarpur"}},{"type":"Feature","id":122,"geometry":{"type":"Point","coordinates":[75.384680765239992,31.379387485981759]},"properties":{"OBJECTID":122,"STNAME":"PUNJAB","DTNAME":"Kapurthala","DIST_HQ":"Kapurthala","STATE_HQ":0,"STCODE11":"03","DTCODE11":"036","YEAR_STAT":"2011_c","DIST_HQNM":"Kapurthala","Dist_LGD":35,"LOC_STAT_1":"District Hq","LOC_NAME":"Kapurthala"}},{"type":"Feature","id":123,"geometry":{"type":"Point","coordinates":[75.579236154827754,31.334266268402907]},"properties":{"OBJECTID":123,"STNAME":"PUNJAB","DTNAME":"Jalandhar","DIST_HQ":"Jalandhar","STATE_HQ":2,"STCODE11":"03","DTCODE11":"037","YEAR_STAT":"2011_c","DIST_HQNM":"Jalandhar","Dist_LGD":34,"LOC_STAT_1":"District Hq","LOC_NAME":"Jalandhar"}},{"type":"Feature","id":124,"geometry":{"type":"Point","coordinates":[75.850573965347337,30.908527695451969]},"properties":{"OBJECTID":124,"STNAME":"PUNJAB","DTNAME":"Ludhiana","DIST_HQ":"Ludhiana","STATE_HQ":2,"STCODE11":"03","DTCODE11":"041","YEAR_STAT":"2011_c","DIST_HQNM":"Ludhiana","Dist_LGD":36,"LOC_STAT_1":"District Hq","LOC_NAME":"Ludhiana"}},{"type":"Feature","id":125,"geometry":{"type":"Point","coordinates":[75.840878323620032,30.241379628518363]},"properties":{"OBJECTID":125,"STNAME":"PUNJAB","DTNAME":"Sangrur","DIST_HQ":"Sangrur","STATE_HQ":2,"STCODE11":"03","DTCODE11":"053","YEAR_STAT":"2011_c","DIST_HQNM":"Sangrur","Dist_LGD":43,"LOC_STAT_1":"District Hq","LOC_NAME":"Sangrur"}},{"type":"Feature","id":135,"geometry":{"type":"Point","coordinates":[76.524685422965831,30.969864185985774]},"properties":{"OBJECTID":135,"STNAME":"PUNJAB","DTNAME":"Rupnagar","DIST_HQ":"Rupnagar","STATE_HQ":0,"STCODE11":"03","DTCODE11":"051","YEAR_STAT":"2011_c","DIST_HQNM":"Rupnagar","Dist_LGD":42,"LOC_STAT_1":"District Hq","LOC_NAME":"Rupnagar"}},{"type":"Feature","id":137,"geometry":{"type":"Point","coordinates":[76.39056408003114,30.333007886364793]},"properties":{"OBJECTID":137,"STNAME":"PUNJAB","DTNAME":"Patiala","DIST_HQ":"Patiala","STATE_HQ":2,"STCODE11":"03","DTCODE11":"048","YEAR_STAT":"2011_c","DIST_HQNM":"Patiala","Dist_LGD":41,"LOC_STAT_1":"District Hq","LOC_NAME":"Patiala"}},{"type":"Feature","id":286,"geometry":{"type":"Point","coordinates":[74.513836396395135,30.474557460202146]},"properties":{"OBJECTID":286,"STNAME":"PUNJAB","DTNAME":"Sri Muktsar Sahib","DIST_HQ":"Muktsar","STATE_HQ":0,"STCODE11":"03","DTCODE11":"044","YEAR_STAT":"2011_c","DIST_HQNM":"Muktsar","Dist_LGD":39,"LOC_STAT_1":"District Hq","LOC_NAME":"Sri Muktsar Sahib"}},{"type":"Feature","id":287,"geometry":{"type":"Point","coordinates":[75.165815965137327,30.809046984688901]},"properties":{"OBJECTID":287,"STNAME":"PUNJAB","DTNAME":"Moga","DIST_HQ":"Moga","STATE_HQ":0,"STCODE11":"03","DTCODE11":"042","YEAR_STAT":"2011_c","DIST_HQNM":"Moga","Dist_LGD":38,"LOC_STAT_1":"District Hq","LOC_NAME":"Moga"}},{"type":"Feature","id":300,"geometry":{"type":"Point","coordinates":[75.399603900336672,29.987461052348944]},"properties":{"OBJECTID":300,"STNAME":"PUNJAB","DTNAME":"Mansa","DIST_HQ":"Mansa","STATE_HQ":0,"STCODE11":"03","DTCODE11":"047","YEAR_STAT":"2011_c","DIST_HQNM":"Mansa","Dist_LGD":37,"LOC_STAT_1":"District Hq","LOC_NAME":"Mansa"}},{"type":"Feature","id":565,"geometry":{"type":"Point","coordinates":[76.390796924251092,30.651548327649678]},"properties":{"OBJECTID":565,"STNAME":"PUNJAB","DTNAME":"Fatehgarh Sahib","DIST_HQ":"Fatehgarh Sahib","STATE_HQ":0,"STCODE11":"03","DTCODE11":"040","YEAR_STAT":"2011_c","DIST_HQNM":"Fatehgarh Sahib","Dist_LGD":30,"LOC_STAT_1":"District Hq","LOC_NAME":"Fatehgarh Sahib"}},{"type":"Feature","id":613,"geometry":{"type":"Point","coordinates":[75.546669999753163,30.375000000076987]},"properties":{"OBJECTID":613,"STNAME":"PUNJAB","DTNAME":"Barnala","DIST_HQ":"Barnala","STATE_HQ":0,"STCODE11":"03","DTCODE11":"054","YEAR_STAT":"2011_c","DIST_HQNM":"Barnala","Dist_LGD":605,"LOC_STAT_1":"District Hq","LOC_NAME":"Barnala"}},{"type":"Feature","id":614,"geometry":{"type":"Point","coordinates":[76.724999999874996,30.683060000324708]},"properties":{"OBJECTID":614,"STNAME":"PUNJAB","DTNAME":"Sahibzada Ajit Singh Nagar","DIST_HQ":"Mohali","STATE_HQ":0,"STCODE11":"03","DTCODE11":"052","YEAR_STAT":"2011_c","DIST_HQNM":"Mohali","Dist_LGD":608,"LOC_STAT_1":"District Hq","LOC_NAME":"Sahibzada Ajit Singh Nagar"}},{"type":"Feature","id":615,"geometry":{"type":"Point","coordinates":[74.925279999609728,31.452499999721613]},"properties":{"OBJECTID":615,"STNAME":"PUNJAB","DTNAME":"Tarn Taran","DIST_HQ":"Tarntaran","STATE_HQ":0,"STCODE11":"03","DTCODE11":"050","YEAR_STAT":"2011_c","DIST_HQNM":"Tarntaran","Dist_LGD":609,"LOC_STAT_1":"District Hq","LOC_NAME":"Tarn Taran"}},{"type":"Feature","id":668,"geometry":{"type":"Point","coordinates":[74.026716056429677,30.403363866618413]},"properties":{"OBJECTID":668,"STNAME":"PUNJAB","DTNAME":"Fazilka","DIST_HQ":"Fazilka","STATE_HQ":null,"STCODE11":"03","DTCODE11":"701","YEAR_STAT":" ","DIST_HQNM":"Fazilka","Dist_LGD":651,"LOC_STAT_1":"District Hq","LOC_NAME":"Fazilka"}},{"type":"Feature","id":706,"geometry":{"type":"Point","coordinates":[75.400661791449522,32.039974122173277]},"properties":{"OBJECTID":706,"STNAME":"PUNJAB","DTNAME":"Gurdaspur","DIST_HQ":"Gurdaspur","STATE_HQ":2,"STCODE11":"03","DTCODE11":"035","YEAR_STAT":"2011_c","DIST_HQNM":"Gurdaspur","Dist_LGD":32,"LOC_STAT_1":"District Hq","LOC_NAME":"Gurdaspur"}}]}