{"type":"FeatureCollection","features":[{"type":"Feature","id":4384,"geometry":{"type":"Point","coordinates":[88.639623307513631,27.60123628670253]},"properties":{"objectid":4384,"stcode11":"11","dtcode11":"241","sdtcode11":"01547","name11":"Chungthang","dtname":"Mangan","stname":"SIKKIM","sdtlgd":1547,"dt_lgd":226,"sdtname_l":" "}},{"type":"Feature","id":4385,"geometry":{"type":"Point","coordinates":[88.617359565716598,27.335281350290117]},"properties":{"objectid":4385,"stcode11":"11","dtcode11":"244","sdtcode11":"01553","name11":"Gangtok","dtname":"Gangtok","stname":"SIKKIM","sdtlgd":1553,"dt_lgd":225,"sdtname_l":" "}},{"type":"Feature","id":4386,"geometry":{"type":"Point","coordinates":[88.533552961558399,27.504301049208628]},"properties":{"objectid":4386,"stcode11":"11","dtcode11":"241","sdtcode11":"01548","name11":"Mangan","dtname":"Mangan","stname":"SIKKIM","sdtlgd":1548,"dt_lgd":226,"sdtname_l":" "}},{"type":"Feature","id":4387,"geometry":{"type":"Point","coordinates":[88.356976487304664,27.163525603464397]},"properties":{"objectid":4387,"stcode11":"11","dtcode11":"243","sdtcode11":"01551","name11":"Namchi","dtname":"Namchi","stname":"SIKKIM","sdtlgd":1551,"dt_lgd":227,"sdtname_l":" "}},{"type":"Feature","id":4388,"geometry":{"type":"Point","coordinates":[88.1972648871769,27.170784935719045]},"properties":{"objectid":4388,"stcode11":"11","dtcode11":"802","sdtcode11":"01550","name11":"Soreng","dtname":"Soreng","stname":"SIKKIM","sdtlgd":1550,"dt_lgd":742,"sdtname_l":" "}},{"type":"Feature","id":4389,"geometry":{"type":"Point","coordinates":[88.684191466823791,27.204281927505043]},"properties":{"objectid":4389,"stcode11":"11","dtcode11":"801","sdtcode11":"01555","name11":"Rongli","dtname":"Pakyong","stname":"SIKKIM","sdtlgd":1555,"dt_lgd":741,"sdtname_l":" "}},{"type":"Feature","id":4390,"geometry":{"type":"Point","coordinates":[88.594027073971489,27.243927291798897]},"properties":{"objectid":4390,"stcode11":"11","dtcode11":"801","sdtcode11":"01554","name11":"Pakyong","dtname":"Pakyong","stname":"SIKKIM","sdtlgd":1554,"dt_lgd":741,"sdtname_l":" "}},{"type":"Feature","id":4391,"geometry":{"type":"Point","coordinates":[88.264016409727446,27.283671484122998]},"properties":{"objectid":4391,"stcode11":"11","dtcode11":"242","sdtcode11":"01549","name11":"Gyalshing","dtname":"Gyalshing","stname":"SIKKIM","sdtlgd":1549,"dt_lgd":228,"sdtname_l":" "}},{"type":"Feature","id":4392,"geometry":{"type":"Point","coordinates":[88.361012599011588,27.309850767534954]},"properties":{"objectid":4392,"stcode11":"11","dtcode11":"243","sdtcode11":"01552","name11":"Ravong","dtname":"Namchi","stname":"SIKKIM","sdtlgd":1552,"dt_lgd":227,"sdtname_l":" "}}]}