{"type":"FeatureCollection","crs":{"type":"name","properties":{"name":"EPSG:4326"}},"features":[{"type":"Feature","id":4438,"geometry":{"type":"Point","coordinates":[88.639623307513631,27.60123628670253]},"properties":{"OBJECTID":4438,"stname":"SIKKIM","dtname":"North  District","STCODE11":"11","DTCODE11":"241","SDTCODE11":"01547","NAME11":"Tshungthang","LOC_NAME":"Tshungthang"}},{"type":"Feature","id":4439,"geometry":{"type":"Point","coordinates":[88.617359565716598,27.335281350290117]},"properties":{"OBJECTID":4439,"stname":"SIKKIM","dtname":"East District","STCODE11":"11","DTCODE11":"244","SDTCODE11":"01553","NAME11":"Gangtok","LOC_NAME":"Gangtok"}},{"type":"Feature","id":4440,"geometry":{"type":"Point","coordinates":[88.533552961558399,27.504301049208628]},"properties":{"OBJECTID":4440,"stname":"SIKKIM","dtname":"North  District","STCODE11":"11","DTCODE11":"241","SDTCODE11":"01548","NAME11":"Mangan","LOC_NAME":"Mangan"}},{"type":"Feature","id":4441,"geometry":{"type":"Point","coordinates":[88.356976487304664,27.163525603464397]},"properties":{"OBJECTID":4441,"stname":"SIKKIM","dtname":"South District","STCODE11":"11","DTCODE11":"243","SDTCODE11":"01551","NAME11":"Namchi","LOC_NAME":"Namchi"}},{"type":"Feature","id":4442,"geometry":{"type":"Point","coordinates":[88.1972648871769,27.170784935719045]},"properties":{"OBJECTID":4442,"stname":"SIKKIM","dtname":"West District","STCODE11":"11","DTCODE11":"242","SDTCODE11":"01550","NAME11":"Soreng","LOC_NAME":"Soreng"}},{"type":"Feature","id":4443,"geometry":{"type":"Point","coordinates":[88.684191466823791,27.204281927505043]},"properties":{"OBJECTID":4443,"stname":"SIKKIM","dtname":"East District","STCODE11":"11","DTCODE11":"244","SDTCODE11":"01555","NAME11":"Rongli","LOC_NAME":"Rongli"}},{"type":"Feature","id":4444,"geometry":{"type":"Point","coordinates":[88.594027073971489,27.243927291798897]},"properties":{"OBJECTID":4444,"stname":"SIKKIM","dtname":"East District","STCODE11":"11","DTCODE11":"244","SDTCODE11":"01554","NAME11":"Pakyong","LOC_NAME":"Pakyong"}},{"type":"Feature","id":4445,"geometry":{"type":"Point","coordinates":[88.264016409727446,27.283671484122998]},"properties":{"OBJECTID":4445,"stname":"SIKKIM","dtname":"West District","STCODE11":"11","DTCODE11":"242","SDTCODE11":"01549","NAME11":"Gyalshing","LOC_NAME":"Gyalshing"}},{"type":"Feature","id":4446,"geometry":{"type":"Point","coordinates":[88.361012599011588,27.309850767534954]},"properties":{"OBJECTID":4446,"stname":"SIKKIM","dtname":"South District","STCODE11":"11","DTCODE11":"243","SDTCODE11":"01552","NAME11":"Ravong","LOC_NAME":"Ravong"}}]}