{"type":"FeatureCollection","crs":{"type":"name","properties":{"name":"EPSG:4326"}},"features":[{"type":"Feature","id":1268,"geometry":{"type":"Point","coordinates":[92.738086335405669,11.662241525318088]},"properties":{"OBJECTID":1268,"stname":"ANDAMAN & NICOBAR","dtname":"South Andaman","STCODE11":"35","DTCODE11":"640","SDTCODE11":"05923","NAME11":"Port Blair","LOC_NAME":"Port Blair"}},{"type":"Feature","id":1269,"geometry":{"type":"Point","coordinates":[92.99703705099536,13.268227085373493]},"properties":{"OBJECTID":1269,"stname":"ANDAMAN & NICOBAR","dtname":"North  & Middle Andaman","STCODE11":"35","DTCODE11":"639","SDTCODE11":"05919","NAME11":"Diglipur","LOC_NAME":"Diglipur"}},{"type":"Feature","id":1270,"geometry":{"type":"Point","coordinates":[92.780283584661163,9.1686286351066926]},"properties":{"OBJECTID":1270,"stname":"ANDAMAN & NICOBAR","dtname":"Nicobars","STCODE11":"35","DTCODE11":"638","SDTCODE11":"05916","NAME11":"Car Nicobar","LOC_NAME":"Car Nicobar"}},{"type":"Feature","id":1271,"geometry":{"type":"Point","coordinates":[93.929730390320927,7.0069448216759458]},"properties":{"OBJECTID":1271,"stname":"ANDAMAN & NICOBAR","dtname":"Nicobars","STCODE11":"35","DTCODE11":"638","SDTCODE11":"05918","NAME11":"Great Nicobar","LOC_NAME":"Great Nicobar"}},{"type":"Feature","id":1272,"geometry":{"type":"Point","coordinates":[92.853639302889917,12.842918315507616]},"properties":{"OBJECTID":1272,"stname":"ANDAMAN & NICOBAR","dtname":"North  & Middle Andaman","STCODE11":"35","DTCODE11":"639","SDTCODE11":"05920","NAME11":"Mayabunder","LOC_NAME":"Mayabunder"}},{"type":"Feature","id":1273,"geometry":{"type":"Point","coordinates":[92.910073509112323,12.508261202314349]},"properties":{"OBJECTID":1273,"stname":"ANDAMAN & NICOBAR","dtname":"North  & Middle Andaman","STCODE11":"35","DTCODE11":"639","SDTCODE11":"05921","NAME11":"Rangat","LOC_NAME":"Rangat"}},{"type":"Feature","id":1274,"geometry":{"type":"Point","coordinates":[92.530790003599293,10.615900140850504]},"properties":{"OBJECTID":1274,"stname":"ANDAMAN & NICOBAR","dtname":"South Andaman","STCODE11":"35","DTCODE11":"640","SDTCODE11":"05924","NAME11":"Little Andaman","LOC_NAME":"Little Andaman"}},{"type":"Feature","id":5920,"geometry":{"type":"Point","coordinates":[93.530196971841733,7.9852912723882552]},"properties":{"OBJECTID":5920,"stname":"ANDAMAN & NICOBAR","dtname":"Nicobars","STCODE11":"35","DTCODE11":"638","SDTCODE11":"05917","NAME11":"Nancowry","LOC_NAME":"Nancowry"}},{"type":"Feature","id":5921,"geometry":{"type":"Point","coordinates":[92.650256557975609,11.724911682817419]},"properties":{"OBJECTID":5921,"stname":"ANDAMAN & NICOBAR","dtname":"South Andaman","STCODE11":"35","DTCODE11":"640","SDTCODE11":"05922","NAME11":"Ferrargunj","LOC_NAME":"Ferrargunj"}}]}