{"type":"FeatureCollection","crs":{"type":"name","properties":{"name":"EPSG:4326"}},"features":[{"type":"Feature","id":7,"geometry":{"type":"Point","coordinates":[74.240071775457395,21.373989282543508]},"properties":{"OBJECTID":7,"STNAME":"MAHARASHTRA","DTNAME":"Nandurbar","DIST_HQ":"Nandurbar","STATE_HQ":2,"STCODE11":"27","DTCODE11":"497","YEAR_STAT":"2011_c","DIST_HQNM":"Nandurbar","Dist_LGD":486,"LOC_STAT_1":"District Hq","LOC_NAME":"Nandurbar"}},{"type":"Feature","id":13,"geometry":{"type":"Point","coordinates":[77.140994464725694,20.109654719640751]},"properties":{"OBJECTID":13,"STNAME":"MAHARASHTRA","DTNAME":"Washim","DIST_HQ":"Washim","STATE_HQ":0,"STCODE11":"27","DTCODE11":"502","YEAR_STAT":"2011_c","DIST_HQNM":"Washim","Dist_LGD":499,"LOC_STAT_1":"District Hq","LOC_NAME":"Washim"}},{"type":"Feature","id":14,"geometry":{"type":"Point","coordinates":[80.196450784874031,21.457445338723844]},"properties":{"OBJECTID":14,"STNAME":"MAHARASHTRA","DTNAME":"Gondiya","DIST_HQ":"Gondia","STATE_HQ":0,"STCODE11":"27","DTCODE11":"507","YEAR_STAT":"2011_c","DIST_HQNM":"Gondia","Dist_LGD":476,"LOC_STAT_1":"District Hq","LOC_NAME":"Gondiya"}},{"type":"Feature","id":101,"geometry":{"type":"Point","coordinates":[77.137897212864928,19.715987224173578]},"properties":{"OBJECTID":101,"STNAME":"MAHARASHTRA","DTNAME":"Hingoli","DIST_HQ":"Hingoli","STATE_HQ":0,"STCODE11":"27","DTCODE11":"512","YEAR_STAT":"2011_c","DIST_HQNM":"Hingoli","Dist_LGD":477,"LOC_STAT_1":"District Hq","LOC_NAME":"Hingoli"}},{"type":"Feature","id":110,"geometry":{"type":"Point","coordinates":[72.832117341035286,19.054856992936056]},"properties":{"OBJECTID":110,"STNAME":"MAHARASHTRA","DTNAME":"Mumbai Suburban","DIST_HQ":"Bandra","STATE_HQ":0,"STCODE11":"27","DTCODE11":"518","YEAR_STAT":"2011_c","DIST_HQNM":"Bandra","Dist_LGD":483,"LOC_STAT_1":"District Hq","LOC_NAME":"Mumbai Suburban"}},{"type":"Feature","id":214,"geometry":{"type":"Point","coordinates":[73.78573141565532,20.005329935449772]},"properties":{"OBJECTID":214,"STNAME":"MAHARASHTRA","DTNAME":"Nashik","DIST_HQ":"Nasik","STATE_HQ":2,"STCODE11":"27","DTCODE11":"516","YEAR_STAT":"2011_c","DIST_HQNM":"Nasik","Dist_LGD":487,"LOC_STAT_1":"District Hq","LOC_NAME":"Nashik"}},{"type":"Feature","id":217,"geometry":{"type":"Point","coordinates":[74.775603950238079,20.900012822964854]},"properties":{"OBJECTID":217,"STNAME":"MAHARASHTRA","DTNAME":"Dhule","DIST_HQ":"Dhule","STATE_HQ":0,"STCODE11":"27","DTCODE11":"498","YEAR_STAT":"2011_c","DIST_HQNM":"Dhule","Dist_LGD":474,"LOC_STAT_1":"District Hq","LOC_NAME":"Dhule"}},{"type":"Feature","id":223,"geometry":{"type":"Point","coordinates":[75.569114682909699,21.010178739795791]},"properties":{"OBJECTID":223,"STNAME":"MAHARASHTRA","DTNAME":"Jalgaon","DIST_HQ":"Jalgaon","STATE_HQ":2,"STCODE11":"27","DTCODE11":"499","YEAR_STAT":"2011_c","DIST_HQNM":"Jalgaon","Dist_LGD":478,"LOC_STAT_1":"District Hq","LOC_NAME":"Jalgaon"}},{"type":"Feature","id":253,"geometry":{"type":"Point","coordinates":[76.180685679281083,20.53289143648098]},"properties":{"OBJECTID":253,"STNAME":"MAHARASHTRA","DTNAME":"Buldana","DIST_HQ":"Buldana","STATE_HQ":0,"STCODE11":"27","DTCODE11":"500","YEAR_STAT":"2011_c","DIST_HQNM":"Buldana","Dist_LGD":472,"LOC_STAT_1":"District Hq","LOC_NAME":"Buldana"}},{"type":"Feature","id":260,"geometry":{"type":"Point","coordinates":[77.748762500833962,20.933918879205354]},"properties":{"OBJECTID":260,"STNAME":"MAHARASHTRA","DTNAME":"Amravati","DIST_HQ":"Amravati","STATE_HQ":0,"STCODE11":"27","DTCODE11":"503","YEAR_STAT":"2011_c","DIST_HQNM":"Amravati","Dist_LGD":468,"LOC_STAT_1":"District Hq","LOC_NAME":"Amravati"}},{"type":"Feature","id":261,"geometry":{"type":"Point","coordinates":[77.002619390511569,20.711246120027621]},"properties":{"OBJECTID":261,"STNAME":"MAHARASHTRA","DTNAME":"Akola","DIST_HQ":"Akola","STATE_HQ":2,"STCODE11":"27","DTCODE11":"501","YEAR_STAT":"2011_c","DIST_HQNM":"Akola","Dist_LGD":467,"LOC_STAT_1":"District Hq","LOC_NAME":"Akola"}},{"type":"Feature","id":264,"geometry":{"type":"Point","coordinates":[78.592931129618947,20.733432388792064]},"properties":{"OBJECTID":264,"STNAME":"MAHARASHTRA","DTNAME":"Wardha","DIST_HQ":"Wardha","STATE_HQ":2,"STCODE11":"27","DTCODE11":"504","YEAR_STAT":"2011_c","DIST_HQNM":"Wardha","Dist_LGD":498,"LOC_STAT_1":"District Hq","LOC_NAME":"Wardha"}},{"type":"Feature","id":265,"geometry":{"type":"Point","coordinates":[78.130219684992824,20.388316708182764]},"properties":{"OBJECTID":265,"STNAME":"MAHARASHTRA","DTNAME":"Yavatmal","DIST_HQ":"Yavatmal","STATE_HQ":0,"STCODE11":"27","DTCODE11":"510","YEAR_STAT":"2011_c","DIST_HQNM":"Yavatmal","Dist_LGD":500,"LOC_STAT_1":"District Hq","LOC_NAME":"Yavatmal"}},{"type":"Feature","id":269,"geometry":{"type":"Point","coordinates":[79.655697195623532,21.169928852252578]},"properties":{"OBJECTID":269,"STNAME":"MAHARASHTRA","DTNAME":"Bhandara","DIST_HQ":"Bhandara","STATE_HQ":2,"STCODE11":"27","DTCODE11":"506","YEAR_STAT":"2011_c","DIST_HQNM":"Bhandara","Dist_LGD":471,"LOC_STAT_1":"District Hq","LOC_NAME":"Bhandara"}},{"type":"Feature","id":270,"geometry":{"type":"Point","coordinates":[79.095431146474766,21.148878964178827]},"properties":{"OBJECTID":270,"STNAME":"MAHARASHTRA","DTNAME":"Nagpur","DIST_HQ":"Nagpur","STATE_HQ":2,"STCODE11":"27","DTCODE11":"505","YEAR_STAT":"2011_c","DIST_HQNM":"Nagpur","Dist_LGD":484,"LOC_STAT_1":"District Hq","LOC_NAME":"Nagpur"}},{"type":"Feature","id":327,"geometry":{"type":"Point","coordinates":[80.006395752738712,20.185561892209829]},"properties":{"OBJECTID":327,"STNAME":"MAHARASHTRA","DTNAME":"Gadchiroli","DIST_HQ":"Garhchiroli","STATE_HQ":2,"STCODE11":"27","DTCODE11":"508","YEAR_STAT":"2011_c","DIST_HQNM":"Garhchiroli","Dist_LGD":475,"LOC_STAT_1":"District Hq","LOC_NAME":"Gadchiroli"}},{"type":"Feature","id":454,"geometry":{"type":"Point","coordinates":[72.972408941263708,19.195740868208798]},"properties":{"OBJECTID":454,"STNAME":"MAHARASHTRA","DTNAME":"Thane","DIST_HQ":"Thane","STATE_HQ":0,"STCODE11":"27","DTCODE11":"517","YEAR_STAT":"2011_c","DIST_HQNM":"Thane","Dist_LGD":497,"LOC_STAT_1":"District Hq","LOC_NAME":"Thane"}},{"type":"Feature","id":455,"geometry":{"type":"Point","coordinates":[72.829447951354467,18.987801150814292]},"properties":{"OBJECTID":455,"STNAME":"MAHARASHTRA","DTNAME":"Mumbai","DIST_HQ":"Mumbai","STATE_HQ":1,"STCODE11":"27","DTCODE11":"519","YEAR_STAT":"2011_c","DIST_HQNM":"Mumbai","Dist_LGD":482,"LOC_STAT_1":"District Hq","LOC_NAME":"Mumbai"}},{"type":"Feature","id":456,"geometry":{"type":"Point","coordinates":[72.870809095455897,18.647121539614155]},"properties":{"OBJECTID":456,"STNAME":"MAHARASHTRA","DTNAME":"Raigarh","DIST_HQ":"Alibag","STATE_HQ":0,"STCODE11":"27","DTCODE11":"520","YEAR_STAT":"2011_c","DIST_HQNM":"Alibag","Dist_LGD":491,"LOC_STAT_1":"District Hq","LOC_NAME":"Raigarh"}},{"type":"Feature","id":457,"geometry":{"type":"Point","coordinates":[73.861914164422544,18.526776702314557]},"properties":{"OBJECTID":457,"STNAME":"MAHARASHTRA","DTNAME":"Pune","DIST_HQ":"Pune","STATE_HQ":2,"STCODE11":"27","DTCODE11":"521","YEAR_STAT":"2011_c","DIST_HQNM":"Pune","Dist_LGD":490,"LOC_STAT_1":"District Hq","LOC_NAME":"Pune"}},{"type":"Feature","id":458,"geometry":{"type":"Point","coordinates":[73.296934751097766,16.991489413420439]},"properties":{"OBJECTID":458,"STNAME":"MAHARASHTRA","DTNAME":"Ratnagiri","DIST_HQ":"Ratnagiri","STATE_HQ":2,"STCODE11":"27","DTCODE11":"528","YEAR_STAT":"2011_c","DIST_HQNM":"Ratnagiri","Dist_LGD":492,"LOC_STAT_1":"District Hq","LOC_NAME":"Ratnagiri"}},{"type":"Feature","id":459,"geometry":{"type":"Point","coordinates":[73.685515253862803,16.01045823521142]},"properties":{"OBJECTID":459,"STNAME":"MAHARASHTRA","DTNAME":"Sindhudurg","DIST_HQ":"Oros Budrukh","STATE_HQ":0,"STCODE11":"27","DTCODE11":"529","YEAR_STAT":"2011_c","DIST_HQNM":"Oros Budrukh","Dist_LGD":495,"LOC_STAT_1":"District Hq","LOC_NAME":"Sindhudurg"}},{"type":"Feature","id":460,"geometry":{"type":"Point","coordinates":[74.746048943504277,19.094166554106]},"properties":{"OBJECTID":460,"STNAME":"MAHARASHTRA","DTNAME":"Ahmadnagar","DIST_HQ":"Ahmadnagar","STATE_HQ":2,"STCODE11":"27","DTCODE11":"522","YEAR_STAT":"2011_c","DIST_HQNM":"Ahmadnagar","Dist_LGD":466,"LOC_STAT_1":"District Hq","LOC_NAME":"Ahmadnagar"}},{"type":"Feature","id":461,"geometry":{"type":"Point","coordinates":[74.010044344344266,17.69124389497329]},"properties":{"OBJECTID":461,"STNAME":"MAHARASHTRA","DTNAME":"Satara","DIST_HQ":"Satara","STATE_HQ":2,"STCODE11":"27","DTCODE11":"527","YEAR_STAT":"2011_c","DIST_HQNM":"Satara","Dist_LGD":494,"LOC_STAT_1":"District Hq","LOC_NAME":"Satara"}},{"type":"Feature","id":462,"geometry":{"type":"Point","coordinates":[74.564178410718625,16.860757976542267]},"properties":{"OBJECTID":462,"STNAME":"MAHARASHTRA","DTNAME":"Sangli","DIST_HQ":"Sangli","STATE_HQ":2,"STCODE11":"27","DTCODE11":"531","YEAR_STAT":"2011_c","DIST_HQNM":"Sangli","Dist_LGD":493,"LOC_STAT_1":"District Hq","LOC_NAME":"Sangli"}},{"type":"Feature","id":463,"geometry":{"type":"Point","coordinates":[74.223341956746154,16.695327681143127]},"properties":{"OBJECTID":463,"STNAME":"MAHARASHTRA","DTNAME":"Kolhapur","DIST_HQ":"Kolhapur","STATE_HQ":2,"STCODE11":"27","DTCODE11":"530","YEAR_STAT":"2011_c","DIST_HQNM":"Kolhapur","Dist_LGD":480,"LOC_STAT_1":"District Hq","LOC_NAME":"Kolhapur"}},{"type":"Feature","id":464,"geometry":{"type":"Point","coordinates":[75.332551785322408,19.886246069057044]},"properties":{"OBJECTID":464,"STNAME":"MAHARASHTRA","DTNAME":"Aurangabad","DIST_HQ":"Aurangabad","STATE_HQ":2,"STCODE11":"27","DTCODE11":"515","YEAR_STAT":"2011_c","DIST_HQNM":"Aurangabad","Dist_LGD":469,"LOC_STAT_1":"District Hq","LOC_NAME":"Aurangabad"}},{"type":"Feature","id":465,"geometry":{"type":"Point","coordinates":[75.900666038714405,19.849561258058088]},"properties":{"OBJECTID":465,"STNAME":"MAHARASHTRA","DTNAME":"Jalna","DIST_HQ":"Jalna","STATE_HQ":2,"STCODE11":"27","DTCODE11":"514","YEAR_STAT":"2011_c","DIST_HQNM":"Jalna","Dist_LGD":479,"LOC_STAT_1":"District Hq","LOC_NAME":"Jalna"}},{"type":"Feature","id":466,"geometry":{"type":"Point","coordinates":[75.75548209307442,18.989170482794247]},"properties":{"OBJECTID":466,"STNAME":"MAHARASHTRA","DTNAME":"Bid","DIST_HQ":"Bid","STATE_HQ":0,"STCODE11":"27","DTCODE11":"523","YEAR_STAT":"2011_c","DIST_HQNM":"Bid","Dist_LGD":470,"LOC_STAT_1":"District Hq","LOC_NAME":"Bid"}},{"type":"Feature","id":467,"geometry":{"type":"Point","coordinates":[75.906962968344658,17.672987128352581]},"properties":{"OBJECTID":467,"STNAME":"MAHARASHTRA","DTNAME":"Solapur","DIST_HQ":"Solapur","STATE_HQ":2,"STCODE11":"27","DTCODE11":"526","YEAR_STAT":"2011_c","DIST_HQNM":"Solapur","Dist_LGD":496,"LOC_STAT_1":"District Hq","LOC_NAME":"Solapur"}},{"type":"Feature","id":481,"geometry":{"type":"Point","coordinates":[76.766054480698003,19.266307034297014]},"properties":{"OBJECTID":481,"STNAME":"MAHARASHTRA","DTNAME":"Parbhani","DIST_HQ":"Parbhani","STATE_HQ":2,"STCODE11":"27","DTCODE11":"513","YEAR_STAT":"2011_c","DIST_HQNM":"Parbhani","Dist_LGD":489,"LOC_STAT_1":"District Hq","LOC_NAME":"Parbhani"}},{"type":"Feature","id":482,"geometry":{"type":"Point","coordinates":[76.575919458078246,18.401965578121583]},"properties":{"OBJECTID":482,"STNAME":"MAHARASHTRA","DTNAME":"Latur","DIST_HQ":"Latur","STATE_HQ":0,"STCODE11":"27","DTCODE11":"524","YEAR_STAT":"2011_c","DIST_HQNM":"Latur","Dist_LGD":481,"LOC_STAT_1":"District Hq","LOC_NAME":"Latur"}},{"type":"Feature","id":483,"geometry":{"type":"Point","coordinates":[76.040721653314321,18.182513954058205]},"properties":{"OBJECTID":483,"STNAME":"MAHARASHTRA","DTNAME":"Osmanabad","DIST_HQ":"Osmanabad","STATE_HQ":0,"STCODE11":"27","DTCODE11":"525","YEAR_STAT":"2011_c","DIST_HQNM":"Osmanabad","Dist_LGD":488,"LOC_STAT_1":"District Hq","LOC_NAME":"Osmanabad"}},{"type":"Feature","id":485,"geometry":{"type":"Point","coordinates":[77.312051812044714,19.160111231648358]},"properties":{"OBJECTID":485,"STNAME":"MAHARASHTRA","DTNAME":"Nanded","DIST_HQ":"Nanded","STATE_HQ":2,"STCODE11":"27","DTCODE11":"511","YEAR_STAT":"2011_c","DIST_HQNM":"Nanded","Dist_LGD":485,"LOC_STAT_1":"District Hq","LOC_NAME":"Nanded"}},{"type":"Feature","id":493,"geometry":{"type":"Point","coordinates":[79.294424966354313,19.952457581304483]},"properties":{"OBJECTID":493,"STNAME":"MAHARASHTRA","DTNAME":"Chandrapur","DIST_HQ":"Chandrapur","STATE_HQ":2,"STCODE11":"27","DTCODE11":"509","YEAR_STAT":"2011_c","DIST_HQNM":"Chandrapur","Dist_LGD":473,"LOC_STAT_1":"District Hq","LOC_NAME":"Chandrapur"}},{"type":"Feature","id":670,"geometry":{"type":"Point","coordinates":[72.767920403472331,19.694925223577695]},"properties":{"OBJECTID":670,"STNAME":"MAHARASHTRA","DTNAME":"Palghar","DIST_HQ":"Palghar","STATE_HQ":null,"STCODE11":"27","DTCODE11":"732","YEAR_STAT":" ","DIST_HQNM":"Palghar","Dist_LGD":665,"LOC_STAT_1":"District Hq","LOC_NAME":"Palghar"}}]}