{"type":"FeatureCollection","crs":{"type":"name","properties":{"name":"EPSG:4326"}},"features":[{"type":"Feature","id":502,"geometry":{"type":"Point","coordinates":[77.597118987378195,14.680549270036392]},"properties":{"OBJECTID":502,"STNAME":"ANDHRA PRADESH","DTNAME":"Anantapur","DIST_HQ":"Anantapur","STATE_HQ":2,"STCODE11":"37","DTCODE11":"553","YEAR_STAT":"2011_c","DIST_HQNM":"Anantapur","Dist_LGD":502,"LOC_STAT_1":"District Hq","LOC_NAME":"Anantapur"}},{"type":"Feature","id":505,"geometry":{"type":"Point","coordinates":[78.048560928424493,15.828283393428418]},"properties":{"OBJECTID":505,"STNAME":"ANDHRA PRADESH","DTNAME":"Kurnool","DIST_HQ":"Kurnool","STATE_HQ":2,"STCODE11":"37","DTCODE11":"552","YEAR_STAT":"2011_c","DIST_HQNM":"Kurnool","Dist_LGD":511,"LOC_STAT_1":"District Hq","LOC_NAME":"Kurnool"}},{"type":"Feature","id":506,"geometry":{"type":"Point","coordinates":[78.822797360749306,14.474742485413088]},"properties":{"OBJECTID":506,"STNAME":"ANDHRA PRADESH","DTNAME":"Y.S.R.","DIST_HQ":"Cuddapah","STATE_HQ":2,"STCODE11":"37","DTCODE11":"551","YEAR_STAT":"2011_c","DIST_HQNM":"Cuddapah","Dist_LGD":504,"LOC_STAT_1":"District Hq","LOC_NAME":"Y.S.R."}},{"type":"Feature","id":509,"geometry":{"type":"Point","coordinates":[79.982178472541094,14.450422547333698]},"properties":{"OBJECTID":509,"STNAME":"ANDHRA PRADESH","DTNAME":"Sri Potti Sriramulu Nellore","DIST_HQ":"Nellore","STATE_HQ":0,"STCODE11":"37","DTCODE11":"550","YEAR_STAT":"2011_c","DIST_HQNM":"Nellore","Dist_LGD":515,"LOC_STAT_1":"District Hq","LOC_NAME":"Sri Potti Sriramulu Nellore"}},{"type":"Feature","id":510,"geometry":{"type":"Point","coordinates":[79.098718295000083,13.21661642250012]},"properties":{"OBJECTID":510,"STNAME":"ANDHRA PRADESH","DTNAME":"Chittoor","DIST_HQ":"Chittoor","STATE_HQ":2,"STCODE11":"37","DTCODE11":"554","YEAR_STAT":"2011_c","DIST_HQNM":"Chittoor","Dist_LGD":503,"LOC_STAT_1":"District Hq","LOC_NAME":"Chittoor"}},{"type":"Feature","id":539,"geometry":{"type":"Point","coordinates":[80.445880767908733,16.298436490557307]},"properties":{"OBJECTID":539,"STNAME":"ANDHRA PRADESH","DTNAME":"Guntur","DIST_HQ":"Guntur","STATE_HQ":2,"STCODE11":"37","DTCODE11":"548","YEAR_STAT":"2011_c","DIST_HQNM":"Guntur","Dist_LGD":506,"LOC_STAT_1":"District Hq","LOC_NAME":"Guntur"}},{"type":"Feature","id":540,"geometry":{"type":"Point","coordinates":[81.132546883206999,16.176971332662134]},"properties":{"OBJECTID":540,"STNAME":"ANDHRA PRADESH","DTNAME":"Krishna","DIST_HQ":"Machilipatnam","STATE_HQ":2,"STCODE11":"37","DTCODE11":"547","YEAR_STAT":"2011_c","DIST_HQNM":"Machilipatnam","Dist_LGD":510,"LOC_STAT_1":"District Hq","LOC_NAME":"Krishna"}},{"type":"Feature","id":541,"geometry":{"type":"Point","coordinates":[81.103687884867128,16.712681766860861]},"properties":{"OBJECTID":541,"STNAME":"ANDHRA PRADESH","DTNAME":"West Godavari","DIST_HQ":"Eluru","STATE_HQ":0,"STCODE11":"37","DTCODE11":"546","YEAR_STAT":"2011_c","DIST_HQNM":"Eluru","Dist_LGD":523,"LOC_STAT_1":"District Hq","LOC_NAME":"West Godavari"}},{"type":"Feature","id":544,"geometry":{"type":"Point","coordinates":[82.23468567602491,16.970457902773919]},"properties":{"OBJECTID":544,"STNAME":"ANDHRA PRADESH","DTNAME":"East Godavari","DIST_HQ":"Kakinada","STATE_HQ":0,"STCODE11":"37","DTCODE11":"545","YEAR_STAT":"2011_c","DIST_HQNM":"Kakinada","Dist_LGD":505,"LOC_STAT_1":"District Hq","LOC_NAME":"East Godavari"}},{"type":"Feature","id":547,"geometry":{"type":"Point","coordinates":[83.89568819573077,18.294632514476234]},"properties":{"OBJECTID":547,"STNAME":"ANDHRA PRADESH","DTNAME":"Srikakulam","DIST_HQ":"Srikakulam","STATE_HQ":0,"STCODE11":"37","DTCODE11":"542","YEAR_STAT":"2011_c","DIST_HQNM":"Srikakulam","Dist_LGD":519,"LOC_STAT_1":"District Hq","LOC_NAME":"Srikakulam"}},{"type":"Feature","id":548,"geometry":{"type":"Point","coordinates":[83.409944217612704,18.115404605178515]},"properties":{"OBJECTID":548,"STNAME":"ANDHRA PRADESH","DTNAME":"Vizianagaram","DIST_HQ":"Vizianagaram","STATE_HQ":2,"STCODE11":"37","DTCODE11":"543","YEAR_STAT":"2011_c","DIST_HQNM":"Vizianagaram","Dist_LGD":521,"LOC_STAT_1":"District Hq","LOC_NAME":"Vizianagaram"}},{"type":"Feature","id":549,"geometry":{"type":"Point","coordinates":[83.301645192760091,17.703639932326777]},"properties":{"OBJECTID":549,"STNAME":"ANDHRA PRADESH","DTNAME":"Visakhapatnam","DIST_HQ":"Vishakhapatnam","STATE_HQ":2,"STCODE11":"37","DTCODE11":"544","YEAR_STAT":"2011_c","DIST_HQNM":"Vishakhapatnam","Dist_LGD":520,"LOC_STAT_1":"District Hq","LOC_NAME":"Visakhapatnam"}},{"type":"Feature","id":550,"geometry":{"type":"Point","coordinates":[80.049599905629904,15.495448118835604]},"properties":{"OBJECTID":550,"STNAME":"ANDHRA PRADESH","DTNAME":"Prakasam","DIST_HQ":"Ongole","STATE_HQ":2,"STCODE11":"37","DTCODE11":"549","YEAR_STAT":"2011_c","DIST_HQNM":"Ongole","Dist_LGD":517,"LOC_STAT_1":"District Hq","LOC_NAME":"Prakasam"}}]}