{"type":"FeatureCollection","crs":{"type":"name","properties":{"name":"EPSG:4326"}},"features":[{"type":"Feature","id":8,"geometry":{"type":"Point","coordinates":[78.342790169562704,12.745460434133191]},"properties":{"OBJECTID":8,"stname":"ANDHRA PRADESH","dtname":"Chittoor","STCODE11":"37","DTCODE11":"554","SDTCODE11":"05427","NAME11":"Kuppam","LOC_NAME":"Kuppam"}},{"type":"Feature","id":9,"geometry":{"type":"Point","coordinates":[77.273766730343127,13.940948234701546]},"properties":{"OBJECTID":9,"stname":"ANDHRA PRADESH","dtname":"Anantapur","STCODE11":"37","DTCODE11":"553","SDTCODE11":"05350","NAME11":"Madakasira","LOC_NAME":"Madakasira"}},{"type":"Feature","id":10,"geometry":{"type":"Point","coordinates":[77.492968994260337,13.832145196065307]},"properties":{"OBJECTID":10,"stname":"ANDHRA PRADESH","dtname":"Anantapur","STCODE11":"37","DTCODE11":"553","SDTCODE11":"05364","NAME11":"Hindupur","LOC_NAME":"Hindupur"}},{"type":"Feature","id":11,"geometry":{"type":"Point","coordinates":[80.014016848505122,13.695777785020645]},"properties":{"OBJECTID":11,"stname":"ANDHRA PRADESH","dtname":"Sri Potti Sriramulu Nell*","STCODE11":"37","DTCODE11":"550","SDTCODE11":"05197","NAME11":"Sullurpeta","LOC_NAME":"Sullurpeta"}},{"type":"Feature","id":12,"geometry":{"type":"Point","coordinates":[79.578113305880095,13.960977715073783]},"properties":{"OBJECTID":12,"stname":"ANDHRA PRADESH","dtname":"Sri Potti Sriramulu Nell*","STCODE11":"37","DTCODE11":"550","SDTCODE11":"05187","NAME11":"Venkatagiri","LOC_NAME":"Venkatagiri"}},{"type":"Feature","id":13,"geometry":{"type":"Point","coordinates":[79.703620337042736,13.754844198280603]},"properties":{"OBJECTID":13,"stname":"ANDHRA PRADESH","dtname":"Chittoor","STCODE11":"37","DTCODE11":"554","SDTCODE11":"05378","NAME11":"Srikalahasti","LOC_NAME":"Srikalahasti"}},{"type":"Feature","id":14,"geometry":{"type":"Point","coordinates":[79.317261081412738,13.59033549334765]},"properties":{"OBJECTID":14,"stname":"ANDHRA PRADESH","dtname":"Chittoor","STCODE11":"37","DTCODE11":"554","SDTCODE11":"05384","NAME11":"Chandragiri","LOC_NAME":"Chandragiri"}},{"type":"Feature","id":15,"geometry":{"type":"Point","coordinates":[79.956026563479568,13.436932067222699]},"properties":{"OBJECTID":15,"stname":"ANDHRA PRADESH","dtname":"Chittoor","STCODE11":"37","DTCODE11":"554","SDTCODE11":"05402","NAME11":"Satyavedu","LOC_NAME":"Satyavedu"}},{"type":"Feature","id":16,"geometry":{"type":"Point","coordinates":[79.552106922097977,13.440392813939694]},"properties":{"OBJECTID":16,"stname":"ANDHRA PRADESH","dtname":"Chittoor","STCODE11":"37","DTCODE11":"554","SDTCODE11":"05407","NAME11":"Puttur","LOC_NAME":"Puttur"}},{"type":"Feature","id":17,"geometry":{"type":"Point","coordinates":[78.631088275952735,13.637444041120435]},"properties":{"OBJECTID":17,"stname":"ANDHRA PRADESH","dtname":"Chittoor","STCODE11":"37","DTCODE11":"554","SDTCODE11":"05388","NAME11":"Valmikipuram","LOC_NAME":"Valmikipuram"}},{"type":"Feature","id":18,"geometry":{"type":"Point","coordinates":[78.506999288466687,13.551433321037965]},"properties":{"OBJECTID":18,"stname":"ANDHRA PRADESH","dtname":"Chittoor","STCODE11":"37","DTCODE11":"554","SDTCODE11":"05392","NAME11":"Madanapalle","LOC_NAME":"Madanapalle"}},{"type":"Feature","id":19,"geometry":{"type":"Point","coordinates":[78.570299493577068,13.361515679634937]},"properties":{"OBJECTID":19,"stname":"ANDHRA PRADESH","dtname":"Chittoor","STCODE11":"37","DTCODE11":"554","SDTCODE11":"05415","NAME11":"Punganur","LOC_NAME":"Punganur"}},{"type":"Feature","id":20,"geometry":{"type":"Point","coordinates":[78.7455229442145,13.200670341413572]},"properties":{"OBJECTID":20,"stname":"ANDHRA PRADESH","dtname":"Chittoor","STCODE11":"37","DTCODE11":"554","SDTCODE11":"05422","NAME11":"Palamaner","LOC_NAME":"Palamaner"}},{"type":"Feature","id":21,"geometry":{"type":"Point","coordinates":[79.994482462527387,14.918008660468196]},"properties":{"OBJECTID":21,"stname":"ANDHRA PRADESH","dtname":"Sri Potti Sriramulu Nell*","STCODE11":"37","DTCODE11":"550","SDTCODE11":"05158","NAME11":"Kavali","LOC_NAME":"Kavali"}},{"type":"Feature","id":22,"geometry":{"type":"Point","coordinates":[79.300453747973918,14.878059982036028]},"properties":{"OBJECTID":22,"stname":"ANDHRA PRADESH","dtname":"Sri Potti Sriramulu Nell*","STCODE11":"37","DTCODE11":"550","SDTCODE11":"05154","NAME11":"Udayagiri","LOC_NAME":"Udayagiri"}},{"type":"Feature","id":23,"geometry":{"type":"Point","coordinates":[79.063129808457703,14.747762470751153]},"properties":{"OBJECTID":23,"stname":"ANDHRA PRADESH","dtname":"Y.S.R.","STCODE11":"37","DTCODE11":"551","SDTCODE11":"05210","NAME11":"Badvel","LOC_NAME":"Badvel"}},{"type":"Feature","id":24,"geometry":{"type":"Point","coordinates":[79.62512975342851,14.615836801634169]},"properties":{"OBJECTID":24,"stname":"ANDHRA PRADESH","dtname":"Sri Potti Sriramulu Nell*","STCODE11":"37","DTCODE11":"550","SDTCODE11":"05164","NAME11":"Atmakur","LOC_NAME":"Atmakur"}},{"type":"Feature","id":25,"geometry":{"type":"Point","coordinates":[80.000526928731844,14.77682592340717]},"properties":{"OBJECTID":25,"stname":"ANDHRA PRADESH","dtname":"Sri Potti Sriramulu Nell*","STCODE11":"37","DTCODE11":"550","SDTCODE11":"05159","NAME11":"Bogole","LOC_NAME":"Bogole"}},{"type":"Feature","id":26,"geometry":{"type":"Point","coordinates":[79.535081310621536,14.201807053171498]},"properties":{"OBJECTID":26,"stname":"ANDHRA PRADESH","dtname":"Sri Potti Sriramulu Nell*","STCODE11":"37","DTCODE11":"550","SDTCODE11":"05175","NAME11":"Rapur","LOC_NAME":"Rapur"}},{"type":"Feature","id":27,"geometry":{"type":"Point","coordinates":[79.159594668505818,14.195546089197604]},"properties":{"OBJECTID":27,"stname":"ANDHRA PRADESH","dtname":"Y.S.R.","STCODE11":"37","DTCODE11":"551","SDTCODE11":"05246","NAME11":"Rajampet","LOC_NAME":"Rajampet"}},{"type":"Feature","id":28,"geometry":{"type":"Point","coordinates":[79.849480759905717,14.147429412313352]},"properties":{"OBJECTID":28,"stname":"ANDHRA PRADESH","dtname":"Sri Potti Sriramulu Nell*","STCODE11":"37","DTCODE11":"550","SDTCODE11":"05184","NAME11":"Gudur","LOC_NAME":"Gudur"}},{"type":"Feature","id":29,"geometry":{"type":"Point","coordinates":[78.382481370703815,14.846646490421659]},"properties":{"OBJECTID":29,"stname":"ANDHRA PRADESH","dtname":"Y.S.R.","STCODE11":"37","DTCODE11":"551","SDTCODE11":"05215","NAME11":"Jammalamadugu","LOC_NAME":"Jammalamadugu"}},{"type":"Feature","id":30,"geometry":{"type":"Point","coordinates":[78.012068674722528,14.911233597191409]},"properties":{"OBJECTID":30,"stname":"ANDHRA PRADESH","dtname":"Anantapur","STCODE11":"37","DTCODE11":"553","SDTCODE11":"05313","NAME11":"Tadpatri","LOC_NAME":"Tadpatri"}},{"type":"Feature","id":31,"geometry":{"type":"Point","coordinates":[78.552457568628938,14.753272216666099]},"properties":{"OBJECTID":31,"stname":"ANDHRA PRADESH","dtname":"Y.S.R.","STCODE11":"37","DTCODE11":"551","SDTCODE11":"05214","NAME11":"Proddatur","LOC_NAME":"Proddatur"}},{"type":"Feature","id":32,"geometry":{"type":"Point","coordinates":[78.970852189086642,14.468266537196859]},"properties":{"OBJECTID":32,"stname":"ANDHRA PRADESH","dtname":"Y.S.R.","STCODE11":"37","DTCODE11":"551","SDTCODE11":"05229","NAME11":"Sidhout","LOC_NAME":"Sidhout"}},{"type":"Feature","id":33,"geometry":{"type":"Point","coordinates":[78.668936969564029,14.600028340350397]},"properties":{"OBJECTID":33,"stname":"ANDHRA PRADESH","dtname":"Y.S.R.","STCODE11":"37","DTCODE11":"551","SDTCODE11":"05224","NAME11":"Kamalapuram","LOC_NAME":"Kamalapuram"}},{"type":"Feature","id":34,"geometry":{"type":"Point","coordinates":[78.159948317206442,14.113817247103327]},"properties":{"OBJECTID":34,"stname":"ANDHRA PRADESH","dtname":"Anantapur","STCODE11":"37","DTCODE11":"553","SDTCODE11":"05343","NAME11":"Kadiri","LOC_NAME":"Kadiri"}},{"type":"Feature","id":35,"geometry":{"type":"Point","coordinates":[78.752140713436688,14.058402128220635]},"properties":{"OBJECTID":35,"stname":"ANDHRA PRADESH","dtname":"Y.S.R.","STCODE11":"37","DTCODE11":"551","SDTCODE11":"05239","NAME11":"Rayachoti","LOC_NAME":"Rayachoti"}},{"type":"Feature","id":36,"geometry":{"type":"Point","coordinates":[76.851288120668755,14.700267227322488]},"properties":{"OBJECTID":36,"stname":"ANDHRA PRADESH","dtname":"Anantapur","STCODE11":"37","DTCODE11":"553","SDTCODE11":"05305","NAME11":"Rayadurg","LOC_NAME":"Rayadurg"}},{"type":"Feature","id":37,"geometry":{"type":"Point","coordinates":[77.109794901421452,14.54921460914176]},"properties":{"OBJECTID":37,"stname":"ANDHRA PRADESH","dtname":"Anantapur","STCODE11":"37","DTCODE11":"553","SDTCODE11":"05321","NAME11":"Kalyandurg","LOC_NAME":"Kalyandurg"}},{"type":"Feature","id":38,"geometry":{"type":"Point","coordinates":[77.719993180410569,14.419185543798749]},"properties":{"OBJECTID":38,"stname":"ANDHRA PRADESH","dtname":"Anantapur","STCODE11":"37","DTCODE11":"553","SDTCODE11":"05336","NAME11":"Dharmavaram","LOC_NAME":"Dharmavaram"}},{"type":"Feature","id":39,"geometry":{"type":"Point","coordinates":[77.595410305469514,14.083761550727521]},"properties":{"OBJECTID":39,"stname":"ANDHRA PRADESH","dtname":"Anantapur","STCODE11":"37","DTCODE11":"553","SDTCODE11":"05356","NAME11":"Penukonda","LOC_NAME":"Penukonda"}},{"type":"Feature","id":40,"geometry":{"type":"Point","coordinates":[80.471130084807058,15.904686564536886]},"properties":{"OBJECTID":40,"stname":"ANDHRA PRADESH","dtname":"Guntur","STCODE11":"37","DTCODE11":"548","SDTCODE11":"05093","NAME11":"Bapatla","LOC_NAME":"Bapatla"}},{"type":"Feature","id":42,"geometry":{"type":"Point","coordinates":[78.264621905964049,15.857038658323102]},"properties":{"OBJECTID":42,"stname":"ANDHRA PRADESH","dtname":"Kurnool","STCODE11":"37","DTCODE11":"552","SDTCODE11":"05260","NAME11":"Nandikotkur","LOC_NAME":"Nandikotkur"}},{"type":"Feature","id":43,"geometry":{"type":"Point","coordinates":[78.486262629652018,15.485821943377434]},"properties":{"OBJECTID":43,"stname":"ANDHRA PRADESH","dtname":"Kurnool","STCODE11":"37","DTCODE11":"552","SDTCODE11":"05284","NAME11":"Nandyal","LOC_NAME":"Nandyal"}},{"type":"Feature","id":44,"geometry":{"type":"Point","coordinates":[78.22653277916524,15.317450991578054]},"properties":{"OBJECTID":44,"stname":"ANDHRA PRADESH","dtname":"Kurnool","STCODE11":"37","DTCODE11":"552","SDTCODE11":"05288","NAME11":"Banaganapalle","LOC_NAME":"Banaganapalle"}},{"type":"Feature","id":45,"geometry":{"type":"Point","coordinates":[78.317934544727549,15.230696005551248]},"properties":{"OBJECTID":45,"stname":"ANDHRA PRADESH","dtname":"Kurnool","STCODE11":"37","DTCODE11":"552","SDTCODE11":"05296","NAME11":"Koilkuntla","LOC_NAME":"Koilkuntla"}},{"type":"Feature","id":46,"geometry":{"type":"Point","coordinates":[78.514497235987392,15.131822035281299]},"properties":{"OBJECTID":46,"stname":"ANDHRA PRADESH","dtname":"Kurnool","STCODE11":"37","DTCODE11":"552","SDTCODE11":"05298","NAME11":"Allagadda","LOC_NAME":"Allagadda"}},{"type":"Feature","id":47,"geometry":{"type":"Point","coordinates":[77.275312369824348,15.625437233747238]},"properties":{"OBJECTID":47,"stname":"ANDHRA PRADESH","dtname":"Kurnool","STCODE11":"37","DTCODE11":"552","SDTCODE11":"05271","NAME11":"Adoni","LOC_NAME":"Adoni"}},{"type":"Feature","id":48,"geometry":{"type":"Point","coordinates":[77.871313385704013,15.393894133718113]},"properties":{"OBJECTID":48,"stname":"ANDHRA PRADESH","dtname":"Kurnool","STCODE11":"37","DTCODE11":"552","SDTCODE11":"05289","NAME11":"Dhone","LOC_NAME":"Dhone"}},{"type":"Feature","id":49,"geometry":{"type":"Point","coordinates":[77.503204194690042,15.395774400217519]},"properties":{"OBJECTID":49,"stname":"ANDHRA PRADESH","dtname":"Kurnool","STCODE11":"37","DTCODE11":"552","SDTCODE11":"05290","NAME11":"Pattikonda","LOC_NAME":"Pattikonda"}},{"type":"Feature","id":50,"geometry":{"type":"Point","coordinates":[77.226963461994771,15.393135507630777]},"properties":{"OBJECTID":50,"stname":"ANDHRA PRADESH","dtname":"Kurnool","STCODE11":"37","DTCODE11":"552","SDTCODE11":"05274","NAME11":"Alur","LOC_NAME":"Alur"}},{"type":"Feature","id":51,"geometry":{"type":"Point","coordinates":[77.63720861560229,15.118648571732678]},"properties":{"OBJECTID":51,"stname":"ANDHRA PRADESH","dtname":"Anantapur","STCODE11":"37","DTCODE11":"553","SDTCODE11":"05310","NAME11":"Gooty","LOC_NAME":"Gooty"}},{"type":"Feature","id":52,"geometry":{"type":"Point","coordinates":[82.028483713220155,16.837404018880267]},"properties":{"OBJECTID":52,"stname":"ANDHRA PRADESH","dtname":"East Godavari","STCODE11":"37","DTCODE11":"545","SDTCODE11":"04924","NAME11":"Ramachandrapuram","LOC_NAME":"Ramachandrapuram"}},{"type":"Feature","id":53,"geometry":{"type":"Point","coordinates":[82.005594121452859,16.57770982301324]},"properties":{"OBJECTID":53,"stname":"ANDHRA PRADESH","dtname":"East Godavari","STCODE11":"37","DTCODE11":"545","SDTCODE11":"04941","NAME11":"Amalapuram","LOC_NAME":"Amalapuram"}},{"type":"Feature","id":54,"geometry":{"type":"Point","coordinates":[81.774194737423713,17.017683432963295]},"properties":{"OBJECTID":54,"stname":"ANDHRA PRADESH","dtname":"East Godavari","STCODE11":"37","DTCODE11":"545","SDTCODE11":"04907","NAME11":"Rajahmundry Rural","LOC_NAME":"Rajahmundry Rural"}},{"type":"Feature","id":55,"geometry":{"type":"Point","coordinates":[81.727600755875315,17.019925524246407]},"properties":{"OBJECTID":55,"stname":"ANDHRA PRADESH","dtname":"West Godavari","STCODE11":"37","DTCODE11":"546","SDTCODE11":"04958","NAME11":"Kovvur","LOC_NAME":"Kovvur"}},{"type":"Feature","id":56,"geometry":{"type":"Point","coordinates":[81.894237416426066,16.718312218366805]},"properties":{"OBJECTID":56,"stname":"ANDHRA PRADESH","dtname":"East Godavari","STCODE11":"37","DTCODE11":"545","SDTCODE11":"04927","NAME11":"Kothapeta","LOC_NAME":"Kothapeta"}},{"type":"Feature","id":57,"geometry":{"type":"Point","coordinates":[81.689505869977253,16.754293753334533]},"properties":{"OBJECTID":57,"stname":"ANDHRA PRADESH","dtname":"West Godavari","STCODE11":"37","DTCODE11":"546","SDTCODE11":"04972","NAME11":"Tanuku","LOC_NAME":"Tanuku"}},{"type":"Feature","id":58,"geometry":{"type":"Point","coordinates":[81.528507753005229,16.811856369449561]},"properties":{"OBJECTID":58,"stname":"ANDHRA PRADESH","dtname":"West Godavari","STCODE11":"37","DTCODE11":"546","SDTCODE11":"04961","NAME11":"Tadepalligudem","LOC_NAME":"Tadepalligudem"}},{"type":"Feature","id":59,"geometry":{"type":"Point","coordinates":[81.210334300651127,16.550684080324547]},"properties":{"OBJECTID":59,"stname":"ANDHRA PRADESH","dtname":"Krishna","STCODE11":"37","DTCODE11":"547","SDTCODE11":"05016","NAME11":"Kaikalur","LOC_NAME":"Kaikalur"}},{"type":"Feature","id":60,"geometry":{"type":"Point","coordinates":[80.994812297010654,16.435978989529065]},"properties":{"OBJECTID":60,"stname":"ANDHRA PRADESH","dtname":"Krishna","STCODE11":"37","DTCODE11":"547","SDTCODE11":"05021","NAME11":"Gudivada","LOC_NAME":"Gudivada"}},{"type":"Feature","id":61,"geometry":{"type":"Point","coordinates":[81.522286147111572,16.542531706961885]},"properties":{"OBJECTID":61,"stname":"ANDHRA PRADESH","dtname":"West Godavari","STCODE11":"37","DTCODE11":"546","SDTCODE11":"04984","NAME11":"Bhimavaram","LOC_NAME":"Bhimavaram"}},{"type":"Feature","id":62,"geometry":{"type":"Point","coordinates":[81.841012880832352,16.474860467797484]},"properties":{"OBJECTID":62,"stname":"ANDHRA PRADESH","dtname":"East Godavari","STCODE11":"37","DTCODE11":"545","SDTCODE11":"04937","NAME11":"Razole","LOC_NAME":"Razole"}},{"type":"Feature","id":63,"geometry":{"type":"Point","coordinates":[81.701970950351878,16.438559492145263]},"properties":{"OBJECTID":63,"stname":"ANDHRA PRADESH","dtname":"West Godavari","STCODE11":"37","DTCODE11":"546","SDTCODE11":"04987","NAME11":"Narasapuram","LOC_NAME":"Narasapuram"}},{"type":"Feature","id":65,"geometry":{"type":"Point","coordinates":[80.095928688336741,16.89029655827072]},"properties":{"OBJECTID":65,"stname":"ANDHRA PRADESH","dtname":"Krishna","STCODE11":"37","DTCODE11":"547","SDTCODE11":"04991","NAME11":"Jaggayyapeta","LOC_NAME":"Jaggayyapeta"}},{"type":"Feature","id":66,"geometry":{"type":"Point","coordinates":[80.84752347648913,16.790158352993963]},"properties":{"OBJECTID":66,"stname":"ANDHRA PRADESH","dtname":"Krishna","STCODE11":"37","DTCODE11":"547","SDTCODE11":"05003","NAME11":"Nuzvid","LOC_NAME":"Nuzvid"}},{"type":"Feature","id":67,"geometry":{"type":"Point","coordinates":[80.286299040814868,16.773117375649129]},"properties":{"OBJECTID":67,"stname":"ANDHRA PRADESH","dtname":"Krishna","STCODE11":"37","DTCODE11":"547","SDTCODE11":"04993","NAME11":"Nandigama","LOC_NAME":"Nandigama"}},{"type":"Feature","id":68,"geometry":{"type":"Point","coordinates":[80.803004129834889,16.541338929296895]},"properties":{"OBJECTID":68,"stname":"ANDHRA PRADESH","dtname":"Krishna","STCODE11":"37","DTCODE11":"547","SDTCODE11":"05012","NAME11":"Gannavaram","LOC_NAME":"Gannavaram"}},{"type":"Feature","id":69,"geometry":{"type":"Point","coordinates":[81.14684136648809,16.257055530257116]},"properties":{"OBJECTID":69,"stname":"ANDHRA PRADESH","dtname":"Krishna","STCODE11":"37","DTCODE11":"547","SDTCODE11":"05030","NAME11":"Pedana","LOC_NAME":"Pedana"}},{"type":"Feature","id":70,"geometry":{"type":"Point","coordinates":[80.630909660452346,16.516385362317717]},"properties":{"OBJECTID":70,"stname":"ANDHRA PRADESH","dtname":"Krishna","STCODE11":"37","DTCODE11":"547","SDTCODE11":"05011","NAME11":"Vijayawada (Rural)","LOC_NAME":"Vijayawada (Rural)"}},{"type":"Feature","id":71,"geometry":{"type":"Point","coordinates":[80.149160949441921,16.396806584825701]},"properties":{"OBJECTID":71,"stname":"ANDHRA PRADESH","dtname":"Guntur","STCODE11":"37","DTCODE11":"548","SDTCODE11":"05058","NAME11":"Sattenapalle","LOC_NAME":"Sattenapalle"}},{"type":"Feature","id":72,"geometry":{"type":"Point","coordinates":[80.049745491096417,16.235510563157906]},"properties":{"OBJECTID":72,"stname":"ANDHRA PRADESH","dtname":"Guntur","STCODE11":"37","DTCODE11":"548","SDTCODE11":"05067","NAME11":"Narasaraopet","LOC_NAME":"Narasaraopet"}},{"type":"Feature","id":73,"geometry":{"type":"Point","coordinates":[80.64542913398283,16.2402890252501]},"properties":{"OBJECTID":73,"stname":"ANDHRA PRADESH","dtname":"Guntur","STCODE11":"37","DTCODE11":"548","SDTCODE11":"05078","NAME11":"Tenali","LOC_NAME":"Tenali"}},{"type":"Feature","id":74,"geometry":{"type":"Point","coordinates":[80.832378826724863,16.018805373421436]},"properties":{"OBJECTID":74,"stname":"ANDHRA PRADESH","dtname":"Guntur","STCODE11":"37","DTCODE11":"548","SDTCODE11":"05096","NAME11":"Repalle","LOC_NAME":"Repalle"}},{"type":"Feature","id":75,"geometry":{"type":"Point","coordinates":[80.915252217846742,16.022997173900556]},"properties":{"OBJECTID":75,"stname":"ANDHRA PRADESH","dtname":"Krishna","STCODE11":"37","DTCODE11":"547","SDTCODE11":"05037","NAME11":"Avanigadda","LOC_NAME":"Avanigadda"}},{"type":"Feature","id":78,"geometry":{"type":"Point","coordinates":[79.63412018352183,16.556249719759947]},"properties":{"OBJECTID":78,"stname":"ANDHRA PRADESH","dtname":"Guntur","STCODE11":"37","DTCODE11":"548","SDTCODE11":"05044","NAME11":"Gurazala","LOC_NAME":"Gurazala"}},{"type":"Feature","id":79,"geometry":{"type":"Point","coordinates":[79.740275399610141,16.051217360645026]},"properties":{"OBJECTID":79,"stname":"ANDHRA PRADESH","dtname":"Guntur","STCODE11":"37","DTCODE11":"548","SDTCODE11":"05062","NAME11":"Vinukonda","LOC_NAME":"Vinukonda"}},{"type":"Feature","id":105,"geometry":{"type":"Point","coordinates":[80.981874382098027,17.069538487153231]},"properties":{"OBJECTID":105,"stname":"ANDHRA PRADESH","dtname":"West Godavari","STCODE11":"37","DTCODE11":"546","SDTCODE11":"04944","NAME11":"Chintalapudi","LOC_NAME":"Chintalapudi"}},{"type":"Feature","id":106,"geometry":{"type":"Point","coordinates":[82.022935064950204,17.478527351595698]},"properties":{"OBJECTID":106,"stname":"ANDHRA PRADESH","dtname":"East Godavari","STCODE11":"37","DTCODE11":"545","SDTCODE11":"04887","NAME11":"Addateegala","LOC_NAME":"Addateegala"}},{"type":"Feature","id":107,"geometry":{"type":"Point","coordinates":[81.640416364976289,17.247286505436577]},"properties":{"OBJECTID":107,"stname":"ANDHRA PRADESH","dtname":"West Godavari","STCODE11":"37","DTCODE11":"546","SDTCODE11":"04949","NAME11":"Polavaram","LOC_NAME":"Polavaram"}},{"type":"Feature","id":109,"geometry":{"type":"Point","coordinates":[82.190277481514016,17.228846554724818]},"properties":{"OBJECTID":109,"stname":"ANDHRA PRADESH","dtname":"East Godavari","STCODE11":"37","DTCODE11":"545","SDTCODE11":"04900","NAME11":"Prathipadu","LOC_NAME":"Prathipadu"}},{"type":"Feature","id":110,"geometry":{"type":"Point","coordinates":[82.542954778366791,17.356258496380519]},"properties":{"OBJECTID":110,"stname":"ANDHRA PRADESH","dtname":"East Godavari","STCODE11":"37","DTCODE11":"545","SDTCODE11":"04890","NAME11":"Tuni","LOC_NAME":"Tuni"}},{"type":"Feature","id":111,"geometry":{"type":"Point","coordinates":[82.253348445547047,17.11799271527202]},"properties":{"OBJECTID":111,"stname":"ANDHRA PRADESH","dtname":"East Godavari","STCODE11":"37","DTCODE11":"545","SDTCODE11":"04911","NAME11":"Pithapuram","LOC_NAME":"Pithapuram"}},{"type":"Feature","id":112,"geometry":{"type":"Point","coordinates":[82.138575133982712,17.076543339945864]},"properties":{"OBJECTID":112,"stname":"ANDHRA PRADESH","dtname":"East Godavari","STCODE11":"37","DTCODE11":"545","SDTCODE11":"04903","NAME11":"Peddapuram","LOC_NAME":"Peddapuram"}},{"type":"Feature","id":113,"geometry":{"type":"Point","coordinates":[84.685726134938733,19.114151740309936]},"properties":{"OBJECTID":113,"stname":"ANDHRA PRADESH","dtname":"Srikakulam","STCODE11":"37","DTCODE11":"542","SDTCODE11":"04778","NAME11":"Ichchapuram","LOC_NAME":"Ichchapuram"}},{"type":"Feature","id":114,"geometry":{"type":"Point","coordinates":[84.584647041602821,18.942468057796678]},"properties":{"OBJECTID":114,"stname":"ANDHRA PRADESH","dtname":"Srikakulam","STCODE11":"37","DTCODE11":"542","SDTCODE11":"04780","NAME11":"Sompeta","LOC_NAME":"Sompeta"}},{"type":"Feature","id":115,"geometry":{"type":"Point","coordinates":[84.087306406953203,18.748191867649567]},"properties":{"OBJECTID":115,"stname":"ANDHRA PRADESH","dtname":"Srikakulam","STCODE11":"37","DTCODE11":"542","SDTCODE11":"04773","NAME11":"Pathapatnam","LOC_NAME":"Pathapatnam"}},{"type":"Feature","id":116,"geometry":{"type":"Point","coordinates":[84.236555204999291,18.60911035727133]},"properties":{"OBJECTID":116,"stname":"ANDHRA PRADESH","dtname":"Srikakulam","STCODE11":"37","DTCODE11":"542","SDTCODE11":"04789","NAME11":"Tekkali","LOC_NAME":"Tekkali"}},{"type":"Feature","id":117,"geometry":{"type":"Point","coordinates":[84.046593892300962,18.416862397381461]},"properties":{"OBJECTID":117,"stname":"ANDHRA PRADESH","dtname":"Srikakulam","STCODE11":"37","DTCODE11":"542","SDTCODE11":"04799","NAME11":"Narasannapeta","LOC_NAME":"Narasannapeta"}},{"type":"Feature","id":118,"geometry":{"type":"Point","coordinates":[83.424144490078334,18.783624032358919]},"properties":{"OBJECTID":118,"stname":"ANDHRA PRADESH","dtname":"Vizianagaram","STCODE11":"37","DTCODE11":"543","SDTCODE11":"04812","NAME11":"Parvathipuram","LOC_NAME":"Parvathipuram"}},{"type":"Feature","id":119,"geometry":{"type":"Point","coordinates":[83.358130263390507,18.575344815419847]},"properties":{"OBJECTID":119,"stname":"ANDHRA PRADESH","dtname":"Vizianagaram","STCODE11":"37","DTCODE11":"543","SDTCODE11":"04816","NAME11":"Bobbili","LOC_NAME":"Bobbili"}},{"type":"Feature","id":120,"geometry":{"type":"Point","coordinates":[83.757195909338321,18.602638070956303]},"properties":{"OBJECTID":120,"stname":"ANDHRA PRADESH","dtname":"Srikakulam","STCODE11":"37","DTCODE11":"542","SDTCODE11":"04784","NAME11":"Palakonda","LOC_NAME":"Palakonda"}},{"type":"Feature","id":121,"geometry":{"type":"Point","coordinates":[83.205595199863026,18.5178454409123]},"properties":{"OBJECTID":121,"stname":"ANDHRA PRADESH","dtname":"Vizianagaram","STCODE11":"37","DTCODE11":"543","SDTCODE11":"04817","NAME11":"Salur","LOC_NAME":"Salur"}},{"type":"Feature","id":122,"geometry":{"type":"Point","coordinates":[83.338609461736525,18.27906357107501]},"properties":{"OBJECTID":122,"stname":"ANDHRA PRADESH","dtname":"Vizianagaram","STCODE11":"37","DTCODE11":"543","SDTCODE11":"04825","NAME11":"Gajapathinagaram","LOC_NAME":"Gajapathinagaram"}},{"type":"Feature","id":123,"geometry":{"type":"Point","coordinates":[83.141852799952346,18.11260408471103]},"properties":{"OBJECTID":123,"stname":"ANDHRA PRADESH","dtname":"Vizianagaram","STCODE11":"37","DTCODE11":"543","SDTCODE11":"04831","NAME11":"Srungavarapukota","LOC_NAME":"Srungavarapukota"}},{"type":"Feature","id":140,"geometry":{"type":"Point","coordinates":[80.35642436787461,15.825650143850721]},"properties":{"OBJECTID":140,"stname":"ANDHRA PRADESH","dtname":"Prakasam","STCODE11":"37","DTCODE11":"549","SDTCODE11":"05123","NAME11":"Chirala","LOC_NAME":"Chirala"}},{"type":"Feature","id":141,"geometry":{"type":"Point","coordinates":[79.970320479025361,15.809353177786729]},"properties":{"OBJECTID":141,"stname":"ANDHRA PRADESH","dtname":"Prakasam","STCODE11":"37","DTCODE11":"549","SDTCODE11":"05112","NAME11":"Addanki","LOC_NAME":"Addanki"}},{"type":"Feature","id":142,"geometry":{"type":"Point","coordinates":[79.680802409275572,15.771698099893547]},"properties":{"OBJECTID":142,"stname":"ANDHRA PRADESH","dtname":"Prakasam","STCODE11":"37","DTCODE11":"549","SDTCODE11":"05114","NAME11":"Darsi","LOC_NAME":"Darsi"}},{"type":"Feature","id":143,"geometry":{"type":"Point","coordinates":[79.272074319740042,15.740531770059158]},"properties":{"OBJECTID":143,"stname":"ANDHRA PRADESH","dtname":"Prakasam","STCODE11":"37","DTCODE11":"549","SDTCODE11":"05115","NAME11":"Markapur","LOC_NAME":"Markapur"}},{"type":"Feature","id":144,"geometry":{"type":"Point","coordinates":[79.614073519778614,15.605240492670239]},"properties":{"OBJECTID":144,"stname":"ANDHRA PRADESH","dtname":"Prakasam","STCODE11":"37","DTCODE11":"549","SDTCODE11":"05120","NAME11":"Podili","LOC_NAME":"Podili"}},{"type":"Feature","id":145,"geometry":{"type":"Point","coordinates":[79.907297413163263,15.214732701249488]},"properties":{"OBJECTID":145,"stname":"ANDHRA PRADESH","dtname":"Prakasam","STCODE11":"37","DTCODE11":"549","SDTCODE11":"05148","NAME11":"Kandukur","LOC_NAME":"Kandukur"}},{"type":"Feature","id":146,"geometry":{"type":"Point","coordinates":[78.922488441986886,15.376189539536464]},"properties":{"OBJECTID":146,"stname":"ANDHRA PRADESH","dtname":"Prakasam","STCODE11":"37","DTCODE11":"549","SDTCODE11":"05133","NAME11":"Giddalur","LOC_NAME":"Giddalur"}},{"type":"Feature","id":153,"geometry":{"type":"Point","coordinates":[82.93868570460512,17.829326801331622]},"properties":{"OBJECTID":153,"stname":"ANDHRA PRADESH","dtname":"Visakhapatnam","STCODE11":"37","DTCODE11":"544","SDTCODE11":"04872","NAME11":"Chodavaram","LOC_NAME":"Chodavaram"}},{"type":"Feature","id":154,"geometry":{"type":"Point","coordinates":[82.353337201520347,17.868880968542378]},"properties":{"OBJECTID":154,"stname":"ANDHRA PRADESH","dtname":"Visakhapatnam","STCODE11":"37","DTCODE11":"544","SDTCODE11":"04849","NAME11":"Chintapalle","LOC_NAME":"Chintapalle"}},{"type":"Feature","id":155,"geometry":{"type":"Point","coordinates":[83.012871535326667,17.685235207008137]},"properties":{"OBJECTID":155,"stname":"ANDHRA PRADESH","dtname":"Visakhapatnam","STCODE11":"37","DTCODE11":"544","SDTCODE11":"04871","NAME11":"Anakapalle","LOC_NAME":"Anakapalle"}},{"type":"Feature","id":156,"geometry":{"type":"Point","coordinates":[82.612265281361545,17.665588485608698]},"properties":{"OBJECTID":156,"stname":"ANDHRA PRADESH","dtname":"Visakhapatnam","STCODE11":"37","DTCODE11":"544","SDTCODE11":"04854","NAME11":"Narsipatnam","LOC_NAME":"Narsipatnam"}},{"type":"Feature","id":157,"geometry":{"type":"Point","coordinates":[82.857078037921937,17.548176895139829]},"properties":{"OBJECTID":157,"stname":"ANDHRA PRADESH","dtname":"Visakhapatnam","STCODE11":"37","DTCODE11":"544","SDTCODE11":"04879","NAME11":"Yelamanchili","LOC_NAME":"Yelamanchili"}},{"type":"Feature","id":158,"geometry":{"type":"Point","coordinates":[83.450918335150405,17.890041473985931]},"properties":{"OBJECTID":158,"stname":"ANDHRA PRADESH","dtname":"Visakhapatnam","STCODE11":"37","DTCODE11":"544","SDTCODE11":"04865","NAME11":"Bheemunipatnam","LOC_NAME":"Bheemunipatnam"}},{"type":"Feature","id":159,"geometry":{"type":"Point","coordinates":[82.669023071529082,18.080082403243178]},"properties":{"OBJECTID":159,"stname":"ANDHRA PRADESH","dtname":"Visakhapatnam","STCODE11":"37","DTCODE11":"544","SDTCODE11":"04847","NAME11":"Paderu","LOC_NAME":"Paderu"}},{"type":"Feature","id":160,"geometry":{"type":"Point","coordinates":[79.697966902091522,13.268401581776658]},"properties":{"OBJECTID":160,"stname":"ANDHRA PRADESH","dtname":"Chittoor","STCODE11":"37","DTCODE11":"554","SDTCODE11":"05405","NAME11":"Vijayapuram","LOC_NAME":"Vijayapuram"}},{"type":"Feature","id":161,"geometry":{"type":"Point","coordinates":[78.486323195865111,12.898157166431965]},"properties":{"OBJECTID":161,"stname":"ANDHRA PRADESH","dtname":"Chittoor","STCODE11":"37","DTCODE11":"554","SDTCODE11":"05428","NAME11":"Ramakuppam","LOC_NAME":"Ramakuppam"}},{"type":"Feature","id":162,"geometry":{"type":"Point","coordinates":[78.489068917192284,13.002346879345504]},"properties":{"OBJECTID":162,"stname":"ANDHRA PRADESH","dtname":"Chittoor","STCODE11":"37","DTCODE11":"554","SDTCODE11":"05424","NAME11":"Venkatagirikota","LOC_NAME":"Venkatagirikota"}},{"type":"Feature","id":163,"geometry":{"type":"Point","coordinates":[77.101741017114136,13.841712314654467]},"properties":{"OBJECTID":163,"stname":"ANDHRA PRADESH","dtname":"Anantapur","STCODE11":"37","DTCODE11":"553","SDTCODE11":"05353","NAME11":"Rolla","LOC_NAME":"Rolla"}},{"type":"Feature","id":164,"geometry":{"type":"Point","coordinates":[77.609735271283114,13.803676817362822]},"properties":{"OBJECTID":164,"stname":"ANDHRA PRADESH","dtname":"Anantapur","STCODE11":"37","DTCODE11":"553","SDTCODE11":"05365","NAME11":"Lepakshi","LOC_NAME":"Lepakshi"}},{"type":"Feature","id":165,"geometry":{"type":"Point","coordinates":[80.030940105938072,13.621273235505253]},"properties":{"OBJECTID":165,"stname":"ANDHRA PRADESH","dtname":"Sri Potti Sriramulu Nell*","STCODE11":"37","DTCODE11":"550","SDTCODE11":"05198","NAME11":"Tada","LOC_NAME":"Tada"}},{"type":"Feature","id":166,"geometry":{"type":"Point","coordinates":[79.351580237678846,13.95799926624451]},"properties":{"OBJECTID":166,"stname":"ANDHRA PRADESH","dtname":"Y.S.R.","STCODE11":"37","DTCODE11":"551","SDTCODE11":"05249","NAME11":"Kodur","LOC_NAME":"Kodur"}},{"type":"Feature","id":167,"geometry":{"type":"Point","coordinates":[79.506941859230977,13.637929748236324]},"properties":{"OBJECTID":167,"stname":"ANDHRA PRADESH","dtname":"Chittoor","STCODE11":"37","DTCODE11":"554","SDTCODE11":"05376","NAME11":"Renigunta","LOC_NAME":"Renigunta"}},{"type":"Feature","id":168,"geometry":{"type":"Point","coordinates":[79.421291475528577,13.63511121216793]},"properties":{"OBJECTID":168,"stname":"ANDHRA PRADESH","dtname":"Chittoor","STCODE11":"37","DTCODE11":"554","SDTCODE11":"05383","NAME11":"Tirupati (Urban)","LOC_NAME":"Tirupati (Urban)"}},{"type":"Feature","id":169,"geometry":{"type":"Point","coordinates":[79.52414600907349,13.548878429181823]},"properties":{"OBJECTID":169,"stname":"ANDHRA PRADESH","dtname":"Chittoor","STCODE11":"37","DTCODE11":"554","SDTCODE11":"05399","NAME11":"Vadamalapeta","LOC_NAME":"Vadamalapeta"}},{"type":"Feature","id":170,"geometry":{"type":"Point","coordinates":[79.115719255806809,13.449251209483842]},"properties":{"OBJECTID":170,"stname":"ANDHRA PRADESH","dtname":"Chittoor","STCODE11":"37","DTCODE11":"554","SDTCODE11":"05396","NAME11":"Pakala","LOC_NAME":"Pakala"}},{"type":"Feature","id":171,"geometry":{"type":"Point","coordinates":[79.447577008988603,13.420614107801086]},"properties":{"OBJECTID":171,"stname":"ANDHRA PRADESH","dtname":"Chittoor","STCODE11":"37","DTCODE11":"554","SDTCODE11":"05408","NAME11":"Karvetinagar","LOC_NAME":"Karvetinagar"}},{"type":"Feature","id":172,"geometry":{"type":"Point","coordinates":[79.196820092108354,13.370967757678468]},"properties":{"OBJECTID":172,"stname":"ANDHRA PRADESH","dtname":"Chittoor","STCODE11":"37","DTCODE11":"554","SDTCODE11":"05409","NAME11":"Penumuru","LOC_NAME":"Penumuru"}},{"type":"Feature","id":173,"geometry":{"type":"Point","coordinates":[79.095197384176572,13.346703762027811]},"properties":{"OBJECTID":173,"stname":"ANDHRA PRADESH","dtname":"Chittoor","STCODE11":"37","DTCODE11":"554","SDTCODE11":"05410","NAME11":"Puthalapattu","LOC_NAME":"Puthalapattu"}},{"type":"Feature","id":174,"geometry":{"type":"Point","coordinates":[79.58797729009504,13.426598180326611]},"properties":{"OBJECTID":174,"stname":"ANDHRA PRADESH","dtname":"Chittoor","STCODE11":"37","DTCODE11":"554","SDTCODE11":"05400","NAME11":"Narayanavanam","LOC_NAME":"Narayanavanam"}},{"type":"Feature","id":175,"geometry":{"type":"Point","coordinates":[79.586116891718035,13.323943756930875]},"properties":{"OBJECTID":175,"stname":"ANDHRA PRADESH","dtname":"Chittoor","STCODE11":"37","DTCODE11":"554","SDTCODE11":"05406","NAME11":"Nagari","LOC_NAME":"Nagari"}},{"type":"Feature","id":176,"geometry":{"type":"Point","coordinates":[78.679707503919275,13.942213787179607]},"properties":{"OBJECTID":176,"stname":"ANDHRA PRADESH","dtname":"Y.S.R.","STCODE11":"37","DTCODE11":"551","SDTCODE11":"05236","NAME11":"Chinnamandem","LOC_NAME":"Chinnamandem"}},{"type":"Feature","id":177,"geometry":{"type":"Point","coordinates":[78.451498575554908,13.821868201990018]},"properties":{"OBJECTID":177,"stname":"ANDHRA PRADESH","dtname":"Chittoor","STCODE11":"37","DTCODE11":"554","SDTCODE11":"05368","NAME11":"Thamballapalle","LOC_NAME":"Thamballapalle"}},{"type":"Feature","id":178,"geometry":{"type":"Point","coordinates":[78.915986152092813,13.982096801520695]},"properties":{"OBJECTID":178,"stname":"ANDHRA PRADESH","dtname":"Y.S.R.","STCODE11":"37","DTCODE11":"551","SDTCODE11":"05238","NAME11":"T Sundupalle","LOC_NAME":"T Sundupalle"}},{"type":"Feature","id":179,"geometry":{"type":"Point","coordinates":[78.788394200326024,13.827205549538562]},"properties":{"OBJECTID":179,"stname":"ANDHRA PRADESH","dtname":"Chittoor","STCODE11":"37","DTCODE11":"554","SDTCODE11":"05371","NAME11":"Kalakada","LOC_NAME":"Kalakada"}},{"type":"Feature","id":180,"geometry":{"type":"Point","coordinates":[78.535047604873341,13.928835459515826]},"properties":{"OBJECTID":180,"stname":"ANDHRA PRADESH","dtname":"Chittoor","STCODE11":"37","DTCODE11":"554","SDTCODE11":"05369","NAME11":"Peddamandyam","LOC_NAME":"Peddamandyam"}},{"type":"Feature","id":181,"geometry":{"type":"Point","coordinates":[78.20712602492479,13.71294064103602]},"properties":{"OBJECTID":181,"stname":"ANDHRA PRADESH","dtname":"Chittoor","STCODE11":"37","DTCODE11":"554","SDTCODE11":"05390","NAME11":"Pedda Thippasamudram","LOC_NAME":"Pedda Thippasamudram"}},{"type":"Feature","id":182,"geometry":{"type":"Point","coordinates":[78.938673565428999,13.655549195842626]},"properties":{"OBJECTID":182,"stname":"ANDHRA PRADESH","dtname":"Chittoor","STCODE11":"37","DTCODE11":"554","SDTCODE11":"05386","NAME11":"Pileru","LOC_NAME":"Pileru"}},{"type":"Feature","id":183,"geometry":{"type":"Point","coordinates":[78.262020752312168,13.657511097828197]},"properties":{"OBJECTID":183,"stname":"ANDHRA PRADESH","dtname":"Chittoor","STCODE11":"37","DTCODE11":"554","SDTCODE11":"05391","NAME11":"B.Kothakota","LOC_NAME":"B.Kothakota"}},{"type":"Feature","id":184,"geometry":{"type":"Point","coordinates":[78.482079651480973,13.65424788694555]},"properties":{"OBJECTID":184,"stname":"ANDHRA PRADESH","dtname":"Chittoor","STCODE11":"37","DTCODE11":"554","SDTCODE11":"05389","NAME11":"Kurabalakota","LOC_NAME":"Kurabalakota"}},{"type":"Feature","id":185,"geometry":{"type":"Point","coordinates":[78.800884780278295,13.642390430750028]},"properties":{"OBJECTID":185,"stname":"ANDHRA PRADESH","dtname":"Chittoor","STCODE11":"37","DTCODE11":"554","SDTCODE11":"05387","NAME11":"Kalikiri","LOC_NAME":"Kalikiri"}},{"type":"Feature","id":186,"geometry":{"type":"Point","coordinates":[78.809997346215937,13.474292282759848]},"properties":{"OBJECTID":186,"stname":"ANDHRA PRADESH","dtname":"Chittoor","STCODE11":"37","DTCODE11":"554","SDTCODE11":"05412","NAME11":"Somala","LOC_NAME":"Somala"}},{"type":"Feature","id":187,"geometry":{"type":"Point","coordinates":[78.692071150125301,13.436628119048954]},"properties":{"OBJECTID":187,"stname":"ANDHRA PRADESH","dtname":"Chittoor","STCODE11":"37","DTCODE11":"554","SDTCODE11":"05413","NAME11":"Chowdepalle","LOC_NAME":"Chowdepalle"}},{"type":"Feature","id":188,"geometry":{"type":"Point","coordinates":[78.612146391786922,13.091845328313793]},"properties":{"OBJECTID":188,"stname":"ANDHRA PRADESH","dtname":"Chittoor","STCODE11":"37","DTCODE11":"554","SDTCODE11":"05423","NAME11":"Baireddipalle","LOC_NAME":"Baireddipalle"}},{"type":"Feature","id":189,"geometry":{"type":"Point","coordinates":[76.977409679435766,14.130648369406851]},"properties":{"OBJECTID":189,"stname":"ANDHRA PRADESH","dtname":"Anantapur","STCODE11":"37","DTCODE11":"553","SDTCODE11":"05351","NAME11":"Amarapuram","LOC_NAME":"Amarapuram"}},{"type":"Feature","id":190,"geometry":{"type":"Point","coordinates":[77.771010150210998,13.984198293422153]},"properties":{"OBJECTID":190,"stname":"ANDHRA PRADESH","dtname":"Anantapur","STCODE11":"37","DTCODE11":"553","SDTCODE11":"05362","NAME11":"Gorantla","LOC_NAME":"Gorantla"}},{"type":"Feature","id":191,"geometry":{"type":"Point","coordinates":[77.70683327292663,13.841108795396291]},"properties":{"OBJECTID":191,"stname":"ANDHRA PRADESH","dtname":"Anantapur","STCODE11":"37","DTCODE11":"553","SDTCODE11":"05366","NAME11":"Chilamathur","LOC_NAME":"Chilamathur"}},{"type":"Feature","id":192,"geometry":{"type":"Point","coordinates":[77.459663114278527,13.892511900551774]},"properties":{"OBJECTID":192,"stname":"ANDHRA PRADESH","dtname":"Anantapur","STCODE11":"37","DTCODE11":"553","SDTCODE11":"05355","NAME11":"Parigi","LOC_NAME":"Parigi"}},{"type":"Feature","id":193,"geometry":{"type":"Point","coordinates":[80.0536042421286,14.681794078962687]},"properties":{"OBJECTID":193,"stname":"ANDHRA PRADESH","dtname":"Sri Potti Sriramulu Nell*","STCODE11":"37","DTCODE11":"550","SDTCODE11":"05167","NAME11":"Allur","LOC_NAME":"Allur"}},{"type":"Feature","id":194,"geometry":{"type":"Point","coordinates":[79.987479682560945,14.564624753709909]},"properties":{"OBJECTID":194,"stname":"ANDHRA PRADESH","dtname":"Sri Potti Sriramulu Nell*","STCODE11":"37","DTCODE11":"550","SDTCODE11":"05169","NAME11":"Kodavalur","LOC_NAME":"Kodavalur"}},{"type":"Feature","id":195,"geometry":{"type":"Point","coordinates":[79.347802046663034,14.699127545902655]},"properties":{"OBJECTID":195,"stname":"ANDHRA PRADESH","dtname":"Sri Potti Sriramulu Nell*","STCODE11":"37","DTCODE11":"550","SDTCODE11":"05163","NAME11":"Marripadu","LOC_NAME":"Marripadu"}},{"type":"Feature","id":196,"geometry":{"type":"Point","coordinates":[80.107416814008957,14.472271334279288]},"properties":{"OBJECTID":196,"stname":"ANDHRA PRADESH","dtname":"Sri Potti Sriramulu Nell*","STCODE11":"37","DTCODE11":"550","SDTCODE11":"05179","NAME11":"Indukurpet","LOC_NAME":"Indukurpet"}},{"type":"Feature","id":197,"geometry":{"type":"Point","coordinates":[80.082935457863883,14.391108793541154]},"properties":{"OBJECTID":197,"stname":"ANDHRA PRADESH","dtname":"Sri Potti Sriramulu Nell*","STCODE11":"37","DTCODE11":"550","SDTCODE11":"05180","NAME11":"Thotapalligudur","LOC_NAME":"Thotapalligudur"}},{"type":"Feature","id":198,"geometry":{"type":"Point","coordinates":[80.094687274106278,14.28944659172833]},"properties":{"OBJECTID":198,"stname":"ANDHRA PRADESH","dtname":"Sri Potti Sriramulu Nell*","STCODE11":"37","DTCODE11":"550","SDTCODE11":"05181","NAME11":"Muthukur","LOC_NAME":"Muthukur"}},{"type":"Feature","id":199,"geometry":{"type":"Point","coordinates":[80.048773202243595,14.041536971426456]},"properties":{"OBJECTID":199,"stname":"ANDHRA PRADESH","dtname":"Sri Potti Sriramulu Nell*","STCODE11":"37","DTCODE11":"550","SDTCODE11":"05191","NAME11":"Kota","LOC_NAME":"Kota"}},{"type":"Feature","id":200,"geometry":{"type":"Point","coordinates":[79.42181723790479,14.99381765591218]},"properties":{"OBJECTID":200,"stname":"ANDHRA PRADESH","dtname":"Sri Potti Sriramulu Nell*","STCODE11":"37","DTCODE11":"550","SDTCODE11":"05155","NAME11":"Varikuntapadu","LOC_NAME":"Varikuntapadu"}},{"type":"Feature","id":201,"geometry":{"type":"Point","coordinates":[79.404855555035567,14.852199233183738]},"properties":{"OBJECTID":201,"stname":"ANDHRA PRADESH","dtname":"Sri Potti Sriramulu Nell*","STCODE11":"37","DTCODE11":"550","SDTCODE11":"05162","NAME11":"Duttalur","LOC_NAME":"Duttalur"}},{"type":"Feature","id":202,"geometry":{"type":"Point","coordinates":[79.580222804390417,14.834375111397442]},"properties":{"OBJECTID":202,"stname":"ANDHRA PRADESH","dtname":"Sri Potti Sriramulu Nell*","STCODE11":"37","DTCODE11":"550","SDTCODE11":"05161","NAME11":"Vinjamur","LOC_NAME":"Vinjamur"}},{"type":"Feature","id":203,"geometry":{"type":"Point","coordinates":[79.691879119124067,14.828748985544145]},"properties":{"OBJECTID":203,"stname":"ANDHRA PRADESH","dtname":"Sri Potti Sriramulu Nell*","STCODE11":"37","DTCODE11":"550","SDTCODE11":"05160","NAME11":"Kaligiri","LOC_NAME":"Kaligiri"}},{"type":"Feature","id":204,"geometry":{"type":"Point","coordinates":[79.909684878270298,14.885592005450647]},"properties":{"OBJECTID":204,"stname":"ANDHRA PRADESH","dtname":"Sri Potti Sriramulu Nell*","STCODE11":"37","DTCODE11":"550","SDTCODE11":"05157","NAME11":"Jaladanki","LOC_NAME":"Jaladanki"}},{"type":"Feature","id":205,"geometry":{"type":"Point","coordinates":[79.678194660192858,14.689462590915596]},"properties":{"OBJECTID":205,"stname":"ANDHRA PRADESH","dtname":"Sri Potti Sriramulu Nell*","STCODE11":"37","DTCODE11":"550","SDTCODE11":"05165","NAME11":"Anumasamudrampeta","LOC_NAME":"Anumasamudrampeta"}},{"type":"Feature","id":206,"geometry":{"type":"Point","coordinates":[79.880763867429678,14.539281428918402]},"properties":{"OBJECTID":206,"stname":"ANDHRA PRADESH","dtname":"Sri Potti Sriramulu Nell*","STCODE11":"37","DTCODE11":"550","SDTCODE11":"05170","NAME11":"Buchireddipalem","LOC_NAME":"Buchireddipalem"}},{"type":"Feature","id":207,"geometry":{"type":"Point","coordinates":[79.567030765965399,14.5204688299622]},"properties":{"OBJECTID":207,"stname":"ANDHRA PRADESH","dtname":"Sri Potti Sriramulu Nell*","STCODE11":"37","DTCODE11":"550","SDTCODE11":"05172","NAME11":"Chejerla","LOC_NAME":"Chejerla"}},{"type":"Feature","id":208,"geometry":{"type":"Point","coordinates":[79.749827854372768,14.584574397588066]},"properties":{"OBJECTID":208,"stname":"ANDHRA PRADESH","dtname":"Sri Potti Sriramulu Nell*","STCODE11":"37","DTCODE11":"550","SDTCODE11":"05171","NAME11":"Sangam","LOC_NAME":"Sangam"}},{"type":"Feature","id":209,"geometry":{"type":"Point","coordinates":[79.411013026607847,14.512655847133745]},"properties":{"OBJECTID":209,"stname":"ANDHRA PRADESH","dtname":"Sri Potti Sriramulu Nell*","STCODE11":"37","DTCODE11":"550","SDTCODE11":"05174","NAME11":"Kaluvoya","LOC_NAME":"Kaluvoya"}},{"type":"Feature","id":210,"geometry":{"type":"Point","coordinates":[79.407522861523262,14.570849923534375]},"properties":{"OBJECTID":210,"stname":"ANDHRA PRADESH","dtname":"Sri Potti Sriramulu Nell*","STCODE11":"37","DTCODE11":"550","SDTCODE11":"05173","NAME11":"Ananthasagaram","LOC_NAME":"Ananthasagaram"}},{"type":"Feature","id":211,"geometry":{"type":"Point","coordinates":[79.026313381515791,14.394801918278269]},"properties":{"OBJECTID":211,"stname":"ANDHRA PRADESH","dtname":"Y.S.R.","STCODE11":"37","DTCODE11":"551","SDTCODE11":"05228","NAME11":"Vontimitta","LOC_NAME":"Vontimitta"}},{"type":"Feature","id":212,"geometry":{"type":"Point","coordinates":[79.262516059165748,14.306906451895314]},"properties":{"OBJECTID":212,"stname":"ANDHRA PRADESH","dtname":"Y.S.R.","STCODE11":"37","DTCODE11":"551","SDTCODE11":"05244","NAME11":"Penagalur","LOC_NAME":"Penagalur"}},{"type":"Feature","id":213,"geometry":{"type":"Point","coordinates":[79.114426314211627,14.266363479757144]},"properties":{"OBJECTID":213,"stname":"ANDHRA PRADESH","dtname":"Y.S.R.","STCODE11":"37","DTCODE11":"551","SDTCODE11":"05243","NAME11":"Nandalur","LOC_NAME":"Nandalur"}},{"type":"Feature","id":214,"geometry":{"type":"Point","coordinates":[79.733398679329213,14.38571182991817]},"properties":{"OBJECTID":214,"stname":"ANDHRA PRADESH","dtname":"Sri Potti Sriramulu Nell*","STCODE11":"37","DTCODE11":"550","SDTCODE11":"05176","NAME11":"Podalakur","LOC_NAME":"Podalakur"}},{"type":"Feature","id":215,"geometry":{"type":"Point","coordinates":[79.925435048231563,14.326668154260775]},"properties":{"OBJECTID":215,"stname":"ANDHRA PRADESH","dtname":"Sri Potti Sriramulu Nell*","STCODE11":"37","DTCODE11":"550","SDTCODE11":"05182","NAME11":"Venkatachalam","LOC_NAME":"Venkatachalam"}},{"type":"Feature","id":216,"geometry":{"type":"Point","coordinates":[79.871978979958243,14.199246114525568]},"properties":{"OBJECTID":216,"stname":"ANDHRA PRADESH","dtname":"Sri Potti Sriramulu Nell*","STCODE11":"37","DTCODE11":"550","SDTCODE11":"05183","NAME11":"Manubolu","LOC_NAME":"Manubolu"}},{"type":"Feature","id":217,"geometry":{"type":"Point","coordinates":[79.741828463667204,14.177184699127947]},"properties":{"OBJECTID":217,"stname":"ANDHRA PRADESH","dtname":"Sri Potti Sriramulu Nell*","STCODE11":"37","DTCODE11":"550","SDTCODE11":"05185","NAME11":"Sydapuram","LOC_NAME":"Sydapuram"}},{"type":"Feature","id":218,"geometry":{"type":"Point","coordinates":[79.332142699071895,14.170956152174806]},"properties":{"OBJECTID":218,"stname":"ANDHRA PRADESH","dtname":"Y.S.R.","STCODE11":"37","DTCODE11":"551","SDTCODE11":"05245","NAME11":"Chitvel","LOC_NAME":"Chitvel"}},{"type":"Feature","id":219,"geometry":{"type":"Point","coordinates":[79.209055184007312,14.123907816227087]},"properties":{"OBJECTID":219,"stname":"ANDHRA PRADESH","dtname":"Y.S.R.","STCODE11":"37","DTCODE11":"551","SDTCODE11":"05247","NAME11":"Pullampeta","LOC_NAME":"Pullampeta"}},{"type":"Feature","id":220,"geometry":{"type":"Point","coordinates":[78.10732488928511,15.075508628919323]},"properties":{"OBJECTID":220,"stname":"ANDHRA PRADESH","dtname":"Kurnool","STCODE11":"37","DTCODE11":"552","SDTCODE11":"05301","NAME11":"Kolimigundla","LOC_NAME":"Kolimigundla"}},{"type":"Feature","id":221,"geometry":{"type":"Point","coordinates":[78.590281139954968,14.963721784551257]},"properties":{"OBJECTID":221,"stname":"ANDHRA PRADESH","dtname":"Kurnool","STCODE11":"37","DTCODE11":"552","SDTCODE11":"05303","NAME11":"Chagalamarri","LOC_NAME":"Chagalamarri"}},{"type":"Feature","id":222,"geometry":{"type":"Point","coordinates":[78.452087083457101,15.011805555920573]},"properties":{"OBJECTID":222,"stname":"ANDHRA PRADESH","dtname":"Y.S.R.","STCODE11":"37","DTCODE11":"551","SDTCODE11":"05201","NAME11":"Peddamudium","LOC_NAME":"Peddamudium"}},{"type":"Feature","id":223,"geometry":{"type":"Point","coordinates":[78.653493550916039,14.841053177350537]},"properties":{"OBJECTID":223,"stname":"ANDHRA PRADESH","dtname":"Y.S.R.","STCODE11":"37","DTCODE11":"551","SDTCODE11":"05203","NAME11":"Duvvur","LOC_NAME":"Duvvur"}},{"type":"Feature","id":224,"geometry":{"type":"Point","coordinates":[78.989785589562899,15.009716685083392]},"properties":{"OBJECTID":224,"stname":"ANDHRA PRADESH","dtname":"Y.S.R.","STCODE11":"37","DTCODE11":"551","SDTCODE11":"05208","NAME11":"Porumamilla","LOC_NAME":"Porumamilla"}},{"type":"Feature","id":225,"geometry":{"type":"Point","coordinates":[78.76957336234814,14.652574108801666]},"properties":{"OBJECTID":225,"stname":"ANDHRA PRADESH","dtname":"Y.S.R.","STCODE11":"37","DTCODE11":"551","SDTCODE11":"05212","NAME11":"Khajipet","LOC_NAME":"Khajipet"}},{"type":"Feature","id":226,"geometry":{"type":"Point","coordinates":[78.732365539436927,14.726524524180419]},"properties":{"OBJECTID":226,"stname":"ANDHRA PRADESH","dtname":"Y.S.R.","STCODE11":"37","DTCODE11":"551","SDTCODE11":"05204","NAME11":"S.Mydukur","LOC_NAME":"S.Mydukur"}},{"type":"Feature","id":227,"geometry":{"type":"Point","coordinates":[78.539993959694741,14.64019705346554]},"properties":{"OBJECTID":227,"stname":"ANDHRA PRADESH","dtname":"Y.S.R.","STCODE11":"37","DTCODE11":"551","SDTCODE11":"05223","NAME11":"Yerraguntla","LOC_NAME":"Yerraguntla"}},{"type":"Feature","id":228,"geometry":{"type":"Point","coordinates":[78.127616678116539,14.628464584253761]},"properties":{"OBJECTID":228,"stname":"ANDHRA PRADESH","dtname":"Y.S.R.","STCODE11":"37","DTCODE11":"551","SDTCODE11":"05217","NAME11":"Simhadripuram","LOC_NAME":"Simhadripuram"}},{"type":"Feature","id":229,"geometry":{"type":"Point","coordinates":[78.281988551159955,14.575118045049191]},"properties":{"OBJECTID":229,"stname":"ANDHRA PRADESH","dtname":"Y.S.R.","STCODE11":"37","DTCODE11":"551","SDTCODE11":"05221","NAME11":"Thondur","LOC_NAME":"Thondur"}},{"type":"Feature","id":230,"geometry":{"type":"Point","coordinates":[78.114086336850463,14.498313900857202]},"properties":{"OBJECTID":230,"stname":"ANDHRA PRADESH","dtname":"Y.S.R.","STCODE11":"37","DTCODE11":"551","SDTCODE11":"05218","NAME11":"Lingala","LOC_NAME":"Lingala"}},{"type":"Feature","id":231,"geometry":{"type":"Point","coordinates":[78.798554280038374,14.565952238796843]},"properties":{"OBJECTID":231,"stname":"ANDHRA PRADESH","dtname":"Y.S.R.","STCODE11":"37","DTCODE11":"551","SDTCODE11":"05226","NAME11":"Chennur","LOC_NAME":"Chennur"}},{"type":"Feature","id":232,"geometry":{"type":"Point","coordinates":[78.460221575391515,14.367458945472393]},"properties":{"OBJECTID":232,"stname":"ANDHRA PRADESH","dtname":"Y.S.R.","STCODE11":"37","DTCODE11":"551","SDTCODE11":"05233","NAME11":"Vempalle","LOC_NAME":"Vempalle"}},{"type":"Feature","id":233,"geometry":{"type":"Point","coordinates":[78.258862798592702,14.241964543332461]},"properties":{"OBJECTID":233,"stname":"ANDHRA PRADESH","dtname":"Anantapur","STCODE11":"37","DTCODE11":"553","SDTCODE11":"05340","NAME11":"Talupula","LOC_NAME":"Talupula"}},{"type":"Feature","id":234,"geometry":{"type":"Point","coordinates":[78.857525491218183,14.158753285826274]},"properties":{"OBJECTID":234,"stname":"ANDHRA PRADESH","dtname":"Y.S.R.","STCODE11":"37","DTCODE11":"551","SDTCODE11":"05242","NAME11":"Veeraballe","LOC_NAME":"Veeraballe"}},{"type":"Feature","id":235,"geometry":{"type":"Point","coordinates":[78.699650407755612,14.184762305653502]},"properties":{"OBJECTID":235,"stname":"ANDHRA PRADESH","dtname":"Y.S.R.","STCODE11":"37","DTCODE11":"551","SDTCODE11":"05240","NAME11":"Lakkireddipalle","LOC_NAME":"Lakkireddipalle"}},{"type":"Feature","id":236,"geometry":{"type":"Point","coordinates":[78.506065822105469,14.022861146989431]},"properties":{"OBJECTID":236,"stname":"ANDHRA PRADESH","dtname":"Y.S.R.","STCODE11":"37","DTCODE11":"551","SDTCODE11":"05235","NAME11":"Galiveedu","LOC_NAME":"Galiveedu"}},{"type":"Feature","id":237,"geometry":{"type":"Point","coordinates":[76.832443545607816,15.013557506435486]},"properties":{"OBJECTID":237,"stname":"ANDHRA PRADESH","dtname":"Anantapur","STCODE11":"37","DTCODE11":"553","SDTCODE11":"05304","NAME11":"D.Hirehal","LOC_NAME":"D.Hirehal"}},{"type":"Feature","id":238,"geometry":{"type":"Point","coordinates":[76.981037863477255,14.447285390995631]},"properties":{"OBJECTID":238,"stname":"ANDHRA PRADESH","dtname":"Anantapur","STCODE11":"37","DTCODE11":"553","SDTCODE11":"05332","NAME11":"Settur","LOC_NAME":"Settur"}},{"type":"Feature","id":239,"geometry":{"type":"Point","coordinates":[77.257827762356882,14.946518112833456]},"properties":{"OBJECTID":239,"stname":"ANDHRA PRADESH","dtname":"Anantapur","STCODE11":"37","DTCODE11":"553","SDTCODE11":"05317","NAME11":"Uravakonda","LOC_NAME":"Uravakonda"}},{"type":"Feature","id":240,"geometry":{"type":"Point","coordinates":[77.077961512005587,14.805949227929293]},"properties":{"OBJECTID":240,"stname":"ANDHRA PRADESH","dtname":"Anantapur","STCODE11":"37","DTCODE11":"553","SDTCODE11":"05306","NAME11":"Kanekal","LOC_NAME":"Kanekal"}},{"type":"Feature","id":241,"geometry":{"type":"Point","coordinates":[77.591291194820244,14.944772430484083]},"properties":{"OBJECTID":241,"stname":"ANDHRA PRADESH","dtname":"Anantapur","STCODE11":"37","DTCODE11":"553","SDTCODE11":"05315","NAME11":"Pamidi","LOC_NAME":"Pamidi"}},{"type":"Feature","id":242,"geometry":{"type":"Point","coordinates":[77.598924142060156,14.823808069049296]},"properties":{"OBJECTID":242,"stname":"ANDHRA PRADESH","dtname":"Anantapur","STCODE11":"37","DTCODE11":"553","SDTCODE11":"05324","NAME11":"Garladinne","LOC_NAME":"Garladinne"}},{"type":"Feature","id":243,"geometry":{"type":"Point","coordinates":[77.71957913431973,14.800515576829438]},"properties":{"OBJECTID":243,"stname":"ANDHRA PRADESH","dtname":"Anantapur","STCODE11":"37","DTCODE11":"553","SDTCODE11":"05325","NAME11":"Singanamala","LOC_NAME":"Singanamala"}},{"type":"Feature","id":244,"geometry":{"type":"Point","coordinates":[77.964306514097188,14.810670218637293]},"properties":{"OBJECTID":244,"stname":"ANDHRA PRADESH","dtname":"Anantapur","STCODE11":"37","DTCODE11":"553","SDTCODE11":"05326","NAME11":"Putlur","LOC_NAME":"Putlur"}},{"type":"Feature","id":245,"geometry":{"type":"Point","coordinates":[77.808150164691298,14.712033217114902]},"properties":{"OBJECTID":245,"stname":"ANDHRA PRADESH","dtname":"Anantapur","STCODE11":"37","DTCODE11":"553","SDTCODE11":"05328","NAME11":"Narpala","LOC_NAME":"Narpala"}},{"type":"Feature","id":246,"geometry":{"type":"Point","coordinates":[77.357273924220436,14.646659106121726]},"properties":{"OBJECTID":246,"stname":"ANDHRA PRADESH","dtname":"Anantapur","STCODE11":"37","DTCODE11":"553","SDTCODE11":"05322","NAME11":"Atmakur","LOC_NAME":"Atmakur"}},{"type":"Feature","id":247,"geometry":{"type":"Point","coordinates":[77.427857401956558,14.730521014997917]},"properties":{"OBJECTID":247,"stname":"ANDHRA PRADESH","dtname":"Anantapur","STCODE11":"37","DTCODE11":"553","SDTCODE11":"05323","NAME11":"Kudair","LOC_NAME":"Kudair"}},{"type":"Feature","id":248,"geometry":{"type":"Point","coordinates":[77.134283822279556,14.71392119896481]},"properties":{"OBJECTID":248,"stname":"ANDHRA PRADESH","dtname":"Anantapur","STCODE11":"37","DTCODE11":"553","SDTCODE11":"05318","NAME11":"Beluguppa","LOC_NAME":"Beluguppa"}},{"type":"Feature","id":249,"geometry":{"type":"Point","coordinates":[77.525229666442826,14.445423574817664]},"properties":{"OBJECTID":249,"stname":"ANDHRA PRADESH","dtname":"Anantapur","STCODE11":"37","DTCODE11":"553","SDTCODE11":"05335","NAME11":"Kanaganapalle","LOC_NAME":"Kanaganapalle"}},{"type":"Feature","id":250,"geometry":{"type":"Point","coordinates":[77.858962837833175,14.562343960946571]},"properties":{"OBJECTID":250,"stname":"ANDHRA PRADESH","dtname":"Anantapur","STCODE11":"37","DTCODE11":"553","SDTCODE11":"05338","NAME11":"Tadimarri","LOC_NAME":"Tadimarri"}},{"type":"Feature","id":251,"geometry":{"type":"Point","coordinates":[77.768596245888531,14.51644950241046]},"properties":{"OBJECTID":251,"stname":"ANDHRA PRADESH","dtname":"Anantapur","STCODE11":"37","DTCODE11":"553","SDTCODE11":"05337","NAME11":"Bathalapalle","LOC_NAME":"Bathalapalle"}},{"type":"Feature","id":252,"geometry":{"type":"Point","coordinates":[77.034329632580068,14.292087041584541]},"properties":{"OBJECTID":252,"stname":"ANDHRA PRADESH","dtname":"Anantapur","STCODE11":"37","DTCODE11":"553","SDTCODE11":"05333","NAME11":"Kundurpi","LOC_NAME":"Kundurpi"}},{"type":"Feature","id":253,"geometry":{"type":"Point","coordinates":[77.6273362932249,14.272226098668046]},"properties":{"OBJECTID":253,"stname":"ANDHRA PRADESH","dtname":"Anantapur","STCODE11":"37","DTCODE11":"553","SDTCODE11":"05347","NAME11":"Chennekothapalle","LOC_NAME":"Chennekothapalle"}},{"type":"Feature","id":254,"geometry":{"type":"Point","coordinates":[77.99150667714521,14.348950375875452]},"properties":{"OBJECTID":254,"stname":"ANDHRA PRADESH","dtname":"Anantapur","STCODE11":"37","DTCODE11":"553","SDTCODE11":"05339","NAME11":"Mudigubba","LOC_NAME":"Mudigubba"}},{"type":"Feature","id":255,"geometry":{"type":"Point","coordinates":[77.800342504111782,14.20053573068642]},"properties":{"OBJECTID":255,"stname":"ANDHRA PRADESH","dtname":"Anantapur","STCODE11":"37","DTCODE11":"553","SDTCODE11":"05345","NAME11":"Bukkapatnam","LOC_NAME":"Bukkapatnam"}},{"type":"Feature","id":256,"geometry":{"type":"Point","coordinates":[77.4287898792726,14.093017815212866]},"properties":{"OBJECTID":256,"stname":"ANDHRA PRADESH","dtname":"Anantapur","STCODE11":"37","DTCODE11":"553","SDTCODE11":"05349","NAME11":"Roddam","LOC_NAME":"Roddam"}},{"type":"Feature","id":257,"geometry":{"type":"Point","coordinates":[80.107725113119542,15.984973082326336]},"properties":{"OBJECTID":257,"stname":"ANDHRA PRADESH","dtname":"Prakasam","STCODE11":"37","DTCODE11":"549","SDTCODE11":"05106","NAME11":"Martur","LOC_NAME":"Martur"}},{"type":"Feature","id":258,"geometry":{"type":"Point","coordinates":[80.275882129169517,15.967579857167864]},"properties":{"OBJECTID":258,"stname":"ANDHRA PRADESH","dtname":"Prakasam","STCODE11":"37","DTCODE11":"549","SDTCODE11":"05108","NAME11":"Parchur","LOC_NAME":"Parchur"}},{"type":"Feature","id":259,"geometry":{"type":"Point","coordinates":[80.311811237104692,15.886228782456971]},"properties":{"OBJECTID":259,"stname":"ANDHRA PRADESH","dtname":"Prakasam","STCODE11":"37","DTCODE11":"549","SDTCODE11":"05109","NAME11":"Karamchedu","LOC_NAME":"Karamchedu"}},{"type":"Feature","id":260,"geometry":{"type":"Point","coordinates":[80.670346951880092,15.907765904309041]},"properties":{"OBJECTID":260,"stname":"ANDHRA PRADESH","dtname":"Guntur","STCODE11":"37","DTCODE11":"548","SDTCODE11":"05094","NAME11":"Nizampatnam","LOC_NAME":"Nizampatnam"}},{"type":"Feature","id":261,"geometry":{"type":"Point","coordinates":[80.191193966900542,15.827731019240135]},"properties":{"OBJECTID":261,"stname":"ANDHRA PRADESH","dtname":"Prakasam","STCODE11":"37","DTCODE11":"549","SDTCODE11":"05110","NAME11":"Inkollu","LOC_NAME":"Inkollu"}},{"type":"Feature","id":262,"geometry":{"type":"Point","coordinates":[80.306456645597379,15.7832360732349]},"properties":{"OBJECTID":262,"stname":"ANDHRA PRADESH","dtname":"Prakasam","STCODE11":"37","DTCODE11":"549","SDTCODE11":"05124","NAME11":"Vetapalem","LOC_NAME":"Vetapalem"}},{"type":"Feature","id":263,"geometry":{"type":"Point","coordinates":[80.241567064729523,15.694129420023319]},"properties":{"OBJECTID":263,"stname":"ANDHRA PRADESH","dtname":"Prakasam","STCODE11":"37","DTCODE11":"549","SDTCODE11":"05125","NAME11":"Chinaganjam","LOC_NAME":"Chinaganjam"}},{"type":"Feature","id":264,"geometry":{"type":"Point","coordinates":[80.04067450188505,15.338951230071389]},"properties":{"OBJECTID":264,"stname":"ANDHRA PRADESH","dtname":"Prakasam","STCODE11":"37","DTCODE11":"549","SDTCODE11":"05141","NAME11":"Tangutur","LOC_NAME":"Tangutur"}},{"type":"Feature","id":265,"geometry":{"type":"Point","coordinates":[80.023474028846991,15.252827719171899]},"properties":{"OBJECTID":265,"stname":"ANDHRA PRADESH","dtname":"Prakasam","STCODE11":"37","DTCODE11":"549","SDTCODE11":"05149","NAME11":"Singarayakonda","LOC_NAME":"Singarayakonda"}},{"type":"Feature","id":266,"geometry":{"type":"Point","coordinates":[80.007509337602585,15.167384253507635]},"properties":{"OBJECTID":266,"stname":"ANDHRA PRADESH","dtname":"Prakasam","STCODE11":"37","DTCODE11":"549","SDTCODE11":"05152","NAME11":"Ulavapadu","LOC_NAME":"Ulavapadu"}},{"type":"Feature","id":267,"geometry":{"type":"Point","coordinates":[79.095722678530549,15.907720414935795]},"properties":{"OBJECTID":267,"stname":"ANDHRA PRADESH","dtname":"Prakasam","STCODE11":"37","DTCODE11":"549","SDTCODE11":"05100","NAME11":"Dornala","LOC_NAME":"Dornala"}},{"type":"Feature","id":268,"geometry":{"type":"Point","coordinates":[79.223505119849946,15.813980090938134]},"properties":{"OBJECTID":268,"stname":"ANDHRA PRADESH","dtname":"Prakasam","STCODE11":"37","DTCODE11":"549","SDTCODE11":"05101","NAME11":"Peda  Araveedu","LOC_NAME":"Peda  Araveedu"}},{"type":"Feature","id":269,"geometry":{"type":"Point","coordinates":[79.455318411629406,15.998038134029935]},"properties":{"OBJECTID":269,"stname":"ANDHRA PRADESH","dtname":"Prakasam","STCODE11":"37","DTCODE11":"549","SDTCODE11":"05099","NAME11":"Tripuranthakam","LOC_NAME":"Tripuranthakam"}},{"type":"Feature","id":270,"geometry":{"type":"Point","coordinates":[79.22343751174337,15.657491796943898]},"properties":{"OBJECTID":270,"stname":"ANDHRA PRADESH","dtname":"Prakasam","STCODE11":"37","DTCODE11":"549","SDTCODE11":"05118","NAME11":"Tarlupadu","LOC_NAME":"Tarlupadu"}},{"type":"Feature","id":271,"geometry":{"type":"Point","coordinates":[78.960276560401937,15.677154566156821]},"properties":{"OBJECTID":271,"stname":"ANDHRA PRADESH","dtname":"Prakasam","STCODE11":"37","DTCODE11":"549","SDTCODE11":"05116","NAME11":"Ardhaveedu","LOC_NAME":"Ardhaveedu"}},{"type":"Feature","id":272,"geometry":{"type":"Point","coordinates":[79.488485554002153,15.652395457604134]},"properties":{"OBJECTID":272,"stname":"ANDHRA PRADESH","dtname":"Prakasam","STCODE11":"37","DTCODE11":"549","SDTCODE11":"05119","NAME11":"Konakanamitla","LOC_NAME":"Konakanamitla"}},{"type":"Feature","id":273,"geometry":{"type":"Point","coordinates":[79.86848831541036,15.586079734005905]},"properties":{"OBJECTID":273,"stname":"ANDHRA PRADESH","dtname":"Prakasam","STCODE11":"37","DTCODE11":"549","SDTCODE11":"05128","NAME11":"Chimakurthi","LOC_NAME":"Chimakurthi"}},{"type":"Feature","id":274,"geometry":{"type":"Point","coordinates":[78.965801639573783,15.463208417754592]},"properties":{"OBJECTID":274,"stname":"ANDHRA PRADESH","dtname":"Prakasam","STCODE11":"37","DTCODE11":"549","SDTCODE11":"05132","NAME11":"Racherla","LOC_NAME":"Racherla"}},{"type":"Feature","id":275,"geometry":{"type":"Point","coordinates":[79.107836297541823,15.580218858750458]},"properties":{"OBJECTID":275,"stname":"ANDHRA PRADESH","dtname":"Prakasam","STCODE11":"37","DTCODE11":"549","SDTCODE11":"05117","NAME11":"Cumbum","LOC_NAME":"Cumbum"}},{"type":"Feature","id":276,"geometry":{"type":"Point","coordinates":[79.101212840187259,15.549487307542876]},"properties":{"OBJECTID":276,"stname":"ANDHRA PRADESH","dtname":"Prakasam","STCODE11":"37","DTCODE11":"549","SDTCODE11":"05131","NAME11":"Bestawaripeta","LOC_NAME":"Bestawaripeta"}},{"type":"Feature","id":277,"geometry":{"type":"Point","coordinates":[79.001443036886371,15.268405651620004]},"properties":{"OBJECTID":277,"stname":"ANDHRA PRADESH","dtname":"Prakasam","STCODE11":"37","DTCODE11":"549","SDTCODE11":"05134","NAME11":"Komarolu","LOC_NAME":"Komarolu"}},{"type":"Feature","id":278,"geometry":{"type":"Point","coordinates":[79.411537047150716,15.097390921621798]},"properties":{"OBJECTID":278,"stname":"ANDHRA PRADESH","dtname":"Prakasam","STCODE11":"37","DTCODE11":"549","SDTCODE11":"05146","NAME11":"Pamur","LOC_NAME":"Pamur"}},{"type":"Feature","id":279,"geometry":{"type":"Point","coordinates":[79.281691381337879,15.181899753096063]},"properties":{"OBJECTID":279,"stname":"ANDHRA PRADESH","dtname":"Prakasam","STCODE11":"37","DTCODE11":"549","SDTCODE11":"05145","NAME11":"Chandra Sekhara Puram","LOC_NAME":"Chandra Sekhara Puram"}},{"type":"Feature","id":280,"geometry":{"type":"Point","coordinates":[79.903506776887482,15.074046634540451]},"properties":{"OBJECTID":280,"stname":"ANDHRA PRADESH","dtname":"Prakasam","STCODE11":"37","DTCODE11":"549","SDTCODE11":"05151","NAME11":"Gudluru","LOC_NAME":"Gudluru"}},{"type":"Feature","id":281,"geometry":{"type":"Point","coordinates":[79.799506770082743,15.272393423988079]},"properties":{"OBJECTID":281,"stname":"ANDHRA PRADESH","dtname":"Prakasam","STCODE11":"37","DTCODE11":"549","SDTCODE11":"05143","NAME11":"Ponnaluru","LOC_NAME":"Ponnaluru"}},{"type":"Feature","id":282,"geometry":{"type":"Point","coordinates":[79.138678517314247,15.016951884204161]},"properties":{"OBJECTID":282,"stname":"ANDHRA PRADESH","dtname":"Sri Potti Sriramulu Nell*","STCODE11":"37","DTCODE11":"550","SDTCODE11":"05153","NAME11":"Seetharamapuram","LOC_NAME":"Seetharamapuram"}},{"type":"Feature","id":283,"geometry":{"type":"Point","coordinates":[78.289806382465159,15.7702751978516]},"properties":{"OBJECTID":283,"stname":"ANDHRA PRADESH","dtname":"Kurnool","STCODE11":"37","DTCODE11":"552","SDTCODE11":"05267","NAME11":"Midthur","LOC_NAME":"Midthur"}},{"type":"Feature","id":284,"geometry":{"type":"Point","coordinates":[78.342356608470624,15.937834104797812]},"properties":{"OBJECTID":284,"stname":"ANDHRA PRADESH","dtname":"Kurnool","STCODE11":"37","DTCODE11":"552","SDTCODE11":"05261","NAME11":"Pagidyala","LOC_NAME":"Pagidyala"}},{"type":"Feature","id":285,"geometry":{"type":"Point","coordinates":[78.586793656341513,15.8811942150469]},"properties":{"OBJECTID":285,"stname":"ANDHRA PRADESH","dtname":"Kurnool","STCODE11":"37","DTCODE11":"552","SDTCODE11":"05265","NAME11":"Atmakur","LOC_NAME":"Atmakur"}},{"type":"Feature","id":286,"geometry":{"type":"Point","coordinates":[78.573343747531013,15.719380076031305]},"properties":{"OBJECTID":286,"stname":"ANDHRA PRADESH","dtname":"Kurnool","STCODE11":"37","DTCODE11":"552","SDTCODE11":"05282","NAME11":"Velgode","LOC_NAME":"Velgode"}},{"type":"Feature","id":287,"geometry":{"type":"Point","coordinates":[78.147576909556378,15.451877376490994]},"properties":{"OBJECTID":287,"stname":"ANDHRA PRADESH","dtname":"Kurnool","STCODE11":"37","DTCODE11":"552","SDTCODE11":"05279","NAME11":"Bethamcherla","LOC_NAME":"Bethamcherla"}},{"type":"Feature","id":288,"geometry":{"type":"Point","coordinates":[78.523692450524436,15.581413001446846]},"properties":{"OBJECTID":288,"stname":"ANDHRA PRADESH","dtname":"Kurnool","STCODE11":"37","DTCODE11":"552","SDTCODE11":"05283","NAME11":"Bandi Atmakur","LOC_NAME":"Bandi Atmakur"}},{"type":"Feature","id":289,"geometry":{"type":"Point","coordinates":[78.534907145193841,15.32085310279254]},"properties":{"OBJECTID":289,"stname":"ANDHRA PRADESH","dtname":"Kurnool","STCODE11":"37","DTCODE11":"552","SDTCODE11":"05286","NAME11":"Sirvel","LOC_NAME":"Sirvel"}},{"type":"Feature","id":290,"geometry":{"type":"Point","coordinates":[78.299677536134368,15.147426943624646]},"properties":{"OBJECTID":290,"stname":"ANDHRA PRADESH","dtname":"Kurnool","STCODE11":"37","DTCODE11":"552","SDTCODE11":"05300","NAME11":"Sanjamala","LOC_NAME":"Sanjamala"}},{"type":"Feature","id":291,"geometry":{"type":"Point","coordinates":[78.602187284966547,15.243942583761076]},"properties":{"OBJECTID":291,"stname":"ANDHRA PRADESH","dtname":"Kurnool","STCODE11":"37","DTCODE11":"552","SDTCODE11":"05297","NAME11":"Rudravaram","LOC_NAME":"Rudravaram"}},{"type":"Feature","id":292,"geometry":{"type":"Point","coordinates":[78.940724754294223,15.108279645245403]},"properties":{"OBJECTID":292,"stname":"ANDHRA PRADESH","dtname":"Y.S.R.","STCODE11":"37","DTCODE11":"551","SDTCODE11":"05207","NAME11":"Kalasapadu","LOC_NAME":"Kalasapadu"}},{"type":"Feature","id":293,"geometry":{"type":"Point","coordinates":[78.395501899181539,15.101934738579621]},"properties":{"OBJECTID":293,"stname":"ANDHRA PRADESH","dtname":"Kurnool","STCODE11":"37","DTCODE11":"552","SDTCODE11":"05302","NAME11":"Uyyalawada","LOC_NAME":"Uyyalawada"}},{"type":"Feature","id":295,"geometry":{"type":"Point","coordinates":[77.806322554822174,15.775136837245819]},"properties":{"OBJECTID":295,"stname":"ANDHRA PRADESH","dtname":"Kurnool","STCODE11":"37","DTCODE11":"552","SDTCODE11":"05257","NAME11":"Gudur","LOC_NAME":"Gudur"}},{"type":"Feature","id":296,"geometry":{"type":"Point","coordinates":[77.482966199672774,15.772668890959725]},"properties":{"OBJECTID":296,"stname":"ANDHRA PRADESH","dtname":"Kurnool","STCODE11":"37","DTCODE11":"552","SDTCODE11":"05254","NAME11":"Yemmiganur","LOC_NAME":"Yemmiganur"}},{"type":"Feature","id":297,"geometry":{"type":"Point","coordinates":[77.484406345498584,15.85364288877077]},"properties":{"OBJECTID":297,"stname":"ANDHRA PRADESH","dtname":"Kurnool","STCODE11":"37","DTCODE11":"552","SDTCODE11":"05255","NAME11":"Nandavaram","LOC_NAME":"Nandavaram"}},{"type":"Feature","id":298,"geometry":{"type":"Point","coordinates":[77.243786877972084,15.856792364360494]},"properties":{"OBJECTID":298,"stname":"ANDHRA PRADESH","dtname":"Kurnool","STCODE11":"37","DTCODE11":"552","SDTCODE11":"05251","NAME11":"Kosigi","LOC_NAME":"Kosigi"}},{"type":"Feature","id":299,"geometry":{"type":"Point","coordinates":[77.595534979952845,15.714329117751584]},"properties":{"OBJECTID":299,"stname":"ANDHRA PRADESH","dtname":"Kurnool","STCODE11":"37","DTCODE11":"552","SDTCODE11":"05270","NAME11":"Gonegandla","LOC_NAME":"Gonegandla"}},{"type":"Feature","id":300,"geometry":{"type":"Point","coordinates":[77.771026574109342,15.684276326750943]},"properties":{"OBJECTID":300,"stname":"ANDHRA PRADESH","dtname":"Kurnool","STCODE11":"37","DTCODE11":"552","SDTCODE11":"05269","NAME11":"Kodumur","LOC_NAME":"Kodumur"}},{"type":"Feature","id":301,"geometry":{"type":"Point","coordinates":[77.048287542276995,15.488797993628124]},"properties":{"OBJECTID":301,"stname":"ANDHRA PRADESH","dtname":"Kurnool","STCODE11":"37","DTCODE11":"552","SDTCODE11":"05272","NAME11":"Holagunda","LOC_NAME":"Holagunda"}},{"type":"Feature","id":302,"geometry":{"type":"Point","coordinates":[77.388176177504988,15.475659802148819]},"properties":{"OBJECTID":302,"stname":"ANDHRA PRADESH","dtname":"Kurnool","STCODE11":"37","DTCODE11":"552","SDTCODE11":"05275","NAME11":"Aspari","LOC_NAME":"Aspari"}},{"type":"Feature","id":303,"geometry":{"type":"Point","coordinates":[77.550475707185299,15.538237267477449]},"properties":{"OBJECTID":303,"stname":"ANDHRA PRADESH","dtname":"Kurnool","STCODE11":"37","DTCODE11":"552","SDTCODE11":"05276","NAME11":"Devanakonda","LOC_NAME":"Devanakonda"}},{"type":"Feature","id":304,"geometry":{"type":"Point","coordinates":[77.830394842441379,15.555498129214012]},"properties":{"OBJECTID":304,"stname":"ANDHRA PRADESH","dtname":"Kurnool","STCODE11":"37","DTCODE11":"552","SDTCODE11":"05277","NAME11":"Krishnagiri","LOC_NAME":"Krishnagiri"}},{"type":"Feature","id":305,"geometry":{"type":"Point","coordinates":[77.929455814795972,15.552498242246722]},"properties":{"OBJECTID":305,"stname":"ANDHRA PRADESH","dtname":"Kurnool","STCODE11":"37","DTCODE11":"552","SDTCODE11":"05278","NAME11":"Veldurthi","LOC_NAME":"Veldurthi"}},{"type":"Feature","id":306,"geometry":{"type":"Point","coordinates":[77.545305971895459,15.313528685621227]},"properties":{"OBJECTID":306,"stname":"ANDHRA PRADESH","dtname":"Kurnool","STCODE11":"37","DTCODE11":"552","SDTCODE11":"05293","NAME11":"Tuggali","LOC_NAME":"Tuggali"}},{"type":"Feature","id":307,"geometry":{"type":"Point","coordinates":[77.741251517860178,15.233723487276354]},"properties":{"OBJECTID":307,"stname":"ANDHRA PRADESH","dtname":"Kurnool","STCODE11":"37","DTCODE11":"552","SDTCODE11":"05294","NAME11":"Peapally","LOC_NAME":"Peapally"}},{"type":"Feature","id":308,"geometry":{"type":"Point","coordinates":[77.4150226819105,15.251478476258672]},"properties":{"OBJECTID":308,"stname":"ANDHRA PRADESH","dtname":"Kurnool","STCODE11":"37","DTCODE11":"552","SDTCODE11":"05292","NAME11":"Maddikera (East)","LOC_NAME":"Maddikera (East)"}},{"type":"Feature","id":309,"geometry":{"type":"Point","coordinates":[77.874458802535386,15.04922933256036]},"properties":{"OBJECTID":309,"stname":"ANDHRA PRADESH","dtname":"Anantapur","STCODE11":"37","DTCODE11":"553","SDTCODE11":"05312","NAME11":"Yadiki","LOC_NAME":"Yadiki"}},{"type":"Feature","id":310,"geometry":{"type":"Point","coordinates":[77.384822175457913,15.0272655488768]},"properties":{"OBJECTID":310,"stname":"ANDHRA PRADESH","dtname":"Anantapur","STCODE11":"37","DTCODE11":"553","SDTCODE11":"05316","NAME11":"Vajrakarur","LOC_NAME":"Vajrakarur"}},{"type":"Feature","id":311,"geometry":{"type":"Point","coordinates":[77.182584261507998,15.057694322863012]},"properties":{"OBJECTID":311,"stname":"ANDHRA PRADESH","dtname":"Anantapur","STCODE11":"37","DTCODE11":"553","SDTCODE11":"05308","NAME11":"Vidapanakal","LOC_NAME":"Vidapanakal"}},{"type":"Feature","id":312,"geometry":{"type":"Point","coordinates":[77.371486107448462,15.170977405577545]},"properties":{"OBJECTID":312,"stname":"ANDHRA PRADESH","dtname":"Anantapur","STCODE11":"37","DTCODE11":"553","SDTCODE11":"05309","NAME11":"Guntakal","LOC_NAME":"Guntakal"}},{"type":"Feature","id":313,"geometry":{"type":"Point","coordinates":[82.128765557131288,16.953306159504823]},"properties":{"OBJECTID":313,"stname":"ANDHRA PRADESH","dtname":"East Godavari","STCODE11":"37","DTCODE11":"545","SDTCODE11":"04915","NAME11":"Pedapudi","LOC_NAME":"Pedapudi"}},{"type":"Feature","id":314,"geometry":{"type":"Point","coordinates":[82.168550439980123,16.899515028009727]},"properties":{"OBJECTID":314,"stname":"ANDHRA PRADESH","dtname":"East Godavari","STCODE11":"37","DTCODE11":"545","SDTCODE11":"04922","NAME11":"Karapa","LOC_NAME":"Karapa"}},{"type":"Feature","id":315,"geometry":{"type":"Point","coordinates":[82.230602354256533,16.781427814107772]},"properties":{"OBJECTID":315,"stname":"ANDHRA PRADESH","dtname":"East Godavari","STCODE11":"37","DTCODE11":"545","SDTCODE11":"04930","NAME11":"Thallarevu","LOC_NAME":"Thallarevu"}},{"type":"Feature","id":316,"geometry":{"type":"Point","coordinates":[82.190312060364263,16.662684995573407]},"properties":{"OBJECTID":316,"stname":"ANDHRA PRADESH","dtname":"East Godavari","STCODE11":"37","DTCODE11":"545","SDTCODE11":"04931","NAME11":"I. Polavaram","LOC_NAME":"I. Polavaram"}},{"type":"Feature","id":317,"geometry":{"type":"Point","coordinates":[82.098618723220298,16.553892227541851]},"properties":{"OBJECTID":317,"stname":"ANDHRA PRADESH","dtname":"East Godavari","STCODE11":"37","DTCODE11":"545","SDTCODE11":"04942","NAME11":"Uppalaguptam","LOC_NAME":"Uppalaguptam"}},{"type":"Feature","id":318,"geometry":{"type":"Point","coordinates":[82.104888419524386,16.643315251096077]},"properties":{"OBJECTID":318,"stname":"ANDHRA PRADESH","dtname":"East Godavari","STCODE11":"37","DTCODE11":"545","SDTCODE11":"04932","NAME11":"Mummidivaram","LOC_NAME":"Mummidivaram"}},{"type":"Feature","id":319,"geometry":{"type":"Point","coordinates":[81.674034919762462,16.907709476215537]},"properties":{"OBJECTID":319,"stname":"ANDHRA PRADESH","dtname":"West Godavari","STCODE11":"37","DTCODE11":"546","SDTCODE11":"04960","NAME11":"Nidadavole","LOC_NAME":"Nidadavole"}},{"type":"Feature","id":320,"geometry":{"type":"Point","coordinates":[81.668618395704499,16.989230391486341]},"properties":{"OBJECTID":320,"stname":"ANDHRA PRADESH","dtname":"West Godavari","STCODE11":"37","DTCODE11":"546","SDTCODE11":"04959","NAME11":"Chagallu","LOC_NAME":"Chagallu"}},{"type":"Feature","id":321,"geometry":{"type":"Point","coordinates":[81.930396846111861,16.864340063856115]},"properties":{"OBJECTID":321,"stname":"ANDHRA PRADESH","dtname":"East Godavari","STCODE11":"37","DTCODE11":"545","SDTCODE11":"04920","NAME11":"Mandapeta","LOC_NAME":"Mandapeta"}},{"type":"Feature","id":322,"geometry":{"type":"Point","coordinates":[81.406049343405485,16.945943666091775]},"properties":{"OBJECTID":322,"stname":"ANDHRA PRADESH","dtname":"West Godavari","STCODE11":"37","DTCODE11":"546","SDTCODE11":"04956","NAME11":"Nallajerla","LOC_NAME":"Nallajerla"}},{"type":"Feature","id":323,"geometry":{"type":"Point","coordinates":[81.255784788826588,16.953341908859077]},"properties":{"OBJECTID":323,"stname":"ANDHRA PRADESH","dtname":"West Godavari","STCODE11":"37","DTCODE11":"546","SDTCODE11":"04955","NAME11":"Dwarakatirumala","LOC_NAME":"Dwarakatirumala"}},{"type":"Feature","id":324,"geometry":{"type":"Point","coordinates":[81.78965121398268,16.832752120625909]},"properties":{"OBJECTID":324,"stname":"ANDHRA PRADESH","dtname":"East Godavari","STCODE11":"37","DTCODE11":"545","SDTCODE11":"04919","NAME11":"Atreyapuram","LOC_NAME":"Atreyapuram"}},{"type":"Feature","id":325,"geometry":{"type":"Point","coordinates":[81.920532338179115,16.740263111249973]},"properties":{"OBJECTID":325,"stname":"ANDHRA PRADESH","dtname":"East Godavari","STCODE11":"37","DTCODE11":"545","SDTCODE11":"04928","NAME11":"Kapileswarapuram","LOC_NAME":"Kapileswarapuram"}},{"type":"Feature","id":326,"geometry":{"type":"Point","coordinates":[81.884519173086176,16.78747682047565]},"properties":{"OBJECTID":326,"stname":"ANDHRA PRADESH","dtname":"East Godavari","STCODE11":"37","DTCODE11":"545","SDTCODE11":"04925","NAME11":"Alamuru","LOC_NAME":"Alamuru"}},{"type":"Feature","id":327,"geometry":{"type":"Point","coordinates":[81.606753039953034,16.688973904537374]},"properties":{"OBJECTID":327,"stname":"ANDHRA PRADESH","dtname":"West Godavari","STCODE11":"37","DTCODE11":"546","SDTCODE11":"04973","NAME11":"Attili","LOC_NAME":"Attili"}},{"type":"Feature","id":328,"geometry":{"type":"Point","coordinates":[81.525490038878033,16.781498318279219]},"properties":{"OBJECTID":328,"stname":"ANDHRA PRADESH","dtname":"West Godavari","STCODE11":"37","DTCODE11":"546","SDTCODE11":"04969","NAME11":"Pentapadu","LOC_NAME":"Pentapadu"}},{"type":"Feature","id":329,"geometry":{"type":"Point","coordinates":[81.164370565427944,16.758855738785428]},"properties":{"OBJECTID":329,"stname":"ANDHRA PRADESH","dtname":"West Godavari","STCODE11":"37","DTCODE11":"546","SDTCODE11":"04967","NAME11":"Denduluru","LOC_NAME":"Denduluru"}},{"type":"Feature","id":330,"geometry":{"type":"Point","coordinates":[81.808256997078146,16.603560197177462]},"properties":{"OBJECTID":330,"stname":"ANDHRA PRADESH","dtname":"West Godavari","STCODE11":"37","DTCODE11":"546","SDTCODE11":"04981","NAME11":"Achanta","LOC_NAME":"Achanta"}},{"type":"Feature","id":331,"geometry":{"type":"Point","coordinates":[81.744666575943867,16.65399864675609]},"properties":{"OBJECTID":331,"stname":"ANDHRA PRADESH","dtname":"West Godavari","STCODE11":"37","DTCODE11":"546","SDTCODE11":"04980","NAME11":"Penugonda","LOC_NAME":"Penugonda"}},{"type":"Feature","id":332,"geometry":{"type":"Point","coordinates":[81.722587771212673,16.519607974901064]},"properties":{"OBJECTID":332,"stname":"ANDHRA PRADESH","dtname":"West Godavari","STCODE11":"37","DTCODE11":"546","SDTCODE11":"04988","NAME11":"Palacole","LOC_NAME":"Palacole"}},{"type":"Feature","id":333,"geometry":{"type":"Point","coordinates":[81.623316771846348,16.538447294523401]},"properties":{"OBJECTID":333,"stname":"ANDHRA PRADESH","dtname":"West Godavari","STCODE11":"37","DTCODE11":"546","SDTCODE11":"04983","NAME11":"Veeravasaram","LOC_NAME":"Veeravasaram"}},{"type":"Feature","id":334,"geometry":{"type":"Point","coordinates":[81.376086712636749,16.58233722448448]},"properties":{"OBJECTID":334,"stname":"ANDHRA PRADESH","dtname":"West Godavari","STCODE11":"37","DTCODE11":"546","SDTCODE11":"04975","NAME11":"Akividu","LOC_NAME":"Akividu"}},{"type":"Feature","id":335,"geometry":{"type":"Point","coordinates":[81.036114397543443,16.638294507090098]},"properties":{"OBJECTID":335,"stname":"ANDHRA PRADESH","dtname":"West Godavari","STCODE11":"37","DTCODE11":"546","SDTCODE11":"04965","NAME11":"Pedapadu","LOC_NAME":"Pedapadu"}},{"type":"Feature","id":336,"geometry":{"type":"Point","coordinates":[81.605486324672569,16.412653553876478]},"properties":{"OBJECTID":336,"stname":"ANDHRA PRADESH","dtname":"West Godavari","STCODE11":"37","DTCODE11":"546","SDTCODE11":"04986","NAME11":"Mogalthur","LOC_NAME":"Mogalthur"}},{"type":"Feature","id":338,"geometry":{"type":"Point","coordinates":[80.244707519267223,16.90358916093674]},"properties":{"OBJECTID":338,"stname":"ANDHRA PRADESH","dtname":"Krishna","STCODE11":"37","DTCODE11":"547","SDTCODE11":"04992","NAME11":"Penuganchiprolu","LOC_NAME":"Penuganchiprolu"}},{"type":"Feature","id":340,"geometry":{"type":"Point","coordinates":[80.201356902357205,16.693302939899336]},"properties":{"OBJECTID":340,"stname":"ANDHRA PRADESH","dtname":"Krishna","STCODE11":"37","DTCODE11":"547","SDTCODE11":"05008","NAME11":"Chandarlapadu","LOC_NAME":"Chandarlapadu"}},{"type":"Feature","id":341,"geometry":{"type":"Point","coordinates":[80.388285110990878,16.68538150032742]},"properties":{"OBJECTID":341,"stname":"ANDHRA PRADESH","dtname":"Krishna","STCODE11":"37","DTCODE11":"547","SDTCODE11":"05007","NAME11":"Kanchikacherla","LOC_NAME":"Kanchikacherla"}},{"type":"Feature","id":342,"geometry":{"type":"Point","coordinates":[80.642154642719888,16.75695360114776]},"properties":{"OBJECTID":342,"stname":"ANDHRA PRADESH","dtname":"Krishna","STCODE11":"37","DTCODE11":"547","SDTCODE11":"04995","NAME11":"Mylavaram","LOC_NAME":"Mylavaram"}},{"type":"Feature","id":343,"geometry":{"type":"Point","coordinates":[80.781137844042036,16.679140734839642]},"properties":{"OBJECTID":343,"stname":"ANDHRA PRADESH","dtname":"Krishna","STCODE11":"37","DTCODE11":"547","SDTCODE11":"05005","NAME11":"Agiripalle","LOC_NAME":"Agiripalle"}},{"type":"Feature","id":344,"geometry":{"type":"Point","coordinates":[80.651436036235395,16.962803823676328]},"properties":{"OBJECTID":344,"stname":"ANDHRA PRADESH","dtname":"Krishna","STCODE11":"37","DTCODE11":"547","SDTCODE11":"04998","NAME11":"A.Konduru","LOC_NAME":"A.Konduru"}},{"type":"Feature","id":345,"geometry":{"type":"Point","coordinates":[80.120571621757051,16.628423097685911]},"properties":{"OBJECTID":345,"stname":"ANDHRA PRADESH","dtname":"Guntur","STCODE11":"37","DTCODE11":"548","SDTCODE11":"05050","NAME11":"Atchampet","LOC_NAME":"Atchampet"}},{"type":"Feature","id":346,"geometry":{"type":"Point","coordinates":[80.135937709832106,16.539970013647288]},"properties":{"OBJECTID":346,"stname":"ANDHRA PRADESH","dtname":"Guntur","STCODE11":"37","DTCODE11":"548","SDTCODE11":"05051","NAME11":"Krosuru","LOC_NAME":"Krosuru"}},{"type":"Feature","id":347,"geometry":{"type":"Point","coordinates":[80.256625938858846,16.470898654837477]},"properties":{"OBJECTID":347,"stname":"ANDHRA PRADESH","dtname":"Guntur","STCODE11":"37","DTCODE11":"548","SDTCODE11":"05057","NAME11":"Pedakurapadu","LOC_NAME":"Pedakurapadu"}},{"type":"Feature","id":348,"geometry":{"type":"Point","coordinates":[80.357669211872818,16.576143844101264]},"properties":{"OBJECTID":348,"stname":"ANDHRA PRADESH","dtname":"Guntur","STCODE11":"37","DTCODE11":"548","SDTCODE11":"05052","NAME11":"Amaravathi","LOC_NAME":"Amaravathi"}},{"type":"Feature","id":349,"geometry":{"type":"Point","coordinates":[80.455961357498239,16.419384394124314]},"properties":{"OBJECTID":349,"stname":"ANDHRA PRADESH","dtname":"Guntur","STCODE11":"37","DTCODE11":"548","SDTCODE11":"05056","NAME11":"Tadikonda","LOC_NAME":"Tadikonda"}},{"type":"Feature","id":350,"geometry":{"type":"Point","coordinates":[79.88620985802558,16.48060907977883]},"properties":{"OBJECTID":350,"stname":"ANDHRA PRADESH","dtname":"Guntur","STCODE11":"37","DTCODE11":"548","SDTCODE11":"05047","NAME11":"Piduguralla","LOC_NAME":"Piduguralla"}},{"type":"Feature","id":351,"geometry":{"type":"Point","coordinates":[80.567759456028085,16.433138066198371]},"properties":{"OBJECTID":351,"stname":"ANDHRA PRADESH","dtname":"Guntur","STCODE11":"37","DTCODE11":"548","SDTCODE11":"05055","NAME11":"Mangalagiri","LOC_NAME":"Mangalagiri"}},{"type":"Feature","id":352,"geometry":{"type":"Point","coordinates":[79.941836715962793,16.371481309969866]},"properties":{"OBJECTID":352,"stname":"ANDHRA PRADESH","dtname":"Guntur","STCODE11":"37","DTCODE11":"548","SDTCODE11":"05060","NAME11":"Nekarikallu","LOC_NAME":"Nekarikallu"}},{"type":"Feature","id":353,"geometry":{"type":"Point","coordinates":[80.264581787324303,16.290763455171337]},"properties":{"OBJECTID":353,"stname":"ANDHRA PRADESH","dtname":"Guntur","STCODE11":"37","DTCODE11":"548","SDTCODE11":"05072","NAME11":"Phirangipuram","LOC_NAME":"Phirangipuram"}},{"type":"Feature","id":354,"geometry":{"type":"Point","coordinates":[80.746818806353531,16.28758426092265]},"properties":{"OBJECTID":354,"stname":"ANDHRA PRADESH","dtname":"Guntur","STCODE11":"37","DTCODE11":"548","SDTCODE11":"05077","NAME11":"Kollipara","LOC_NAME":"Kollipara"}},{"type":"Feature","id":355,"geometry":{"type":"Point","coordinates":[80.524901971988243,16.198816654051271]},"properties":{"OBJECTID":355,"stname":"ANDHRA PRADESH","dtname":"Guntur","STCODE11":"37","DTCODE11":"548","SDTCODE11":"05079","NAME11":"Chebrolu","LOC_NAME":"Chebrolu"}},{"type":"Feature","id":356,"geometry":{"type":"Point","coordinates":[80.629940756451546,16.326391346369586]},"properties":{"OBJECTID":356,"stname":"ANDHRA PRADESH","dtname":"Guntur","STCODE11":"37","DTCODE11":"548","SDTCODE11":"05076","NAME11":"Duggirala","LOC_NAME":"Duggirala"}},{"type":"Feature","id":357,"geometry":{"type":"Point","coordinates":[80.79707473332671,16.184258526656652]},"properties":{"OBJECTID":357,"stname":"ANDHRA PRADESH","dtname":"Guntur","STCODE11":"37","DTCODE11":"548","SDTCODE11":"05088","NAME11":"Kollur","LOC_NAME":"Kollur"}},{"type":"Feature","id":358,"geometry":{"type":"Point","coordinates":[80.334462788796415,16.182598975476022]},"properties":{"OBJECTID":358,"stname":"ANDHRA PRADESH","dtname":"Guntur","STCODE11":"37","DTCODE11":"548","SDTCODE11":"05081","NAME11":"Prathipadu","LOC_NAME":"Prathipadu"}},{"type":"Feature","id":359,"geometry":{"type":"Point","coordinates":[80.398472433012543,16.054742599842349]},"properties":{"OBJECTID":359,"stname":"ANDHRA PRADESH","dtname":"Guntur","STCODE11":"37","DTCODE11":"548","SDTCODE11":"05083","NAME11":"Kakumanu","LOC_NAME":"Kakumanu"}},{"type":"Feature","id":367,"geometry":{"type":"Point","coordinates":[80.551080948187561,16.068264706682978]},"properties":{"OBJECTID":367,"stname":"ANDHRA PRADESH","dtname":"Guntur","STCODE11":"37","DTCODE11":"548","SDTCODE11":"05084","NAME11":"Ponnur","LOC_NAME":"Ponnur"}},{"type":"Feature","id":368,"geometry":{"type":"Point","coordinates":[79.734205049349058,16.594696223180723]},"properties":{"OBJECTID":368,"stname":"ANDHRA PRADESH","dtname":"Guntur","STCODE11":"37","DTCODE11":"548","SDTCODE11":"05045","NAME11":"Dachepalle","LOC_NAME":"Dachepalle"}},{"type":"Feature","id":369,"geometry":{"type":"Point","coordinates":[79.553688840940268,16.55468619609395]},"properties":{"OBJECTID":369,"stname":"ANDHRA PRADESH","dtname":"Guntur","STCODE11":"37","DTCODE11":"548","SDTCODE11":"05043","NAME11":"Rentachintala","LOC_NAME":"Rentachintala"}},{"type":"Feature","id":370,"geometry":{"type":"Point","coordinates":[79.435372509216648,16.473798821216164]},"properties":{"OBJECTID":370,"stname":"ANDHRA PRADESH","dtname":"Guntur","STCODE11":"37","DTCODE11":"548","SDTCODE11":"05040","NAME11":"Macherla","LOC_NAME":"Macherla"}},{"type":"Feature","id":371,"geometry":{"type":"Point","coordinates":[79.541675322997719,16.426253125655052]},"properties":{"OBJECTID":371,"stname":"ANDHRA PRADESH","dtname":"Guntur","STCODE11":"37","DTCODE11":"548","SDTCODE11":"05042","NAME11":"Durgi","LOC_NAME":"Durgi"}},{"type":"Feature","id":372,"geometry":{"type":"Point","coordinates":[79.722810978185407,16.427907672059106]},"properties":{"OBJECTID":372,"stname":"ANDHRA PRADESH","dtname":"Guntur","STCODE11":"37","DTCODE11":"548","SDTCODE11":"05046","NAME11":"Karempudi","LOC_NAME":"Karempudi"}},{"type":"Feature","id":373,"geometry":{"type":"Point","coordinates":[79.366900119110639,16.349167951326553]},"properties":{"OBJECTID":373,"stname":"ANDHRA PRADESH","dtname":"Guntur","STCODE11":"37","DTCODE11":"548","SDTCODE11":"05041","NAME11":"Veldurthi","LOC_NAME":"Veldurthi"}},{"type":"Feature","id":374,"geometry":{"type":"Point","coordinates":[79.910936498260668,16.209730512257284]},"properties":{"OBJECTID":374,"stname":"ANDHRA PRADESH","dtname":"Guntur","STCODE11":"37","DTCODE11":"548","SDTCODE11":"05066","NAME11":"Rompicherla","LOC_NAME":"Rompicherla"}},{"type":"Feature","id":375,"geometry":{"type":"Point","coordinates":[79.77628573411161,16.228875468461979]},"properties":{"OBJECTID":375,"stname":"ANDHRA PRADESH","dtname":"Guntur","STCODE11":"37","DTCODE11":"548","SDTCODE11":"05065","NAME11":"Ipur","LOC_NAME":"Ipur"}},{"type":"Feature","id":376,"geometry":{"type":"Point","coordinates":[79.428782253594989,16.158874752477356]},"properties":{"OBJECTID":376,"stname":"ANDHRA PRADESH","dtname":"Prakasam","STCODE11":"37","DTCODE11":"549","SDTCODE11":"05098","NAME11":"Pullalacheruvu","LOC_NAME":"Pullalacheruvu"}},{"type":"Feature","id":377,"geometry":{"type":"Point","coordinates":[79.688346024450354,16.186396787776257]},"properties":{"OBJECTID":377,"stname":"ANDHRA PRADESH","dtname":"Guntur","STCODE11":"37","DTCODE11":"548","SDTCODE11":"05061","NAME11":"Bollapalle","LOC_NAME":"Bollapalle"}},{"type":"Feature","id":378,"geometry":{"type":"Point","coordinates":[79.301380946789379,16.041224376435643]},"properties":{"OBJECTID":378,"stname":"ANDHRA PRADESH","dtname":"Prakasam","STCODE11":"37","DTCODE11":"549","SDTCODE11":"05097","NAME11":"Yerragondapalem","LOC_NAME":"Yerragondapalem"}},{"type":"Feature","id":432,"geometry":{"type":"Point","coordinates":[81.692327246519312,17.177829394326814]},"properties":{"OBJECTID":432,"stname":"ANDHRA PRADESH","dtname":"East Godavari","STCODE11":"37","DTCODE11":"545","SDTCODE11":"04896","NAME11":"Seethanagaram","LOC_NAME":"Seethanagaram"}},{"type":"Feature","id":433,"geometry":{"type":"Point","coordinates":[81.831554991719685,17.169440547767685]},"properties":{"OBJECTID":433,"stname":"ANDHRA PRADESH","dtname":"East Godavari","STCODE11":"37","DTCODE11":"545","SDTCODE11":"04905","NAME11":"Korukonda","LOC_NAME":"Korukonda"}},{"type":"Feature","id":434,"geometry":{"type":"Point","coordinates":[81.848618211165501,17.260052734597597]},"properties":{"OBJECTID":434,"stname":"ANDHRA PRADESH","dtname":"East Godavari","STCODE11":"37","DTCODE11":"545","SDTCODE11":"04897","NAME11":"Gokavaram","LOC_NAME":"Gokavaram"}},{"type":"Feature","id":435,"geometry":{"type":"Point","coordinates":[81.665624574967239,17.316067092674835]},"properties":{"OBJECTID":435,"stname":"ANDHRA PRADESH","dtname":"East Godavari","STCODE11":"37","DTCODE11":"545","SDTCODE11":"04885","NAME11":"Devipatnam","LOC_NAME":"Devipatnam"}},{"type":"Feature","id":436,"geometry":{"type":"Point","coordinates":[82.059407254780268,17.170657397265582]},"properties":{"OBJECTID":436,"stname":"ANDHRA PRADESH","dtname":"East Godavari","STCODE11":"37","DTCODE11":"545","SDTCODE11":"04898","NAME11":"Jaggampeta","LOC_NAME":"Jaggampeta"}},{"type":"Feature","id":437,"geometry":{"type":"Point","coordinates":[81.54284851748973,17.101953314417109]},"properties":{"OBJECTID":437,"stname":"ANDHRA PRADESH","dtname":"West Godavari","STCODE11":"37","DTCODE11":"546","SDTCODE11":"04951","NAME11":"Gopalapuram","LOC_NAME":"Gopalapuram"}},{"type":"Feature","id":438,"geometry":{"type":"Point","coordinates":[81.896455518559307,17.077772049925485]},"properties":{"OBJECTID":438,"stname":"ANDHRA PRADESH","dtname":"East Godavari","STCODE11":"37","DTCODE11":"545","SDTCODE11":"04908","NAME11":"Rajanagaram","LOC_NAME":"Rajanagaram"}},{"type":"Feature","id":439,"geometry":{"type":"Point","coordinates":[81.191629337260039,17.010232164920819]},"properties":{"OBJECTID":439,"stname":"ANDHRA PRADESH","dtname":"West Godavari","STCODE11":"37","DTCODE11":"546","SDTCODE11":"04954","NAME11":"Kamavarapukota","LOC_NAME":"Kamavarapukota"}},{"type":"Feature","id":440,"geometry":{"type":"Point","coordinates":[82.235256671270633,17.545269745612341]},"properties":{"OBJECTID":440,"stname":"ANDHRA PRADESH","dtname":"East Godavari","STCODE11":"37","DTCODE11":"545","SDTCODE11":"04888","NAME11":"Rajavommangi","LOC_NAME":"Rajavommangi"}},{"type":"Feature","id":441,"geometry":{"type":"Point","coordinates":[82.489380831365253,17.482722727080606]},"properties":{"OBJECTID":441,"stname":"ANDHRA PRADESH","dtname":"East Godavari","STCODE11":"37","DTCODE11":"545","SDTCODE11":"04889","NAME11":"Kotananduru","LOC_NAME":"Kotananduru"}},{"type":"Feature","id":442,"geometry":{"type":"Point","coordinates":[82.456628264191096,17.249011559855386]},"properties":{"OBJECTID":442,"stname":"ANDHRA PRADESH","dtname":"East Godavari","STCODE11":"37","DTCODE11":"545","SDTCODE11":"04901","NAME11":"Thondangi","LOC_NAME":"Thondangi"}},{"type":"Feature","id":443,"geometry":{"type":"Point","coordinates":[82.104321485562068,17.286785193878423]},"properties":{"OBJECTID":443,"stname":"ANDHRA PRADESH","dtname":"East Godavari","STCODE11":"37","DTCODE11":"545","SDTCODE11":"04893","NAME11":"Yeleswaram","LOC_NAME":"Yeleswaram"}},{"type":"Feature","id":444,"geometry":{"type":"Point","coordinates":[82.284212964199796,17.15583590997225]},"properties":{"OBJECTID":444,"stname":"ANDHRA PRADESH","dtname":"East Godavari","STCODE11":"37","DTCODE11":"545","SDTCODE11":"04902","NAME11":"Gollaprolu","LOC_NAME":"Gollaprolu"}},{"type":"Feature","id":445,"geometry":{"type":"Point","coordinates":[82.174748860356303,17.057065306403587]},"properties":{"OBJECTID":445,"stname":"ANDHRA PRADESH","dtname":"East Godavari","STCODE11":"37","DTCODE11":"545","SDTCODE11":"04910","NAME11":"Samalkota","LOC_NAME":"Samalkota"}},{"type":"Feature","id":446,"geometry":{"type":"Point","coordinates":[84.689043261143397,19.011361365958869]},"properties":{"OBJECTID":446,"stname":"ANDHRA PRADESH","dtname":"Srikakulam","STCODE11":"37","DTCODE11":"542","SDTCODE11":"04779","NAME11":"Kaviti","LOC_NAME":"Kaviti"}},{"type":"Feature","id":447,"geometry":{"type":"Point","coordinates":[84.462423869334927,18.869421042419667]},"properties":{"OBJECTID":447,"stname":"ANDHRA PRADESH","dtname":"Srikakulam","STCODE11":"37","DTCODE11":"542","SDTCODE11":"04776","NAME11":"Mandasa","LOC_NAME":"Mandasa"}},{"type":"Feature","id":448,"geometry":{"type":"Point","coordinates":[84.411368229756448,18.77096226734276]},"properties":{"OBJECTID":448,"stname":"ANDHRA PRADESH","dtname":"Srikakulam","STCODE11":"37","DTCODE11":"542","SDTCODE11":"04775","NAME11":"Palasa","LOC_NAME":"Palasa"}},{"type":"Feature","id":449,"geometry":{"type":"Point","coordinates":[84.172099563414264,18.772008056079887]},"properties":{"OBJECTID":449,"stname":"ANDHRA PRADESH","dtname":"Srikakulam","STCODE11":"37","DTCODE11":"542","SDTCODE11":"04774","NAME11":"Meliaputti","LOC_NAME":"Meliaputti"}},{"type":"Feature","id":450,"geometry":{"type":"Point","coordinates":[83.681451791754654,18.377839224073746]},"properties":{"OBJECTID":450,"stname":"ANDHRA PRADESH","dtname":"Srikakulam","STCODE11":"37","DTCODE11":"542","SDTCODE11":"04797","NAME11":"Ganguvarisigadam","LOC_NAME":"Ganguvarisigadam"}},{"type":"Feature","id":451,"geometry":{"type":"Point","coordinates":[84.303551657703608,18.656786703356232]},"properties":{"OBJECTID":451,"stname":"ANDHRA PRADESH","dtname":"Srikakulam","STCODE11":"37","DTCODE11":"542","SDTCODE11":"04782","NAME11":"Nandigam","LOC_NAME":"Nandigam"}},{"type":"Feature","id":452,"geometry":{"type":"Point","coordinates":[84.051480863092181,18.591653964445179]},"properties":{"OBJECTID":452,"stname":"ANDHRA PRADESH","dtname":"Srikakulam","STCODE11":"37","DTCODE11":"542","SDTCODE11":"04788","NAME11":"Saravakota","LOC_NAME":"Saravakota"}},{"type":"Feature","id":453,"geometry":{"type":"Point","coordinates":[83.258914108867231,18.311968555128495]},"properties":{"OBJECTID":453,"stname":"ANDHRA PRADESH","dtname":"Vizianagaram","STCODE11":"37","DTCODE11":"543","SDTCODE11":"04824","NAME11":"Mentada","LOC_NAME":"Mentada"}},{"type":"Feature","id":454,"geometry":{"type":"Point","coordinates":[83.347485923468042,18.241608033534146]},"properties":{"OBJECTID":454,"stname":"ANDHRA PRADESH","dtname":"Vizianagaram","STCODE11":"37","DTCODE11":"543","SDTCODE11":"04829","NAME11":"Bondapalle","LOC_NAME":"Bondapalle"}},{"type":"Feature","id":455,"geometry":{"type":"Point","coordinates":[83.29357391976383,18.142777290498028]},"properties":{"OBJECTID":455,"stname":"ANDHRA PRADESH","dtname":"Vizianagaram","STCODE11":"37","DTCODE11":"543","SDTCODE11":"04830","NAME11":"Gantyada","LOC_NAME":"Gantyada"}},{"type":"Feature","id":456,"geometry":{"type":"Point","coordinates":[83.551088169027082,18.092895364429626]},"properties":{"OBJECTID":456,"stname":"ANDHRA PRADESH","dtname":"Vizianagaram","STCODE11":"37","DTCODE11":"543","SDTCODE11":"04838","NAME11":"Pusapatirega","LOC_NAME":"Pusapatirega"}},{"type":"Feature","id":457,"geometry":{"type":"Point","coordinates":[83.447811421010428,18.157870294378441]},"properties":{"OBJECTID":457,"stname":"ANDHRA PRADESH","dtname":"Vizianagaram","STCODE11":"37","DTCODE11":"543","SDTCODE11":"04837","NAME11":"Nellimarla","LOC_NAME":"Nellimarla"}},{"type":"Feature","id":458,"geometry":{"type":"Point","coordinates":[83.160198533349458,18.025160631612227]},"properties":{"OBJECTID":458,"stname":"ANDHRA PRADESH","dtname":"Vizianagaram","STCODE11":"37","DTCODE11":"543","SDTCODE11":"04833","NAME11":"Lakkavarapukota","LOC_NAME":"Lakkavarapukota"}},{"type":"Feature","id":459,"geometry":{"type":"Point","coordinates":[83.260011442309278,18.052361855214379]},"properties":{"OBJECTID":459,"stname":"ANDHRA PRADESH","dtname":"Vizianagaram","STCODE11":"37","DTCODE11":"543","SDTCODE11":"04835","NAME11":"Jami","LOC_NAME":"Jami"}},{"type":"Feature","id":460,"geometry":{"type":"Point","coordinates":[83.496390374807874,18.030913675313812]},"properties":{"OBJECTID":460,"stname":"ANDHRA PRADESH","dtname":"Vizianagaram","STCODE11":"37","DTCODE11":"543","SDTCODE11":"04840","NAME11":"Bhogapuram","LOC_NAME":"Bhogapuram"}},{"type":"Feature","id":461,"geometry":{"type":"Point","coordinates":[83.475285835223133,18.075116009497158]},"properties":{"OBJECTID":461,"stname":"ANDHRA PRADESH","dtname":"Vizianagaram","STCODE11":"37","DTCODE11":"543","SDTCODE11":"04839","NAME11":"Denkada","LOC_NAME":"Denkada"}},{"type":"Feature","id":468,"geometry":{"type":"Point","coordinates":[78.907922189586316,16.075894669452783]},"properties":{"OBJECTID":468,"stname":"ANDHRA PRADESH","dtname":"Kurnool","STCODE11":"37","DTCODE11":"552","SDTCODE11":"05264","NAME11":"Srisailam","LOC_NAME":"Srisailam"}},{"type":"Feature","id":513,"geometry":{"type":"Point","coordinates":[81.388707523152419,17.747625777152813]},"properties":{"OBJECTID":513,"stname":"ANDHRA PRADESH","dtname":"East Godavari","STCODE11":"37","DTCODE11":"545","SDTCODE11":"04732","NAME11":"Chintur","LOC_NAME":"Chintur"}},{"type":"Feature","id":514,"geometry":{"type":"Point","coordinates":[82.001277310474137,16.903781963894925]},"properties":{"OBJECTID":514,"stname":"ANDHRA PRADESH","dtname":"East Godavari","STCODE11":"37","DTCODE11":"545","SDTCODE11":"04921","NAME11":"Rayavaram","LOC_NAME":"Rayavaram"}},{"type":"Feature","id":515,"geometry":{"type":"Point","coordinates":[81.176367763676723,17.558904997066584]},"properties":{"OBJECTID":515,"stname":"ANDHRA PRADESH","dtname":"West Godavari","STCODE11":"37","DTCODE11":"546","SDTCODE11":"04735","NAME11":"Kukunoor","LOC_NAME":"Kukunoor"}},{"type":"Feature","id":516,"geometry":{"type":"Point","coordinates":[81.254008140383519,17.5752404136887]},"properties":{"OBJECTID":516,"stname":"ANDHRA PRADESH","dtname":"East Godavari","STCODE11":"37","DTCODE11":"545","SDTCODE11":"04731","NAME11":"Kunavaram","LOC_NAME":"Kunavaram"}},{"type":"Feature","id":517,"geometry":{"type":"Point","coordinates":[81.13383545629496,17.212556811899344]},"properties":{"OBJECTID":517,"stname":"ANDHRA PRADESH","dtname":"West Godavari","STCODE11":"37","DTCODE11":"546","SDTCODE11":"04947","NAME11":"Jeelugu Milli","LOC_NAME":"Jeelugu Milli"}},{"type":"Feature","id":518,"geometry":{"type":"Point","coordinates":[81.296444050450461,17.1225643948463]},"properties":{"OBJECTID":518,"stname":"ANDHRA PRADESH","dtname":"West Godavari","STCODE11":"37","DTCODE11":"546","SDTCODE11":"04953","NAME11":"Jangareddigudem","LOC_NAME":"Jangareddigudem"}},{"type":"Feature","id":519,"geometry":{"type":"Point","coordinates":[81.428368059402956,17.127235536914306]},"properties":{"OBJECTID":519,"stname":"ANDHRA PRADESH","dtname":"West Godavari","STCODE11":"37","DTCODE11":"546","SDTCODE11":"04952","NAME11":"Koyyalagudem","LOC_NAME":"Koyyalagudem"}},{"type":"Feature","id":520,"geometry":{"type":"Point","coordinates":[84.160069857830294,18.519808704303909]},"properties":{"OBJECTID":520,"stname":"ANDHRA PRADESH","dtname":"Srikakulam","STCODE11":"37","DTCODE11":"542","SDTCODE11":"04791","NAME11":"Kotabommali","LOC_NAME":"Kotabommali"}},{"type":"Feature","id":521,"geometry":{"type":"Point","coordinates":[84.038734532778506,18.512225382355762]},"properties":{"OBJECTID":521,"stname":"ANDHRA PRADESH","dtname":"Srikakulam","STCODE11":"37","DTCODE11":"542","SDTCODE11":"04792","NAME11":"Jalumuru","LOC_NAME":"Jalumuru"}},{"type":"Feature","id":522,"geometry":{"type":"Point","coordinates":[84.10248893507972,18.371992253352101]},