{"type":"FeatureCollection","crs":{"type":"name","properties":{"name":"EPSG:4326"}},"features":[{"type":"Feature","id":4198,"geometry":{"type":"Point","coordinates":[71.767698170092046,24.750679843250477]},"properties":{"OBJECTID":4198,"stname":"RAJASTHAN","dtname":"Jalor","STCODE11":"08","DTCODE11":"116","SDTCODE11":"00590","NAME11":"Sanchore","LOC_NAME":"Sanchore"}},{"type":"Feature","id":4199,"geometry":{"type":"Point","coordinates":[72.268961081037517,25.002495457570145]},"properties":{"OBJECTID":4199,"stname":"RAJASTHAN","dtname":"Jalor","STCODE11":"08","DTCODE11":"116","SDTCODE11":"00588","NAME11":"Bhinmal","LOC_NAME":"Bhinmal"}},{"type":"Feature","id":4200,"geometry":{"type":"Point","coordinates":[73.655732404728553,25.927242018468604]},"properties":{"OBJECTID":4200,"stname":"RAJASTHAN","dtname":"Pali","STCODE11":"08","DTCODE11":"118","SDTCODE11":"00599","NAME11":"Sojat","LOC_NAME":"Sojat"}},{"type":"Feature","id":4201,"geometry":{"type":"Point","coordinates":[73.2855826626989,25.193365906488395]},"properties":{"OBJECTID":4201,"stname":"RAJASTHAN","dtname":"Pali","STCODE11":"08","DTCODE11":"118","SDTCODE11":"00605","NAME11":"Bali","LOC_NAME":"Bali"}},{"type":"Feature","id":4202,"geometry":{"type":"Point","coordinates":[74.014388828823627,24.681964526156296]},"properties":{"OBJECTID":4202,"stname":"RAJASTHAN","dtname":"Udaipur","STCODE11":"08","DTCODE11":"130","SDTCODE11":"00690","NAME11":"Vallabhnagar","LOC_NAME":"Vallabhnagar"}},{"type":"Feature","id":4203,"geometry":{"type":"Point","coordinates":[73.691245515432044,24.074857780001913]},"properties":{"OBJECTID":4203,"stname":"RAJASTHAN","dtname":"Udaipur","STCODE11":"08","DTCODE11":"130","SDTCODE11":"00694","NAME11":"Rishabhdeo","LOC_NAME":"Rishabhdeo"}},{"type":"Feature","id":4204,"geometry":{"type":"Point","coordinates":[73.594602240985367,23.991414432628872]},"properties":{"OBJECTID":4204,"stname":"RAJASTHAN","dtname":"Udaipur","STCODE11":"08","DTCODE11":"130","SDTCODE11":"00695","NAME11":"Kherwara","LOC_NAME":"Kherwara"}},{"type":"Feature","id":4205,"geometry":{"type":"Point","coordinates":[74.779459258027799,24.050919291703504]},"properties":{"OBJECTID":4205,"stname":"RAJASTHAN","dtname":"Pratapgarh","STCODE11":"08","DTCODE11":"131","SDTCODE11":"00699","NAME11":"Pratapgarh","LOC_NAME":"Pratapgarh"}},{"type":"Feature","id":4206,"geometry":{"type":"Point","coordinates":[74.451873323703666,23.198789985662739]},"properties":{"OBJECTID":4206,"stname":"RAJASTHAN","dtname":"Banswara","STCODE11":"08","DTCODE11":"125","SDTCODE11":"00654","NAME11":"Kushalgarh","LOC_NAME":"Kushalgarh"}},{"type":"Feature","id":4207,"geometry":{"type":"Point","coordinates":[74.689980897778213,24.624547506457453]},"properties":{"OBJECTID":4207,"stname":"RAJASTHAN","dtname":"Chittaurgarh","STCODE11":"08","DTCODE11":"126","SDTCODE11":"00663","NAME11":"Nimbahera","LOC_NAME":"Nimbahera"}},{"type":"Feature","id":4208,"geometry":{"type":"Point","coordinates":[74.325164706017006,24.893108088559853]},"properties":{"OBJECTID":4208,"stname":"RAJASTHAN","dtname":"Chittaurgarh","STCODE11":"08","DTCODE11":"126","SDTCODE11":"00660","NAME11":"Kapasan","LOC_NAME":"Kapasan"}},{"type":"Feature","id":4209,"geometry":{"type":"Point","coordinates":[75.015312606914875,24.994038023188278]},"properties":{"OBJECTID":4209,"stname":"RAJASTHAN","dtname":"Chittaurgarh","STCODE11":"08","DTCODE11":"126","SDTCODE11":"00657","NAME11":"Begun","LOC_NAME":"Begun"}},{"type":"Feature","id":4210,"geometry":{"type":"Point","coordinates":[74.31647239083388,26.109472944799659]},"properties":{"OBJECTID":4210,"stname":"RAJASTHAN","dtname":"Ajmer","STCODE11":"08","DTCODE11":"119","SDTCODE11":"00609","NAME11":"Beawar","LOC_NAME":"Beawar"}},{"type":"Feature","id":4211,"geometry":{"type":"Point","coordinates":[73.93210976129707,26.212012476812056]},"properties":{"OBJECTID":4211,"stname":"RAJASTHAN","dtname":"Pali","STCODE11":"08","DTCODE11":"118","SDTCODE11":"00597","NAME11":"Jaitaran","LOC_NAME":"Jaitaran"}},{"type":"Feature","id":4212,"geometry":{"type":"Point","coordinates":[74.862484865081299,26.574140023332063]},"properties":{"OBJECTID":4212,"stname":"RAJASTHAN","dtname":"Ajmer","STCODE11":"08","DTCODE11":"119","SDTCODE11":"00606","NAME11":"Kishangarh","LOC_NAME":"Kishangarh"}},{"type":"Feature","id":4213,"geometry":{"type":"Point","coordinates":[74.924027729239029,25.635851538927994]},"properties":{"OBJECTID":4213,"stname":"RAJASTHAN","dtname":"Bhilwara","STCODE11":"08","DTCODE11":"122","SDTCODE11":"00629","NAME11":"Shahpura","LOC_NAME":"Shahpura"}},{"type":"Feature","id":4214,"geometry":{"type":"Point","coordinates":[75.099647446511241,25.217880778329956]},"properties":{"OBJECTID":4214,"stname":"RAJASTHAN","dtname":"Bhilwara","STCODE11":"08","DTCODE11":"122","SDTCODE11":"00637","NAME11":"Mandalgarh","LOC_NAME":"Mandalgarh"}},{"type":"Feature","id":4215,"geometry":{"type":"Point","coordinates":[75.153031910971634,25.968898716623375]},"properties":{"OBJECTID":4215,"stname":"RAJASTHAN","dtname":"Ajmer","STCODE11":"08","DTCODE11":"119","SDTCODE11":"00614","NAME11":"Kekri","LOC_NAME":"Kekri"}},{"type":"Feature","id":4216,"geometry":{"type":"Point","coordinates":[75.847788121666355,25.773302046596097]},"properties":{"OBJECTID":4216,"stname":"RAJASTHAN","dtname":"Bundi","STCODE11":"08","DTCODE11":"121","SDTCODE11":"00623","NAME11":"Nainwa","LOC_NAME":"Nainwa"}},{"type":"Feature","id":4217,"geometry":{"type":"Point","coordinates":[75.378600189456037,26.291449646173419]},"properties":{"OBJECTID":4217,"stname":"RAJASTHAN","dtname":"Tonk","STCODE11":"08","DTCODE11":"120","SDTCODE11":"00615","NAME11":"Malpura","LOC_NAME":"Malpura"}},{"type":"Feature","id":4218,"geometry":{"type":"Point","coordinates":[75.479937590656959,27.736704030277302]},"properties":{"OBJECTID":4218,"stname":"RAJASTHAN","dtname":"Jhunjhunun","STCODE11":"08","DTCODE11":"103","SDTCODE11":"00492","NAME11":"Udaipurwati","LOC_NAME":"Udaipurwati"}},{"type":"Feature","id":4219,"geometry":{"type":"Point","coordinates":[75.782032871190083,27.736894003741234]},"properties":{"OBJECTID":4219,"stname":"RAJASTHAN","dtname":"Sikar","STCODE11":"08","DTCODE11":"111","SDTCODE11":"00556","NAME11":"Neem-Ka-Thana","LOC_NAME":"Neem-Ka-Thana"}},{"type":"Feature","id":4220,"geometry":{"type":"Point","coordinates":[75.958859292688501,27.390816809823885]},"properties":{"OBJECTID":4220,"stname":"RAJASTHAN","dtname":"Jaipur","STCODE11":"08","DTCODE11":"110","SDTCODE11":"00540","NAME11":"Shahpura","LOC_NAME":"Shahpura"}},{"type":"Feature","id":4221,"geometry":{"type":"Point","coordinates":[75.380662970181675,28.644766969504836]},"properties":{"OBJECTID":4221,"stname":"RAJASTHAN","dtname":"Churu","STCODE11":"08","DTCODE11":"102","SDTCODE11":"00482","NAME11":"Rajgarh","LOC_NAME":"Rajgarh"}},{"type":"Feature","id":4222,"geometry":{"type":"Point","coordinates":[74.762817680826899,29.187684034221007]},"properties":{"OBJECTID":4222,"stname":"RAJASTHAN","dtname":"Hanumangarh","STCODE11":"08","DTCODE11":"100","SDTCODE11":"00471","NAME11":"Nohar","LOC_NAME":"Nohar"}},{"type":"Feature","id":4223,"geometry":{"type":"Point","coordinates":[74.608896635393634,28.101573989527271]},"properties":{"OBJECTID":4223,"stname":"RAJASTHAN","dtname":"Churu","STCODE11":"08","DTCODE11":"102","SDTCODE11":"00485","NAME11":"Ratangarh","LOC_NAME":"Ratangarh"}},{"type":"Feature","id":4224,"geometry":{"type":"Point","coordinates":[74.95071039710642,27.996982926229496]},"properties":{"OBJECTID":4224,"stname":"RAJASTHAN","dtname":"Sikar","STCODE11":"08","DTCODE11":"111","SDTCODE11":"00551","NAME11":"Fatehpur","LOC_NAME":"Fatehpur"}},{"type":"Feature","id":4225,"geometry":{"type":"Point","coordinates":[73.898472494603539,29.308791523094389]},"properties":{"OBJECTID":4225,"stname":"RAJASTHAN","dtname":"Ganganagar","STCODE11":"08","DTCODE11":"099","SDTCODE11":"00465","NAME11":"Suratgarh","LOC_NAME":"Suratgarh"}},{"type":"Feature","id":4226,"geometry":{"type":"Point","coordinates":[73.450559000347681,29.526193236986593]},"properties":{"OBJECTID":4226,"stname":"RAJASTHAN","dtname":"Ganganagar","STCODE11":"08","DTCODE11":"099","SDTCODE11":"00461","NAME11":"Raisinghnagar","LOC_NAME":"Raisinghnagar"}},{"type":"Feature","id":4227,"geometry":{"type":"Point","coordinates":[73.450436343480462,29.833853240419547]},"properties":{"OBJECTID":4227,"stname":"RAJASTHAN","dtname":"Ganganagar","STCODE11":"08","DTCODE11":"099","SDTCODE11":"00457","NAME11":"Karanpur","LOC_NAME":"Karanpur"}},{"type":"Feature","id":4228,"geometry":{"type":"Point","coordinates":[72.36195592521284,27.137341288223503]},"properties":{"OBJECTID":4228,"stname":"RAJASTHAN","dtname":"Jodhpur","STCODE11":"08","DTCODE11":"113","SDTCODE11":"00567","NAME11":"Phalodi","LOC_NAME":"Phalodi"}},{"type":"Feature","id":4229,"geometry":{"type":"Point","coordinates":[77.027877387830458,26.729619549410923]},"properties":{"OBJECTID":4229,"stname":"RAJASTHAN","dtname":"Karauli","STCODE11":"08","DTCODE11":"107","SDTCODE11":"00522","NAME11":"Hindaun","LOC_NAME":"Hindaun"}},{"type":"Feature","id":4230,"geometry":{"type":"Point","coordinates":[76.723120938099669,27.830708060001673]},"properties":{"OBJECTID":4230,"stname":"RAJASTHAN","dtname":"Alwar","STCODE11":"08","DTCODE11":"104","SDTCODE11":"00497","NAME11":"Kishangarh Bas","LOC_NAME":"Kishangarh Bas"}},{"type":"Feature","id":4231,"geometry":{"type":"Point","coordinates":[76.287912728335499,27.889495967620363]},"properties":{"OBJECTID":4231,"stname":"RAJASTHAN","dtname":"Alwar","STCODE11":"08","DTCODE11":"104","SDTCODE11":"00493","NAME11":"Behror","LOC_NAME":"Behror"}},{"type":"Feature","id":4232,"geometry":{"type":"Point","coordinates":[76.563396302518811,24.421244305364688]},"properties":{"OBJECTID":4232,"stname":"RAJASTHAN","dtname":"Jhalawar","STCODE11":"08","DTCODE11":"129","SDTCODE11":"00680","NAME11":"Aklera","LOC_NAME":"Aklera"}},{"type":"Feature","id":4233,"geometry":{"type":"Point","coordinates":[77.280314905283589,26.915710197020413]},"properties":{"OBJECTID":4233,"stname":"RAJASTHAN","dtname":"Bharatpur","STCODE11":"08","DTCODE11":"105","SDTCODE11":"00513","NAME11":"Bayana","LOC_NAME":"Bayana"}},{"type":"Feature","id":4234,"geometry":{"type":"Point","coordinates":[74.572269466414099,27.397181551847012]},"properties":{"OBJECTID":4234,"stname":"RAJASTHAN","dtname":"Nagaur","STCODE11":"08","DTCODE11":"112","SDTCODE11":"00558","NAME11":"Didwana","LOC_NAME":"Didwana"}},{"type":"Feature","id":4235,"geometry":{"type":"Point","coordinates":[76.838599938303418,24.667325635322946]},"properties":{"OBJECTID":4235,"stname":"RAJASTHAN","dtname":"Baran","STCODE11":"08","DTCODE11":"128","SDTCODE11":"00676","NAME11":"Chhabra","LOC_NAME":"Chhabra"}},{"type":"Feature","id":4236,"geometry":{"type":"Point","coordinates":[77.312699461431961,27.466183807200508]},"properties":{"OBJECTID":4236,"stname":"RAJASTHAN","dtname":"Bharatpur","STCODE11":"08","DTCODE11":"105","SDTCODE11":"00508","NAME11":"Deeg","LOC_NAME":"Deeg"}},{"type":"Feature","id":4237,"geometry":{"type":"Point","coordinates":[74.087279074208098,25.746512560912141]},"properties":{"OBJECTID":4237,"stname":"RAJASTHAN","dtname":"Rajsamand","STCODE11":"08","DTCODE11":"123","SDTCODE11":"00639","NAME11":"Bhim","LOC_NAME":"Bhim"}},{"type":"Feature","id":4238,"geometry":{"type":"Point","coordinates":[76.719159466511385,26.486162313260941]},"properties":{"OBJECTID":4238,"stname":"RAJASTHAN","dtname":"Sawai Madhopur","STCODE11":"08","DTCODE11":"108","SDTCODE11":"00526","NAME11":"Gangapur","LOC_NAME":"Gangapur"}},{"type":"Feature","id":4239,"geometry":{"type":"Point","coordinates":[71.911165666989419,26.926893882955294]},"properties":{"OBJECTID":4239,"stname":"RAJASTHAN","dtname":"Jaisalmer","STCODE11":"08","DTCODE11":"114","SDTCODE11":"00575","NAME11":"Pokaran","LOC_NAME":"Pokaran"}},{"type":"Feature","id":4240,"geometry":{"type":"Point","coordinates":[71.064446362685032,25.75661425637821]},"properties":{"OBJECTID":4240,"stname":"RAJASTHAN","dtname":"Barmer","STCODE11":"08","DTCODE11":"115","SDTCODE11":"00583","NAME11":"Ramsar","LOC_NAME":"Ramsar"}},{"type":"Feature","id":4241,"geometry":{"type":"Point","coordinates":[71.064962843667757,25.473377892620508]},"properties":{"OBJECTID":4241,"stname":"RAJASTHAN","dtname":"Barmer","STCODE11":"08","DTCODE11":"115","SDTCODE11":"00584","NAME11":"Chohtan","LOC_NAME":"Chohtan"}},{"type":"Feature","id":4242,"geometry":{"type":"Point","coordinates":[72.422171094652029,25.651913824757891]},"properties":{"OBJECTID":4242,"stname":"RAJASTHAN","dtname":"Barmer","STCODE11":"08","DTCODE11":"115","SDTCODE11":"00580","NAME11":"Siwana","LOC_NAME":"Siwana"}},{"type":"Feature","id":4243,"geometry":{"type":"Point","coordinates":[72.16066066828779,25.92313781821824]},"properties":{"OBJECTID":4243,"stname":"RAJASTHAN","dtname":"Barmer","STCODE11":"08","DTCODE11":"115","SDTCODE11":"00579","NAME11":"Pachpadra","LOC_NAME":"Pachpadra"}},{"type":"Feature","id":4244,"geometry":{"type":"Point","coordinates":[72.363856425282435,25.330069980696269]},"properties":{"OBJECTID":4244,"stname":"RAJASTHAN","dtname":"Jalor","STCODE11":"08","DTCODE11":"116","SDTCODE11":"00585","NAME11":"Sayla","LOC_NAME":"Sayla"}},{"type":"Feature","id":4245,"geometry":{"type":"Point","coordinates":[72.006640920462672,25.211842025962145]},"properties":{"OBJECTID":4245,"stname":"RAJASTHAN","dtname":"Jalor","STCODE11":"08","DTCODE11":"116","SDTCODE11":"00589","NAME11":"Bagora","LOC_NAME":"Bagora"}},{"type":"Feature","id":4246,"geometry":{"type":"Point","coordinates":[73.05718037646119,25.141207201476664]},"properties":{"OBJECTID":4246,"stname":"RAJASTHAN","dtname":"Sirohi","STCODE11":"08","DTCODE11":"117","SDTCODE11":"00592","NAME11":"Sheoganj","LOC_NAME":"Sheoganj"}},{"type":"Feature","id":4247,"geometry":{"type":"Point","coordinates":[72.772989121411825,25.370717546866619]},"properties":{"OBJECTID":4247,"stname":"RAJASTHAN","dtname":"Jalor","STCODE11":"08","DTCODE11":"116","SDTCODE11":"00586","NAME11":"Ahore","LOC_NAME":"Ahore"}},{"type":"Feature","id":4248,"geometry":{"type":"Point","coordinates":[73.140053892448918,25.955107353806255]},"properties":{"OBJECTID":4248,"stname":"RAJASTHAN","dtname":"Pali","STCODE11":"08","DTCODE11":"118","SDTCODE11":"00600","NAME11":"Rohat","LOC_NAME":"Rohat"}},{"type":"Feature","id":4249,"geometry":{"type":"Point","coordinates":[73.555718031498301,25.283173759696368]},"properties":{"OBJECTID":4249,"stname":"RAJASTHAN","dtname":"Pali","STCODE11":"08","DTCODE11":"118","SDTCODE11":"00603","NAME11":"Desuri","LOC_NAME":"Desuri"}},{"type":"Feature","id":4250,"geometry":{"type":"Point","coordinates":[73.527821344423359,24.762560686436416]},"properties":{"OBJECTID":4250,"stname":"RAJASTHAN","dtname":"Udaipur","STCODE11":"08","DTCODE11":"130","SDTCODE11":"00686","NAME11":"Gogunda","LOC_NAME":"Gogunda"}},{"type":"Feature","id":4251,"geometry":{"type":"Point","coordinates":[73.060444630523193,24.796792436551673]},"properties":{"OBJECTID":4251,"stname":"RAJASTHAN","dtname":"Sirohi","STCODE11":"08","DTCODE11":"117","SDTCODE11":"00594","NAME11":"Pindwara","LOC_NAME":"Pindwara"}},{"type":"Feature","id":4252,"geometry":{"type":"Point","coordinates":[73.179627241811232,24.377548472320711]},"properties":{"OBJECTID":4252,"stname":"RAJASTHAN","dtname":"Udaipur","STCODE11":"08","DTCODE11":"130","SDTCODE11":"00687","NAME11":"Kotra","LOC_NAME":"Kotra"}},{"type":"Feature","id":4253,"geometry":{"type":"Point","coordinates":[74.245437040746921,24.268546845536459]},"properties":{"OBJECTID":4253,"stname":"RAJASTHAN","dtname":"Udaipur","STCODE11":"08","DTCODE11":"130","SDTCODE11":"00691","NAME11":"Lasadiya","LOC_NAME":"Lasadiya"}},{"type":"Feature","id":4254,"geometry":{"type":"Point","coordinates":[74.074658540373591,23.962346775283521]},"properties":{"OBJECTID":4254,"stname":"RAJASTHAN","dtname":"Dungarpur","STCODE11":"08","DTCODE11":"124","SDTCODE11":"00647","NAME11":"Aspur","LOC_NAME":"Aspur"}},{"type":"Feature","id":4255,"geometry":{"type":"Point","coordinates":[74.141161989565148,23.601050716382755]},"properties":{"OBJECTID":4255,"stname":"RAJASTHAN","dtname":"Banswara","STCODE11":"08","DTCODE11":"125","SDTCODE11":"00651","NAME11":"Garhi","LOC_NAME":"Garhi"}},{"type":"Feature","id":4256,"geometry":{"type":"Point","coordinates":[74.414980678303152,23.763547334045569]},"properties":{"OBJECTID":4256,"stname":"RAJASTHAN","dtname":"Banswara","STCODE11":"08","DTCODE11":"125","SDTCODE11":"00650","NAME11":"Ghatol","LOC_NAME":"Ghatol"}},{"type":"Feature","id":4257,"geometry":{"type":"Point","coordinates":[74.029682117428038,23.680788870553911]},"properties":{"OBJECTID":4257,"stname":"RAJASTHAN","dtname":"Dungarpur","STCODE11":"08","DTCODE11":"124","SDTCODE11":"00648","NAME11":"Sagwara","LOC_NAME":"Sagwara"}},{"type":"Feature","id":4258,"geometry":{"type":"Point","coordinates":[74.564011343838729,23.815135104610306]},"properties":{"OBJECTID":4258,"stname":"RAJASTHAN","dtname":"Pratapgarh","STCODE11":"08","DTCODE11":"131","SDTCODE11":"00697","NAME11":"Peepalkhoont","LOC_NAME":"Peepalkhoont"}},{"type":"Feature","id":4259,"geometry":{"type":"Point","coordinates":[74.450605134287812,24.119445545765533]},"properties":{"OBJECTID":4259,"stname":"RAJASTHAN","dtname":"Pratapgarh","STCODE11":"08","DTCODE11":"131","SDTCODE11":"00696","NAME11":"Dhariawad","LOC_NAME":"Dhariawad"}},{"type":"Feature","id":4260,"geometry":{"type":"Point","coordinates":[74.696979973990736,24.395923968181425]},"properties":{"OBJECTID":4260,"stname":"RAJASTHAN","dtname":"Pratapgarh","STCODE11":"08","DTCODE11":"131","SDTCODE11":"00698","NAME11":"Chhoti Sadri","LOC_NAME":"Chhoti Sadri"}},{"type":"Feature","id":4261,"geometry":{"type":"Point","coordinates":[74.474674229294507,24.423016058115653]},"properties":{"OBJECTID":4261,"stname":"RAJASTHAN","dtname":"Chittaurgarh","STCODE11":"08","DTCODE11":"126","SDTCODE11":"00664","NAME11":"Bari Sadri","LOC_NAME":"Bari Sadri"}},{"type":"Feature","id":4262,"geometry":{"type":"Point","coordinates":[74.335592908587159,24.516919426371377]},"properties":{"OBJECTID":4262,"stname":"RAJASTHAN","dtname":"Chittaurgarh","STCODE11":"08","DTCODE11":"126","SDTCODE11":"00661","NAME11":"Dungla","LOC_NAME":"Dungla"}},{"type":"Feature","id":4263,"geometry":{"type":"Point","coordinates":[74.503513017337141,24.683698052577146]},"properties":{"OBJECTID":4263,"stname":"RAJASTHAN","dtname":"Chittaurgarh","STCODE11":"08","DTCODE11":"126","SDTCODE11":"00662","NAME11":"Bhadesar","LOC_NAME":"Bhadesar"}},{"type":"Feature","id":4264,"geometry":{"type":"Point","coordinates":[74.36325448050107,25.067797559051233]},"properties":{"OBJECTID":4264,"stname":"RAJASTHAN","dtname":"Chittaurgarh","STCODE11":"08","DTCODE11":"126","SDTCODE11":"00655","NAME11":"Rashmi","LOC_NAME":"Rashmi"}},{"type":"Feature","id":4265,"geometry":{"type":"Point","coordinates":[74.607129733671414,25.055219789805829]},"properties":{"OBJECTID":4265,"stname":"RAJASTHAN","dtname":"Chittaurgarh","STCODE11":"08","DTCODE11":"126","SDTCODE11":"00656","NAME11":"Gangrar","LOC_NAME":"Gangrar"}},{"type":"Feature","id":4266,"geometry":{"type":"Point","coordinates":[74.251251813123133,25.197161232472407]},"properties":{"OBJECTID":4266,"stname":"RAJASTHAN","dtname":"Bhilwara","STCODE11":"08","DTCODE11":"122","SDTCODE11":"00633","NAME11":"Sahara","LOC_NAME":"Sahara"}},{"type":"Feature","id":4267,"geometry":{"type":"Point","coordinates":[74.16514037718602,25.411615543197414]},"properties":{"OBJECTID":4267,"stname":"RAJASTHAN","dtname":"Bhilwara","STCODE11":"08","DTCODE11":"122","SDTCODE11":"00632","NAME11":"Raipur","LOC_NAME":"Raipur"}},{"type":"Feature","id":4268,"geometry":{"type":"Point","coordinates":[73.695758557994679,26.184318802835385]},"properties":{"OBJECTID":4268,"stname":"RAJASTHAN","dtname":"Jodhpur","STCODE11":"08","DTCODE11":"113","SDTCODE11":"00573","NAME11":"Bilara","LOC_NAME":"Bilara"}},{"type":"Feature","id":4269,"geometry":{"type":"Point","coordinates":[74.382010955985479,26.407800075142539]},"properties":{"OBJECTID":4269,"stname":"RAJASTHAN","dtname":"Ajmer","STCODE11":"08","DTCODE11":"119","SDTCODE11":"00608","NAME11":"Peesangan","LOC_NAME":"Peesangan"}},{"type":"Feature","id":4270,"geometry":{"type":"Point","coordinates":[74.03017850579279,26.023453605324985]},"properties":{"OBJECTID":4270,"stname":"RAJASTHAN","dtname":"Pali","STCODE11":"08","DTCODE11":"118","SDTCODE11":"00598","NAME11":"Raipur","LOC_NAME":"Raipur"}},{"type":"Feature","id":4271,"geometry":{"type":"Point","coordinates":[74.765782069162199,26.88347748277571]},"properties":{"OBJECTID":4271,"stname":"RAJASTHAN","dtname":"Nagaur","STCODE11":"08","DTCODE11":"112","SDTCODE11":"00564","NAME11":"Parbatsar","LOC_NAME":"Parbatsar"}},{"type":"Feature","id":4272,"geometry":{"type":"Point","coordinates":[74.500429937298293,26.104746263490934]},"properties":{"OBJECTID":4272,"stname":"RAJASTHAN","dtname":"Ajmer","STCODE11":"08","DTCODE11":"119","SDTCODE11":"00610","NAME11":"Masuda","LOC_NAME":"Masuda"}},{"type":"Feature","id":4273,"geometry":{"type":"Point","coordinates":[75.381667448366088,25.766415602310122]},"properties":{"OBJECTID":4273,"stname":"RAJASTHAN","dtname":"Tonk","STCODE11":"08","DTCODE11":"120","SDTCODE11":"00620","NAME11":"Deoli","LOC_NAME":"Deoli"}},{"type":"Feature","id":4274,"geometry":{"type":"Point","coordinates":[75.277403421309444,25.619468762313161]},"properties":{"OBJECTID":4274,"stname":"RAJASTHAN","dtname":"Bhilwara","STCODE11":"08","DTCODE11":"122","SDTCODE11":"00636","NAME11":"Jahazpur","LOC_NAME":"Jahazpur"}},{"type":"Feature","id":4275,"geometry":{"type":"Point","coordinates":[75.486547505010293,25.583795831867771]},"properties":{"OBJECTID":4275,"stname":"RAJASTHAN","dtname":"Bundi","STCODE11":"08","DTCODE11":"121","SDTCODE11":"00622","NAME11":"Hindoli","LOC_NAME":"Hindoli"}},{"type":"Feature","id":4276,"geometry":{"type":"Point","coordinates":[75.014554048827719,26.069655038280306]},"properties":{"OBJECTID":4276,"stname":"RAJASTHAN","dtname":"Ajmer","STCODE11":"08","DTCODE11":"119","SDTCODE11":"00613","NAME11":"Sarwar","LOC_NAME":"Sarwar"}},{"type":"Feature","id":4277,"geometry":{"type":"Point","coordinates":[75.324009195042606,25.1703933627895]},"properties":{"OBJECTID":4277,"stname":"RAJASTHAN","dtname":"Bhilwara","STCODE11":"08","DTCODE11":"122","SDTCODE11":"00638","NAME11":"Beejoliya","LOC_NAME":"Beejoliya"}},{"type":"Feature","id":4278,"geometry":{"type":"Point","coordinates":[75.97783008014855,25.118419466015837]},"properties":{"OBJECTID":4278,"stname":"RAJASTHAN","dtname":"Kota","STCODE11":"08","DTCODE11":"127","SDTCODE11":"00667","NAME11":"Ladpura","LOC_NAME":"Ladpura"}},{"type":"Feature","id":4279,"geometry":{"type":"Point","coordinates":[76.088123393677989,25.23294407300553]},"properties":{"OBJECTID":4279,"stname":"RAJASTHAN","dtname":"Kota","STCODE11":"08","DTCODE11":"127","SDTCODE11":"00666","NAME11":"Digod","LOC_NAME":"Digod"}},{"type":"Feature","id":4280,"geometry":{"type":"Point","coordinates":[75.801940241267033,24.404458012360859]},"properties":{"OBJECTID":4280,"stname":"RAJASTHAN","dtname":"Jhalawar","STCODE11":"08","DTCODE11":"129","SDTCODE11":"00682","NAME11":"Pachpahar","LOC_NAME":"Pachpahar"}},{"type":"Feature","id":4281,"geometry":{"type":"Point","coordinates":[76.029190430068013,24.178188830186532]},"properties":{"OBJECTID":4281,"stname":"RAJASTHAN","dtname":"Jhalawar","STCODE11":"08","DTCODE11":"129","SDTCODE11":"00683","NAME11":"Pirawa","LOC_NAME":"Pirawa"}},{"type":"Feature","id":4282,"geometry":{"type":"Point","coordinates":[75.619434470218124,23.955246584932837]},"properties":{"OBJECTID":4282,"stname":"RAJASTHAN","dtname":"Jhalawar","STCODE11":"08","DTCODE11":"129","SDTCODE11":"00684","NAME11":"Gangdhar","LOC_NAME":"Gangdhar"}},{"type":"Feature","id":4283,"geometry":{"type":"Point","coordinates":[75.484108525114976,26.034629773108016]},"properties":{"OBJECTID":4283,"stname":"RAJASTHAN","dtname":"Tonk","STCODE11":"08","DTCODE11":"120","SDTCODE11":"00619","NAME11":"Todaraisingh","LOC_NAME":"Todaraisingh"}},{"type":"Feature","id":4284,"geometry":{"type":"Point","coordinates":[75.914900739113278,26.359948414249473]},"properties":{"OBJECTID":4284,"stname":"RAJASTHAN","dtname":"Tonk","STCODE11":"08","DTCODE11":"120","SDTCODE11":"00617","NAME11":"Niwai","LOC_NAME":"Niwai"}},{"type":"Feature","id":4285,"geometry":{"type":"Point","coordinates":[75.70576821493357,26.304284019625026]},"properties":{"OBJECTID":4285,"stname":"RAJASTHAN","dtname":"Tonk","STCODE11":"08","DTCODE11":"120","SDTCODE11":"00616","NAME11":"Peeplu","LOC_NAME":"Peeplu"}},{"type":"Feature","id":4286,"geometry":{"type":"Point","coordinates":[75.194727998214944,27.259336459420162]},"properties":{"OBJECTID":4286,"stname":"RAJASTHAN","dtname":"Sikar","STCODE11":"08","DTCODE11":"111","SDTCODE11":"00554","NAME11":"Danta Ramgarh","LOC_NAME":"Danta Ramgarh"}},{"type":"Feature","id":4287,"geometry":{"type":"Point","coordinates":[75.015798790417989,27.020658659638535]},"properties":{"OBJECTID":4287,"stname":"RAJASTHAN","dtname":"Nagaur","STCODE11":"08","DTCODE11":"112","SDTCODE11":"00566","NAME11":"Nawa","LOC_NAME":"Nawa"}},{"type":"Feature","id":4288,"geometry":{"type":"Point","coordinates":[75.591873285037195,27.475476921313863]},"properties":{"OBJECTID":4288,"stname":"RAJASTHAN","dtname":"Sikar","STCODE11":"08","DTCODE11":"111","SDTCODE11":"00555","NAME11":"Sri Madhopur","LOC_NAME":"Sri Madhopur"}},{"type":"Feature","id":4289,"geometry":{"type":"Point","coordinates":[75.872676403855337,28.21520353414822]},"properties":{"OBJECTID":4289,"stname":"RAJASTHAN","dtname":"Jhunjhunun","STCODE11":"08","DTCODE11":"103","SDTCODE11":"00489","NAME11":"Buhana","LOC_NAME":"Buhana"}},{"type":"Feature","id":4290,"geometry":{"type":"Point","coordinates":[75.040126143882361,28.672264146172356]},"properties":{"OBJECTID":4290,"stname":"RAJASTHAN","dtname":"Churu","STCODE11":"08","DTCODE11":"102","SDTCODE11":"00481","NAME11":"Taranagar","LOC_NAME":"Taranagar"}},{"type":"Feature","id":4291,"geometry":{"type":"Point","coordinates":[75.166657827594051,29.10518173011312]},"properties":{"OBJECTID":4291,"stname":"RAJASTHAN","dtname":"Hanumangarh","STCODE11":"08","DTCODE11":"100","SDTCODE11":"00472","NAME11":"Bhadra","LOC_NAME":"Bhadra"}},{"type":"Feature","id":4292,"geometry":{"type":"Point","coordinates":[74.392774490668046,29.266142185826627]},"properties":{"OBJECTID":4292,"stname":"RAJASTHAN","dtname":"Hanumangarh","STCODE11":"08","DTCODE11":"100","SDTCODE11":"00470","NAME11":"Rawatsar","LOC_NAME":"Rawatsar"}},{"type":"Feature","id":4293,"geometry":{"type":"Point","coordinates":[74.091853201311736,29.450824171875432]},"properties":{"OBJECTID":4293,"stname":"RAJASTHAN","dtname":"Hanumangarh","STCODE11":"08","DTCODE11":"100","SDTCODE11":"00469","NAME11":"Pilibanga","LOC_NAME":"Pilibanga"}},{"type":"Feature","id":4294,"geometry":{"type":"Point","coordinates":[74.51594054992951,29.558407759388679]},"properties":{"OBJECTID":4294,"stname":"RAJASTHAN","dtname":"Hanumangarh","STCODE11":"08","DTCODE11":"100","SDTCODE11":"00467","NAME11":"Tibi","LOC_NAME":"Tibi"}},{"type":"Feature","id":4295,"geometry":{"type":"Point","coordinates":[73.408220711999292,26.975428369944311]},"properties":{"OBJECTID":4295,"stname":"RAJASTHAN","dtname":"Nagaur","STCODE11":"08","DTCODE11":"112","SDTCODE11":"00561","NAME11":"Kheenvsar","LOC_NAME":"Kheenvsar"}},{"type":"Feature","id":4296,"geometry":{"type":"Point","coordinates":[72.911393460941298,26.725236659807031]},"properties":{"OBJECTID":4296,"stname":"RAJASTHAN","dtname":"Jodhpur","STCODE11":"08","DTCODE11":"113","SDTCODE11":"00568","NAME11":"Osian","LOC_NAME":"Osian"}},{"type":"Feature","id":4297,"geometry":{"type":"Point","coordinates":[75.362646237570829,26.675039845167113]},"properties":{"OBJECTID":4297,"stname":"RAJASTHAN","dtname":"Jaipur","STCODE11":"08","DTCODE11":"110","SDTCODE11":"00543","NAME11":"Mauzamabad)","LOC_NAME":"Mauzamabad)"}},{"type":"Feature","id":4298,"geometry":{"type":"Point","coordinates":[75.202580205351097,26.918310912910908]},"properties":{"OBJECTID":4298,"stname":"RAJASTHAN","dtname":"Jaipur","STCODE11":"08","DTCODE11":"110","SDTCODE11":"00542","NAME11":"Phulera (Hq.Sambhar)","LOC_NAME":"Phulera (Hq.Sambhar)"}},{"type":"Feature","id":4299,"geometry":{"type":"Point","coordinates":[75.778507508316054,26.818505764150682]},"properties":{"OBJECTID":4299,"stname":"RAJASTHAN","dtname":"Jaipur","STCODE11":"08","DTCODE11":"110","SDTCODE11":"00545","NAME11":"Sanganer","LOC_NAME":"Sanganer"}},{"type":"Feature","id":4300,"geometry":{"type":"Point","coordinates":[75.276229071704861,27.85617082349879]},"properties":{"OBJECTID":4300,"stname":"RAJASTHAN","dtname":"Jhunjhunun","STCODE11":"08","DTCODE11":"103","SDTCODE11":"00491","NAME11":"Nawalgarh","LOC_NAME":"Nawalgarh"}},{"type":"Feature","id":4301,"geometry":{"type":"Point","coordinates":[74.965195774181964,27.819759349254294]},"properties":{"OBJECTID":4301,"stname":"RAJASTHAN","dtname":"Sikar","STCODE11":"08","DTCODE11":"111","SDTCODE11":"00552","NAME11":"Lachhmangarh","LOC_NAME":"Lachhmangarh"}},{"type":"Feature","id":4302,"geometry":{"type":"Point","coordinates":[75.723022212291198,27.170086198376424]},"properties":{"OBJECTID":4302,"stname":"RAJASTHAN","dtname":"Jaipur","STCODE11":"08","DTCODE11":"110","SDTCODE11":"00541","NAME11":"Chomu","LOC_NAME":"Chomu"}},{"type":"Feature","id":4303,"geometry":{"type":"Point","coordinates":[74.485920323676382,28.437246550086282]},"properties":{"OBJECTID":4303,"stname":"RAJASTHAN","dtname":"Churu","STCODE11":"08","DTCODE11":"102","SDTCODE11":"00483","NAME11":"Sardarshahar","LOC_NAME":"Sardarshahar"}},{"type":"Feature","id":4304,"geometry":{"type":"Point","coordinates":[74.012032035793666,28.102229676454648]},"properties":{"OBJECTID":4304,"stname":"RAJASTHAN","dtname":"Bikaner","STCODE11":"08","DTCODE11":"101","SDTCODE11":"00480","NAME11":"Sridungargarh","LOC_NAME":"Sridungargarh"}},{"type":"Feature","id":4305,"geometry":{"type":"Point","coordinates":[74.390307272231809,27.642714389705226]},"properties":{"OBJECTID":4305,"stname":"RAJASTHAN","dtname":"Nagaur","STCODE11":"08","DTCODE11":"112","SDTCODE11":"00557","NAME11":"Ladnu","LOC_NAME":"Ladnu"}},{"type":"Feature","id":4306,"geometry":{"type":"Point","coordinates":[74.474023487906081,27.705774956357477]},"properties":{"OBJECTID":4306,"stname":"RAJASTHAN","dtname":"Churu","STCODE11":"08","DTCODE11":"102","SDTCODE11":"00486","NAME11":"Sujangarh","LOC_NAME":"Sujangarh"}},{"type":"Feature","id":4307,"geometry":{"type":"Point","coordinates":[74.187732140605704,27.220702710349141]},"properties":{"OBJECTID":4307,"stname":"RAJASTHAN","dtname":"Nagaur","STCODE11":"08","DTCODE11":"112","SDTCODE11":"00559","NAME11":"Jayal","LOC_NAME":"Jayal"}},{"type":"Feature","id":4308,"geometry":{"type":"Point","coordinates":[73.125588572957014,28.676924245869952]},"properties":{"OBJECTID":4308,"stname":"RAJASTHAN","dtname":"Bikaner","STCODE11":"08","DTCODE11":"101","SDTCODE11":"00479","NAME11":"Chhatargarh","LOC_NAME":"Chhatargarh"}},{"type":"Feature","id":4309,"geometry":{"type":"Point","coordinates":[73.228099343700606,29.190951157661722]},"properties":{"OBJECTID":4309,"stname":"RAJASTHAN","dtname":"Ganganagar","STCODE11":"08","DTCODE11":"099","SDTCODE11":"00462","NAME11":"Anupgarh","LOC_NAME":"Anupgarh"}},{"type":"Feature","id":4310,"geometry":{"type":"Point","coordinates":[73.615068724291788,29.682937502145712]},"properties":{"OBJECTID":4310,"stname":"RAJASTHAN","dtname":"Ganganagar","STCODE11":"08","DTCODE11":"099","SDTCODE11":"00460","NAME11":"Padampur","LOC_NAME":"Padampur"}},{"type":"Feature","id":4311,"geometry":{"type":"Point","coordinates":[72.94098293513423,27.850542177409103]},"properties":{"OBJECTID":4311,"stname":"RAJASTHAN","dtname":"Bikaner","STCODE11":"08","DTCODE11":"101","SDTCODE11":"00476","NAME11":"Kolayat","LOC_NAME":"Kolayat"}},{"type":"Feature","id":4312,"geometry":{"type":"Point","coordinates":[72.297704403318249,26.328986210822151]},"properties":{"OBJECTID":4312,"stname":"RAJASTHAN","dtname":"Jodhpur","STCODE11":"08","DTCODE11":"113","SDTCODE11":"00571","NAME11":"Shergarh","LOC_NAME":"Shergarh"}},{"type":"Feature","id":4313,"geometry":{"type":"Point","coordinates":[73.466268700307126,27.555770937977552]},"properties":{"OBJECTID":4313,"stname":"RAJASTHAN","dtname":"Bikaner","STCODE11":"08","DTCODE11":"101","SDTCODE11":"00477","NAME11":"Nokha","LOC_NAME":"Nokha"}},{"type":"Feature","id":4314,"geometry":{"type":"Point","coordinates":[72.806964337908482,28.515286345977106]},"properties":{"OBJECTID":4314,"stname":"RAJASTHAN","dtname":"Bikaner","STCODE11":"08","DTCODE11":"101","SDTCODE11":"00474","NAME11":"Poogal","LOC_NAME":"Poogal"}},{"type":"Feature","id":4315,"geometry":{"type":"Point","coordinates":[77.574168379341856,26.999954497742859]},"properties":{"OBJECTID":4315,"stname":"RAJASTHAN","dtname":"Bharatpur","STCODE11":"08","DTCODE11":"105","SDTCODE11":"00514","NAME11":"Rupbas","LOC_NAME":"Rupbas"}},{"type":"Feature","id":4316,"geometry":{"type":"Point","coordinates":[77.53149197051043,26.752517909221115]},"properties":{"OBJECTID":4316,"stname":"RAJASTHAN","dtname":"Dhaulpur","STCODE11":"08","DTCODE11":"106","SDTCODE11":"00515","NAME11":"Baseri","LOC_NAME":"Baseri"}},{"type":"Feature","id":4317,"geometry":{"type":"Point","coordinates":[77.603854889551812,26.652487639108262]},"properties":{"OBJECTID":4317,"stname":"RAJASTHAN","dtname":"Dhaulpur","STCODE11":"08","DTCODE11":"106","SDTCODE11":"00516","NAME11":"Bari","LOC_NAME":"Bari"}},{"type":"Feature","id":4318,"geometry":{"type":"Point","coordinates":[77.230551528173933,26.308488461443073]},"properties":{"OBJECTID":4318,"stname":"RAJASTHAN","dtname":"Karauli","STCODE11":"08","DTCODE11":"107","SDTCODE11":"00524","NAME11":"Mandrail","LOC_NAME":"Mandrail"}},{"type":"Feature","id":4319,"geometry":{"type":"Point","coordinates":[76.749225522115367,26.298293232680589]},"properties":{"OBJECTID":4319,"stname":"RAJASTHAN","dtname":"Karauli","STCODE11":"08","DTCODE11":"107","SDTCODE11":"00525","NAME11":"Sapotra","LOC_NAME":"Sapotra"}},{"type":"Feature","id":4320,"geometry":{"type":"Point","coordinates":[76.02614404800515,25.925511796148282]},"properties":{"OBJECTID":4320,"stname":"RAJASTHAN","dtname":"Tonk","STCODE11":"08","DTCODE11":"120","SDTCODE11":"00621","NAME11":"Uniara","LOC_NAME":"Uniara"}},{"type":"Feature","id":4321,"geometry":{"type":"Point","coordinates":[76.321474169134206,26.571699494312512]},"properties":{"OBJECTID":4321,"stname":"RAJASTHAN","dtname":"Dausa","STCODE11":"08","DTCODE11":"109","SDTCODE11":"00537","NAME11":"Lalsot","LOC_NAME":"Lalsot"}},{"type":"Feature","id":4322,"geometry":{"type":"Point","coordinates":[76.048157940473914,26.832977712673962]},"properties":{"OBJECTID":4322,"stname":"RAJASTHAN","dtname":"Jaipur","STCODE11":"08","DTCODE11":"110","SDTCODE11":"00549","NAME11":"Bassi","LOC_NAME":"Bassi"}},{"type":"Feature","id":4323,"geometry":{"type":"Point","coordinates":[76.805077692797212,26.922024448499204]},"properties":{"OBJECTID":4323,"stname":"RAJASTHAN","dtname":"Karauli","STCODE11":"08","DTCODE11":"107","SDTCODE11":"00520","NAME11":"Todabhim","LOC_NAME":"Todabhim"}},{"type":"Feature","id":4324,"geometry":{"type":"Point","coordinates":[76.808971762891417,27.595731940098254]},"properties":{"OBJECTID":4324,"stname":"RAJASTHAN","dtname":"Alwar","STCODE11":"08","DTCODE11":"104","SDTCODE11":"00498","NAME11":"Ramgarh","LOC_NAME":"Ramgarh"}},{"type":"Feature","id":4325,"geometry":{"type":"Point","coordinates":[77.09097675928777,27.717200024305203]},"properties":{"OBJECTID":4325,"stname":"RAJASTHAN","dtname":"Bharatpur","STCODE11":"08","DTCODE11":"105","SDTCODE11":"00505","NAME11":"Pahari","LOC_NAME":"Pahari"}},{"type":"Feature","id":4326,"geometry":{"type":"Point","coordinates":[76.547830755213042,27.874103020131777]},"properties":{"OBJECTID":4326,"stname":"RAJASTHAN","dtname":"Alwar","STCODE11":"08","DTCODE11":"104","SDTCODE11":"00494","NAME11":"Mandawar","LOC_NAME":"Mandawar"}},{"type":"Feature","id":4327,"geometry":{"type":"Point","coordinates":[76.349798175806612,27.693198170020693]},"properties":{"OBJECTID":4327,"stname":"RAJASTHAN","dtname":"Alwar","STCODE11":"08","DTCODE11":"104","SDTCODE11":"00500","NAME11":"Bansur","LOC_NAME":"Bansur"}},{"type":"Feature","id":4328,"geometry":{"type":"Point","coordinates":[76.198044024043824,27.704756662164293]},"properties":{"OBJECTID":4328,"stname":"RAJASTHAN","dtname":"Jaipur","STCODE11":"08","DTCODE11":"110","SDTCODE11":"00538","NAME11":"Kotputli","LOC_NAME":"Kotputli"}},{"type":"Feature","id":4329,"geometry":{"type":"Point","coordinates":[76.801783472733959,24.238690864124575]},"properties":{"OBJECTID":4329,"stname":"RAJASTHAN","dtname":"Jhalawar","STCODE11":"08","DTCODE11":"129","SDTCODE11":"00681","NAME11":"Manohar Thana","LOC_NAME":"Manohar Thana"}},{"type":"Feature","id":4330,"geometry":{"type":"Point","coordinates":[76.384996558157098,24.735446858085648]},"properties":{"OBJECTID":4330,"stname":"RAJASTHAN","dtname":"Jhalawar","STCODE11":"08","DTCODE11":"129","SDTCODE11":"00678","NAME11":"Khanpur","LOC_NAME":"Khanpur"}},{"type":"Feature","id":4331,"geometry":{"type":"Point","coordinates":[76.284778063439774,24.930510135512552]},"properties":{"OBJECTID":4331,"stname":"RAJASTHAN","dtname":"Kota","STCODE11":"08","DTCODE11":"127","SDTCODE11":"00669","NAME11":"Sangod","LOC_NAME":"Sangod"}},{"type":"Feature","id":4332,"geometry":{"type":"Point","coordinates":[77.266217261745922,27.661443726645274]},"properties":{"OBJECTID":4332,"stname":"RAJASTHAN","dtname":"Bharatpur","STCODE11":"08","DTCODE11":"105","SDTCODE11":"00506","NAME11":"Kaman","LOC_NAME":"Kaman"}},{"type":"Feature","id":4333,"geometry":{"type":"Point","coordinates":[77.373913632027239,27.32193431921943]},"properties":{"OBJECTID":4333,"stname":"RAJASTHAN","dtname":"Bharatpur","STCODE11":"08","DTCODE11":"105","SDTCODE11":"00510","NAME11":"Kumher","LOC_NAME":"Kumher"}},{"type":"Feature","id":4334,"geometry":{"type":"Point","coordinates":[77.099317384935475,27.421534881714994]},"properties":{"OBJECTID":4334,"stname":"RAJASTHAN","dtname":"Bharatpur","STCODE11":"08","DTCODE11":"105","SDTCODE11":"00507","NAME11":"Nagar","LOC_NAME":"Nagar"}},{"type":"Feature","id":4335,"geometry":{"type":"Point","coordinates":[77.077038346625741,27.318007843504972]},"properties":{"OBJECTID":4335,"stname":"RAJASTHAN","dtname":"Alwar","STCODE11":"08","DTCODE11":"104","SDTCODE11":"00504","NAME11":"Kathumar","LOC_NAME":"Kathumar"}},{"type":"Feature","id":4336,"geometry":{"type":"Point","coordinates":[77.191926385628292,27.228453300029585]},"properties":{"OBJECTID":4336,"stname":"RAJASTHAN","dtname":"Bharatpur","STCODE11":"08","DTCODE11":"105","SDTCODE11":"00509","NAME11":"Nadbai","LOC_NAME":"Nadbai"}},{"type":"Feature","id":4337,"geometry":{"type":"Point","coordinates":[77.175666235791979,27.018212402129528]},"properties":{"OBJECTID":4337,"stname":"RAJASTHAN","dtname":"Bharatpur","STCODE11":"08","DTCODE11":"105","SDTCODE11":"00512","NAME11":"Weir","LOC_NAME":"Weir"}},{"type":"Feature","id":4338,"geometry":{"type":"Point","coordinates":[76.925261780998312,27.049644208344588]},"properties":{"OBJECTID":4338,"stname":"RAJASTHAN","dtname":"Dausa","STCODE11":"08","DTCODE11":"109","SDTCODE11":"00534","NAME11":"Mahwa","LOC_NAME":"Mahwa"}},{"type":"Feature","id":4339,"geometry":{"type":"Point","coordinates":[76.679964343816266,26.920992636304501]},"properties":{"OBJECTID":4339,"stname":"RAJASTHAN","dtname":"Dausa","STCODE11":"08","DTCODE11":"109","SDTCODE11":"00535","NAME11":"Sikrai","LOC_NAME":"Sikrai"}},{"type":"Feature","id":4340,"geometry":{"type":"Point","coordinates":[76.622643707919252,27.246228299795845]},"properties":{"OBJECTID":4340,"stname":"RAJASTHAN","dtname":"Alwar","STCODE11":"08","DTCODE11":"104","SDTCODE11":"00502","NAME11":"Rajgarh","LOC_NAME":"Rajgarh"}},{"type":"Feature","id":4341,"geometry":{"type":"Point","coordinates":[76.590885999769441,27.158125897498035]},"properties":{"OBJECTID":4341,"stname":"RAJASTHAN","dtname":"Dausa","STCODE11":"08","DTCODE11":"109","SDTCODE11":"00533","NAME11":"Baswa","LOC_NAME":"Baswa"}},{"type":"Feature","id":4342,"geometry":{"type":"Point","coordinates":[76.178181562544538,27.441685092203205]},"properties":{"OBJECTID":4342,"stname":"RAJASTHAN","dtname":"Jaipur","STCODE11":"08","DTCODE11":"110","SDTCODE11":"00539","NAME11":"Viratnagar","LOC_NAME":"Viratnagar"}},{"type":"Feature","id":4343,"geometry":{"type":"Point","coordinates":[76.853762536407075,27.372147409108191]},"properties":{"OBJECTID":4343,"stname":"RAJASTHAN","dtname":"Alwar","STCODE11":"08","DTCODE11":"104","SDTCODE11":"00503","NAME11":"Lachhmangarh","LOC_NAME":"Lachhmangarh"}},{"type":"Feature","id":4344,"geometry":{"type":"Point","coordinates":[76.659532704363087,24.87654756536773]},"properties":{"OBJECTID":4344,"stname":"RAJASTHAN","dtname":"Baran","STCODE11":"08","DTCODE11":"128","SDTCODE11":"00673","NAME11":"Atru","LOC_NAME":"Atru"}},{"type":"Feature","id":4345,"geometry":{"type":"Point","coordinates":[76.29576443511003,25.158865840327827]},"properties":{"OBJECTID":4345,"stname":"RAJASTHAN","dtname":"Baran","STCODE11":"08","DTCODE11":"128","SDTCODE11":"00671","NAME11":"Antah","LOC_NAME":"Antah"}},{"type":"Feature","id":4346,"geometry":{"type":"Point","coordinates":[76.708008929519551,24.62768130024104]},"properties":{"OBJECTID":4346,"stname":"RAJASTHAN","dtname":"Baran","STCODE11":"08","DTCODE11":"128","SDTCODE11":"00677","NAME11":"Chhipabarod","LOC_NAME":"Chhipabarod"}},{"type":"Feature","id":4347,"geometry":{"type":"Point","coordinates":[76.516385058012517,25.34233265453118]},"properties":{"OBJECTID":4347,"stname":"RAJASTHAN","dtname":"Baran","STCODE11":"08","DTCODE11":"128","SDTCODE11":"00670","NAME11":"Mangrol","LOC_NAME":"Mangrol"}},{"type":"Feature","id":4348,"geometry":{"type":"Point","coordinates":[77.154348409209319,25.258609073362791]},"properties":{"OBJECTID":4348,"stname":"RAJASTHAN","dtname":"Baran","STCODE11":"08","DTCODE11":"128","SDTCODE11":"00675","NAME11":"Shahbad","LOC_NAME":"Shahbad"}},{"type":"Feature","id":4349,"geometry":{"type":"Point","coordinates":[72.220536756046556,24.744794301011474]},"properties":{"OBJECTID":4349,"stname":"RAJASTHAN","dtname":"Jalor","STCODE11":"08","DTCODE11":"116","SDTCODE11":"00591","NAME11":"Raniwara","LOC_NAME":"Raniwara"}},{"type":"Feature","id":4350,"geometry":{"type":"Point","coordinates":[72.781276079009487,24.497730500960028]},"properties":{"OBJECTID":4350,"stname":"RAJASTHAN","dtname":"Sirohi","STCODE11":"08","DTCODE11":"117","SDTCODE11":"00595","NAME11":"Abu Road","LOC_NAME":"Abu Road"}},{"type":"Feature","id":4351,"geometry":{"type":"Point","coordinates":[76.457894144574084,25.559561499555979]},"properties":{"OBJECTID":4351,"stname":"RAJASTHAN","dtname":"Kota","STCODE11":"08","DTCODE11":"127","SDTCODE11":"00665","NAME11":"Pipalda","LOC_NAME":"Pipalda"}},{"type":"Feature","id":4352,"geometry":{"type":"Point","coordinates":[78.176780646268043,26.913507490950121]},"properties":{"OBJECTID":4352,"stname":"RAJASTHAN","dtname":"Dhaulpur","STCODE11":"08","DTCODE11":"106","SDTCODE11":"00519","NAME11":"Rajakhera","LOC_NAME":"Rajakhera"}},{"type":"Feature","id":4353,"geometry":{"type":"Point","coordinates":[76.717329540785457,28.039792340221112]},"properties":{"OBJECTID":4353,"stname":"RAJASTHAN","dtname":"Alwar","STCODE11":"08","DTCODE11":"104","SDTCODE11":"00495","NAME11":"Kotkasim","LOC_NAME":"Kotkasim"}},{"type":"Feature","id":4354,"geometry":{"type":"Point","coordinates":[76.846869394024438,27.942510683787255]},"properties":{"OBJECTID":4354,"stname":"RAJASTHAN","dtname":"Alwar","STCODE11":"08","DTCODE11":"104","SDTCODE11":"00496","NAME11":"Tijara","LOC_NAME":"Tijara"}},{"type":"Feature","id":4355,"geometry":{"type":"Point","coordinates":[74.723028541760243,27.035198442224644]},"properties":{"OBJECTID":4355,"stname":"RAJASTHAN","dtname":"Nagaur","STCODE11":"08","DTCODE11":"112","SDTCODE11":"00565","NAME11":"Makrana","LOC_NAME":"Makrana"}},{"type":"Feature","id":4356,"geometry":{"type":"Point","coordinates":[73.494524374830817,26.656088320415005]},"properties":{"OBJECTID":4356,"stname":"RAJASTHAN","dtname":"Jodhpur","STCODE11":"08","DTCODE11":"113","SDTCODE11":"00569","NAME11":"Bhopalgarh","LOC_NAME":"Bhopalgarh"}},{"type":"Feature","id":4357,"geometry":{"type":"Point","coordinates":[74.666403113858266,25.512101456042689]},"properties":{"OBJECTID":4357,"stname":"RAJASTHAN","dtname":"Bhilwara","STCODE11":"08","DTCODE11":"122","SDTCODE11":"00630","NAME11":"Banera","LOC_NAME":"Banera"}},{"type":"Feature","id":4358,"geometry":{"type":"Point","coordinates":[75.63663064751249,28.242503997718423]},"properties":{"OBJECTID":4358,"stname":"RAJASTHAN","dtname":"Jhunjhunun","STCODE11":"08","DTCODE11":"103","SDTCODE11":"00488","NAME11":"Chirawa","LOC_NAME":"Chirawa"}},{"type":"Feature","id":4359,"geometry":{"type":"Point","coordinates":[75.936849157872572,26.612234076691802]},"properties":{"OBJECTID":4359,"stname":"RAJASTHAN","dtname":"Jaipur","STCODE11":"08","DTCODE11":"110","SDTCODE11":"00550","NAME11":"Chaksu","LOC_NAME":"Chaksu"}},{"type":"Feature","id":4360,"geometry":{"type":"Point","coordinates":[75.930568551529348,25.304111900312794]},"properties":{"OBJECTID":4360,"stname":"RAJASTHAN","dtname":"Bundi","STCODE11":"08","DTCODE11":"121","SDTCODE11":"00625","NAME11":"Keshoraipatan","LOC_NAME":"Keshoraipatan"}},{"type":"Feature","id":4361,"geometry":{"type":"Point","coordinates":[75.937391223772892,24.651630568270406]},"properties":{"OBJECTID":4361,"stname":"RAJASTHAN","dtname":"Kota","STCODE11":"08","DTCODE11":"127","SDTCODE11":"00668","NAME11":"Ramganj Mandi","LOC_NAME":"Ramganj Mandi"}},{"type":"Feature","id":4362,"geometry":{"type":"Point","coordinates":[76.166949767545404,24.547083036721453]},"properties":{"OBJECTID":4362,"stname":"RAJASTHAN","dtname":"Jhalawar","STCODE11":"08","DTCODE11":"129","SDTCODE11":"00679","NAME11":"Jhalrapatan","LOC_NAME":"Jhalrapatan"}},{"type":"Feature","id":4363,"geometry":{"type":"Point","coordinates":[70.914205969194043,26.911550226054885]},"properties":{"OBJECTID":4363,"stname":"RAJASTHAN","dtname":"Jaisalmer","STCODE11":"08","DTCODE11":"114","SDTCODE11":"00574","NAME11":"Jaisalmer","LOC_NAME":"Jaisalmer"}},{"type":"Feature","id":4364,"geometry":{"type":"Point","coordinates":[71.392623913980543,25.744141111370713]},"properties":{"OBJECTID":4364,"stname":"RAJASTHAN","dtname":"Barmer","STCODE11":"08","DTCODE11":"115","SDTCODE11":"00582","NAME11":"Barmer","LOC_NAME":"Barmer"}},{"type":"Feature","id":4365,"geometry":{"type":"Point","coordinates":[73.866411050784805,29.928203098229396]},"properties":{"OBJECTID":4365,"stname":"RAJASTHAN","dtname":"Ganganagar","STCODE11":"08","DTCODE11":"099","SDTCODE11":"00458","NAME11":"Ganganagar","LOC_NAME":"Ganganagar"}},{"type":"Feature","id":4366,"geometry":{"type":"Point","coordinates":[73.316497482515942,28.01657005774722]},"properties":{"OBJECTID":4366,"stname":"RAJASTHAN","dtname":"Bikaner","STCODE11":"08","DTCODE11":"101","SDTCODE11":"00473","NAME11":"Bikaner","LOC_NAME":"Bikaner"}},{"type":"Feature","id":4367,"geometry":{"type":"Point","coordinates":[74.965684909549125,28.300114177273265]},"properties":{"OBJECTID":4367,"stname":"RAJASTHAN","dtname":"Churu","STCODE11":"08","DTCODE11":"102","SDTCODE11":"00484","NAME11":"Churu","LOC_NAME":"Churu"}},{"type":"Feature","id":4368,"geometry":{"type":"Point","coordinates":[75.3991382873552,28.129561752779431]},"properties":{"OBJECTID":4368,"stname":"RAJASTHAN","dtname":"Jhunjhunun","STCODE11":"08","DTCODE11":"103","SDTCODE11":"00487","NAME11":"Jhunjhunun","LOC_NAME":"Jhunjhunun"}},{"type":"Feature","id":4369,"geometry":{"type":"Point","coordinates":[72.62002466767008,25.34314332973636]},"properties":{"OBJECTID":4369,"stname":"RAJASTHAN","dtname":"Jalor","STCODE11":"08","DTCODE11":"116","SDTCODE11":"00587","NAME11":"Jalor","LOC_NAME":"Jalor"}},{"type":"Feature","id":4370,"geometry":{"type":"Point","coordinates":[72.857158461688442,24.891643983137019]},"properties":{"OBJECTID":4370,"stname":"RAJASTHAN","dtname":"Sirohi","STCODE11":"08","DTCODE11":"117","SDTCODE11":"00593","NAME11":"Sirohi","LOC_NAME":"Sirohi"}},{"type":"Feature","id":4371,"geometry":{"type":"Point","coordinates":[73.73622562326689,27.200401466512396]},"properties":{"OBJECTID":4371,"stname":"RAJASTHAN","dtname":"Nagaur","STCODE11":"08","DTCODE11":"112","SDTCODE11":"00560","NAME11":"Nagaur","LOC_NAME":"Nagaur"}},{"type":"Feature","id":4372,"geometry":{"type":"Point","coordinates":[73.022129390580886,26.27978266365432]},"properties":{"OBJECTID":4372,"stname":"RAJASTHAN","dtname":"Jodhpur","STCODE11":"08","DTCODE11":"113","SDTCODE11":"00570","NAME11":"Jodhpur","LOC_NAME":"Jodhpur"}},{"type":"Feature","id":4373,"geometry":{"type":"Point","coordinates":[73.321532659159374,25.777246187699021]},"properties":{"OBJECTID":4373,"stname":"RAJASTHAN","dtname":"Pali","STCODE11":"08","DTCODE11":"118","SDTCODE11":"00601","NAME11":"Pali","LOC_NAME":"Pali"}},{"type":"Feature","id":4374,"geometry":{"type":"Point","coordinates":[74.640898029530575,26.460752040790947]},"properties":{"OBJECTID":4374,"stname":"RAJASTHAN","dtname":"Ajmer","STCODE11":"08","DTCODE11":"119","SDTCODE11":"00607","NAME11":"Ajmer","LOC_NAME":"Ajmer"}},{"type":"Feature","id":4375,"geometry":{"type":"Point","coordinates":[74.897952706084382,25.415442782653773]},"properties":{"OBJECTID":4375,"stname":"RAJASTHAN","dtname":"Bhilwara","STCODE11":"08","DTCODE11":"122","SDTCODE11":"00635","NAME11":"Kotri","LOC_NAME":"Kotri"}},{"type":"Feature","id":4376,"geometry":{"type":"Point","coordinates":[74.618601932213608,24.876731706039301]},"properties":{"OBJECTID":4376,"stname":"RAJASTHAN","dtname":"Chittaurgarh","STCODE11":"08","DTCODE11":"126","SDTCODE11":"00659","NAME11":"Chittaurgarh","LOC_NAME":"Chittaurgarh"}},{"type":"Feature","id":4377,"geometry":{"type":"Point","coordinates":[75.146114769197851,27.610710141872911]},"properties":{"OBJECTID":4377,"stname":"RAJASTHAN","dtname":"Sikar","STCODE11":"08","DTCODE11":"111","SDTCODE11":"00553","NAME11":"Sikar","LOC_NAME":"Sikar"}},{"type":"Feature","id":4378,"geometry":{"type":"Point","coordinates":[75.805257970241243,26.914751881521351]},"properties":{"OBJECTID":4378,"stname":"RAJASTHAN","dtname":"Jaipur","STCODE11":"08","DTCODE11":"110","SDTCODE11":"00546","NAME11":"Jaipur","LOC_NAME":"Jaipur"}},{"type":"Feature","id":4379,"geometry":{"type":"Point","coordinates":[75.78709486703633,26.171578908520083]},"properties":{"OBJECTID":4379,"stname":"RAJASTHAN","dtname":"Tonk","STCODE11":"08","DTCODE11":"120","SDTCODE11":"00618","NAME11":"Tonk","LOC_NAME":"Tonk"}},{"type":"Feature","id":4380,"geometry":{"type":"Point","coordinates":[75.642445202496404,25.443257582692706]},"properties":{"OBJECTID":4380,"stname":"RAJASTHAN","dtname":"Bundi","STCODE11":"08","DTCODE11":"121","SDTCODE11":"00626","NAME11":"Bundi","LOC_NAME":"Bundi"}},{"type":"Feature","id":4381,"geometry":{"type":"Point","coordinates":[73.715985435462002,23.837466467629763]},"properties":{"OBJECTID":4381,"stname":"RAJASTHAN","dtname":"Dungarpur","STCODE11":"08","DTCODE11":"124","SDTCODE11":"00646","NAME11":"Dungarpur","LOC_NAME":"Dungarpur"}},{"type":"Feature","id":4382,"geometry":{"type":"Point","coordinates":[73.903806755439334,25.531995549600804]},"properties":{"OBJECTID":4382,"stname":"RAJASTHAN","dtname":"Rajsamand","STCODE11":"08","DTCODE11":"123","SDTCODE11":"00640","NAME11":"Deogarh","LOC_NAME":"Deogarh"}},{"type":"Feature","id":4383,"geometry":{"type":"Point","coordinates":[73.920740115325984,25.310558513111808]},"properties":{"OBJECTID":4383,"stname":"RAJASTHAN","dtname":"Rajsamand","STCODE11":"08","DTCODE11":"123","SDTCODE11":"00641","NAME11":"Amet","LOC_NAME":"Amet"}},{"type":"Feature","id":4384,"geometry":{"type":"Point","coordinates":[76.600709844562545,26.020007625105212]},"properties":{"OBJECTID":4384,"stname":"RAJASTHAN","dtname":"Sawai Madhopur","STCODE11":"08","DTCODE11":"108","SDTCODE11":"00532","NAME11":"Khandar","LOC_NAME":"Khandar"}},{"type":"Feature","id":4385,"geometry":{"type":"Point","coordinates":[76.157362529116668,26.073298047172173]},"properties":{"OBJECTID":4385,"stname":"RAJASTHAN","dtname":"Sawai Madhopur","STCODE11":"08","DTCODE11":"108","SDTCODE11":"00530","NAME11":"Chauth Ka Barwara","LOC_NAME":"Chauth Ka Barwara"}},{"type":"Feature","id":4386,"geometry":{"type":"Point","coordinates":[76.468351231573877,26.293575237495066]},"properties":{"OBJECTID":4386,"stname":"RAJASTHAN","dtname":"Sawai Madhopur","STCODE11":"08","DTCODE11":"108","SDTCODE11":"00528","NAME11":"Malarna Doongar","LOC_NAME":"Malarna Doongar"}},{"type":"Feature","id":4387,"geometry":{"type":"Point","coordinates":[74.447326676962874,23.546082487945256]},"properties":{"OBJECTID":4387,"stname":"RAJASTHAN","dtname":"Banswara","STCODE11":"08","DTCODE11":"125","SDTCODE11":"00652","NAME11":"Banswara","LOC_NAME":"Banswara"}},{"type":"Feature","id":4388,"geometry":{"type":"Point","coordinates":[76.60948177653097,27.566705382776895]},"properties":{"OBJECTID":4388,"stname":"RAJASTHAN","dtname":"Alwar","STCODE11":"08","DTCODE11":"104","SDTCODE11":"00499","NAME11":"Alwar","LOC_NAME":"Alwar"}},{"type":"Feature","id":4389,"geometry":{"type":"Point","coordinates":[77.499567646434969,27.214089124081219]},"properties":{"OBJECTID":4389,"stname":"RAJASTHAN","dtname":"Bharatpur","STCODE11":"08","DTCODE11":"105","SDTCODE11":"00511","NAME11":"Bharatpur","LOC_NAME":"Bharatpur"}},{"type":"Feature","id":4390,"geometry":{"type":"Point","coordinates":[77.89327623500003,26.694164830057581]},"properties":{"OBJECTID":4390,"stname":"RAJASTHAN","dtname":"Dhaulpur","STCODE11":"08","DTCODE11":"106","SDTCODE11":"00518","NAME11":"Dhaulpur","LOC_NAME":"Dhaulpur"}},{"type":"Feature","id":4391,"geometry":{"type":"Point","coordinates":[74.319582295465437,29.577260080601679]},"properties":{"OBJECTID":4391,"stname":"RAJASTHAN","dtname":"Hanumangarh","STCODE11":"08","DTCODE11":"100","SDTCODE11":"00468","NAME11":"Hanumangarh","LOC_NAME":"Hanumangarh"}},{"type":"Feature","id":4392,"geometry":{"type":"Point","coordinates":[76.333361283336458,26.89958195881648]},"properties":{"OBJECTID":4392,"stname":"RAJASTHAN","dtname":"Dausa","STCODE11":"08","DTCODE11":"109","SDTCODE11":"00536","NAME11":"Dausa","LOC_NAME":"Dausa"}},{"type":"Feature","id":4393,"geometry":{"type":"Point","coordinates":[77.028559421133536,26.495818103013431]},"properties":{"OBJECTID":4393,"stname":"RAJASTHAN","dtname":"Karauli","STCODE11":"08","DTCODE11":"107","SDTCODE11":"00523","NAME11":"Karauli","LOC_NAME":"Karauli"}},{"type":"Feature","id":4394,"geometry":{"type":"Point","coordinates":[76.512582860419059,25.113724112410058]},"properties":{"OBJECTID":4394,"stname":"RAJASTHAN","dtname":"Baran","STCODE11":"08","DTCODE11":"128","SDTCODE11":"00672","NAME11":"Baran","LOC_NAME":"Baran"}},{"type":"Feature","id":4395,"geometry":{"type":"Point","coordinates":[76.380116391205846,25.988088289438295]},"properties":{"OBJECTID":4395,"stname":"RAJASTHAN","dtname":"Sawai Madhopur","STCODE11":"08","DTCODE11":"108","SDTCODE11":"00531","NAME11":"Sawai Madhopur","LOC_NAME":"Sawai Madhopur"}},{"type":"Feature","id":4396,"geometry":{"type":"Point","coordinates":[73.859647294549177,25.075604074167789]},"properties":{"OBJECTID":4396,"stname":"RAJASTHAN","dtname":"Rajsamand","STCODE11":"08","DTCODE11":"123","SDTCODE11":"00643","NAME11":"Rajsamand","LOC_NAME":"Rajsamand"}},{"type":"Feature","id":4397,"geometry":{"type":"Point","coordinates":[74.175281404529514,29.911908840222331]},"properties":{"OBJECTID":4397,"stname":"RAJASTHAN","dtname":"Ganganagar","STCODE11":"08","DTCODE11":"099","SDTCODE11":"00459","NAME11":"Sadulshahar","LOC_NAME":"Sadulshahar"}},{"type":"Feature","id":4398,"geometry":{"type":"Point","coordinates":[74.462036445111593,29.7955066182856]},"properties":{"OBJECTID":4398,"stname":"RAJASTHAN","dtname":"Hanumangarh","STCODE11":"08","DTCODE11":"100","SDTCODE11":"00466","NAME11":"Sangaria","LOC_NAME":"Sangaria"}},{"type":"Feature","id":4399,"geometry":{"type":"Point","coordinates":[73.732514438486433,28.483334950414584]},"properties":{"OBJECTID":4399,"stname":"RAJASTHAN","dtname":"Bikaner","STCODE11":"08","DTCODE11":"101","SDTCODE11":"00475","NAME11":"Lunkaransar","LOC_NAME":"Lunkaransar"}},{"type":"Feature","id":4400,"geometry":{"type":"Point","coordinates":[75.784109732109542,27.998698447107305]},"properties":{"OBJECTID":4400,"stname":"RAJASTHAN","dtname":"Jhunjhunun","STCODE11":"08","DTCODE11":"103","SDTCODE11":"00490","NAME11":"Khetri","LOC_NAME":"Khetri"}},{"type":"Feature","id":4401,"geometry":{"type":"Point","coordinates":[76.314953388318301,27.401841698585695]},"properties":{"OBJECTID":4401,"stname":"RAJASTHAN","dtname":"Alwar","STCODE11":"08","DTCODE11":"104","SDTCODE11":"00501","NAME11":"Thanagazi","LOC_NAME":"Thanagazi"}},{"type":"Feature","id":4402,"geometry":{"type":"Point","coordinates":[77.732040242344127,26.816874383283089]},"properties":{"OBJECTID":4402,"stname":"RAJASTHAN","dtname":"Dhaulpur","STCODE11":"08","DTCODE11":"106","SDTCODE11":"00517","NAME11":"Sepau","LOC_NAME":"Sepau"}},{"type":"Feature","id":4403,"geometry":{"type":"Point","coordinates":[76.717748861783662,26.705184389574942]},"properties":{"OBJECTID":4403,"stname":"RAJASTHAN","dtname":"Karauli","STCODE11":"08","DTCODE11":"107","SDTCODE11":"00521","NAME11":"Nadoti","LOC_NAME":"Nadoti"}},{"type":"Feature","id":4404,"geometry":{"type":"Point","coordinates":[75.560680398012153,26.587761914964148]},"properties":{"OBJECTID":4404,"stname":"RAJASTHAN","dtname":"Jaipur","STCODE11":"08","DTCODE11":"110","SDTCODE11":"00544","NAME11":"Phagi","LOC_NAME":"Phagi"}},{"type":"Feature","id":4405,"geometry":{"type":"Point","coordinates":[75.853920342494291,26.987623583592349]},"properties":{"OBJECTID":4405,"stname":"RAJASTHAN","dtname":"Jaipur","STCODE11":"08","DTCODE11":"110","SDTCODE11":"00547","NAME11":"Amber","LOC_NAME":"Amber"}},{"type":"Feature","id":4406,"geometry":{"type":"Point","coordinates":[76.015556120485883,27.024807814255492]},"properties":{"OBJECTID":4406,"stname":"RAJASTHAN","dtname":"Jaipur","STCODE11":"08","DTCODE11":"110","SDTCODE11":"00548","NAME11":"Jamwa Ramgarh","LOC_NAME":"Jamwa Ramgarh"}},{"type":"Feature","id":4407,"geometry":{"type":"Point","coordinates":[74.032324705872355,26.650645691352821]},"properties":{"OBJECTID":4407,"stname":"RAJASTHAN","dtname":"Nagaur","STCODE11":"08","DTCODE11":"112","SDTCODE11":"00562","NAME11":"Merta","LOC_NAME":"Merta"}},{"type":"Feature","id":4408,"geometry":{"type":"Point","coordinates":[74.339262841831442,26.833698380876591]},"properties":{"OBJECTID":4408,"stname":"RAJASTHAN","dtname":"Nagaur","STCODE11":"08","DTCODE11":"112","SDTCODE11":"00563","NAME11":"Degana","LOC_NAME":"Degana"}},{"type":"Feature","id":4409,"geometry":{"type":"Point","coordinates":[73.001736375989978,26.001972764080488]},"properties":{"OBJECTID":4409,"stname":"RAJASTHAN","dtname":"Jodhpur","STCODE11":"08","DTCODE11":"113","SDTCODE11":"00572","NAME11":"Luni","LOC_NAME":"Luni"}},{"type":"Feature","id":4410,"geometry":{"type":"Point","coordinates":[71.239638101894613,26.184533488607698]},"properties":{"OBJECTID":4410,"stname":"RAJASTHAN","dtname":"Barmer","STCODE11":"08","DTCODE11":"115","SDTCODE11":"00577","NAME11":"Sheo","LOC_NAME":"Sheo"}},{"type":"Feature","id":4411,"geometry":{"type":"Point","coordinates":[71.770405462389689,25.896967903115673]},"properties":{"OBJECTID":4411,"stname":"RAJASTHAN","dtname":"Barmer","STCODE11":"08","DTCODE11":"115","SDTCODE11":"00578","NAME11":"Baytoo","LOC_NAME":"Baytoo"}},{"type":"Feature","id":4412,"geometry":{"type":"Point","coordinates":[72.521202106395251,24.617093998821609]},"properties":{"OBJECTID":4412,"stname":"RAJASTHAN","dtname":"Sirohi","STCODE11":"08","DTCODE11":"117","SDTCODE11":"00596","NAME11":"Reodar","LOC_NAME":"Reodar"}},{"type":"Feature","id":4413,"geometry":{"type":"Point","coordinates":[73.610626832791226,25.724446407196975]},"properties":{"OBJECTID":4413,"stname":"RAJASTHAN","dtname":"Pali","STCODE11":"08","DTCODE11":"118","SDTCODE11":"00602","NAME11":"Marwar Junction","LOC_NAME":"Marwar Junction"}},{"type":"Feature","id":4414,"geometry":{"type":"Point","coordinates":[73.080837162718808,25.154837967834411]},"properties":{"OBJECTID":4414,"stname":"RAJASTHAN","dtname":"Pali","STCODE11":"08","DTCODE11":"118","SDTCODE11":"00604","NAME11":"Sumerpur","LOC_NAME":"Sumerpur"}},{"type":"Feature","id":4415,"geometry":{"type":"Point","coordinates":[74.73133592704751,26.298792049117331]},"properties":{"OBJECTID":4415,"stname":"RAJASTHAN","dtname":"Ajmer","STCODE11":"08","DTCODE11":"119","SDTCODE11":"00611","NAME11":"Nasirabad","LOC_NAME":"Nasirabad"}},{"type":"Feature","id":4416,"geometry":{"type":"Point","coordinates":[74.769206046376652,26.050270296638853]},"properties":{"OBJECTID":4416,"stname":"RAJASTHAN","dtname":"Ajmer","STCODE11":"08","DTCODE11":"119","SDTCODE11":"00612","NAME11":"Bhinay","LOC_NAME":"Bhinay"}},{"type":"Feature","id":4417,"geometry":{"type":"Point","coordinates":[74.332489715269091,25.733507005090264]},"properties":{"OBJECTID":4417,"stname":"RAJASTHAN","dtname":"Bhilwara","STCODE11":"08","DTCODE11":"122","SDTCODE11":"00627","NAME11":"Asind","LOC_NAME":"Asind"}},{"type":"Feature","id":4418,"geometry":{"type":"Point","coordinates":[74.691527917970049,25.891299439187836]},"properties":{"OBJECTID":4418,"stname":"RAJASTHAN","dtname":"Bhilwara","STCODE11":"08","DTCODE11":"122","SDTCODE11":"00628","NAME11":"Hurda","LOC_NAME":"Hurda"}},{"type":"Feature","id":4419,"geometry":{"type":"Point","coordinates":[73.821562613512739,24.931349298240605]},"properties":{"OBJECTID":4419,"stname":"RAJASTHAN","dtname":"Rajsamand","STCODE11":"08","DTCODE11":"123","SDTCODE11":"00645","NAME11":"Nathdwara","LOC_NAME":"Nathdwara"}},{"type":"Feature","id":4420,"geometry":{"type":"Point","coordinates":[73.975176534831832,24.78930200923984]},"properties":{"OBJECTID":4420,"stname":"RAJASTHAN","dtname":"Udaipur","STCODE11":"08","DTCODE11":"130","SDTCODE11":"00685","NAME11":"Mavli","LOC_NAME":"Mavli"}},{"type":"Feature","id":4421,"geometry":{"type":"Point","coordinates":[73.470054606054589,24.415297358476259]},"properties":{"OBJECTID":4421,"stname":"RAJASTHAN","dtname":"Udaipur","STCODE11":"08","DTCODE11":"130","SDTCODE11":"00688","NAME11":"Jhadol","LOC_NAME":"Jhadol"}},{"type":"Feature","id":4422,"geometry":{"type":"Point","coordinates":[74.266909766528983,23.403147999183563]},"properties":{"OBJECTID":4422,"stname":"RAJASTHAN","dtname":"Banswara","STCODE11":"08","DTCODE11":"125","SDTCODE11":"00653","NAME11":"Bagidora","LOC_NAME":"Bagidora"}},{"type":"Feature","id":4423,"geometry":{"type":"Point","coordinates":[75.582321887591647,24.933511443098471]},"properties":{"OBJECTID":4423,"stname":"RAJASTHAN","dtname":"Chittaurgarh","STCODE11":"08","DTCODE11":"126","SDTCODE11":"00658","NAME11":"Rawatbhata","LOC_NAME":"Rawatbhata"}},{"type":"Feature","id":4424,"geometry":{"type":"Point","coordinates":[76.629842679943749,25.107301136052914]},"properties":{"OBJECTID":4424,"stname":"RAJASTHAN","dtname":"Baran","STCODE11":"08","DTCODE11":"128","SDTCODE11":"00674","NAME11":"Kishanganj","LOC_NAME":"Kishanganj"}},{"type":"Feature","id":4425,"geometry":{"type":"Point","coordinates":[73.082892528750108,29.02137020627724]},"properties":{"OBJECTID":4425,"stname":"RAJASTHAN","dtname":"Ganganagar","STCODE11":"08","DTCODE11":"099","SDTCODE11":"00463","NAME11":"Gharsana","LOC_NAME":"Gharsana"}},{"type":"Feature","id":4426,"geometry":{"type":"Point","coordinates":[72.600728589465874,28.707747621736207]},"properties":{"OBJECTID":4426,"stname":"RAJASTHAN","dtname":"Bikaner","STCODE11":"08","DTCODE11":"101","SDTCODE11":"00478","NAME11":"Khajuwala","LOC_NAME":"Khajuwala"}},{"type":"Feature","id":4427,"geometry":{"type":"Point","coordinates":[76.341420828826728,26.395535238168474]},"properties":{"OBJECTID":4427,"stname":"RAJASTHAN","dtname":"Sawai Madhopur","STCODE11":"08","DTCODE11":"108","SDTCODE11":"00529","NAME11":"Bonli","LOC_NAME":"Bonli"}},{"type":"Feature","id":4428,"geometry":{"type":"Point","coordinates":[71.713980514204621,25.196118133765406]},"properties":{"OBJECTID":4428,"stname":"RAJASTHAN","dtname":"Barmer","STCODE11":"08","DTCODE11":"115","SDTCODE11":"00581","NAME11":"Gudha Malani","LOC_NAME":"Gudha Malani"}},{"type":"Feature","id":4429,"geometry":{"type":"Point","coordinates":[73.686230705392731,24.585476182301374]},"properties":{"OBJECTID":4429,"stname":"RAJASTHAN","dtname":"Udaipur","STCODE11":"08","DTCODE11":"130","SDTCODE11":"00689","NAME11":"Girwa","LOC_NAME":"Girwa"}},{"type":"Feature","id":4430,"geometry":{"type":"Point","coordinates":[73.747504949026009,23.568268449085547]},"properties":{"OBJECTID":4430,"stname":"RAJASTHAN","dtname":"Dungarpur","STCODE11":"08","DTCODE11":"124","SDTCODE11":"00649","NAME11":"Simalwara","LOC_NAME":"Simalwara"}},{"type":"Feature","id":4431,"geometry":{"type":"Point","coordinates":[73.5192538932681,29.239797038355988]},"properties":{"OBJECTID":4431,"stname":"RAJASTHAN","dtname":"Ganganagar","STCODE11":"08","DTCODE11":"099","SDTCODE11":"00464","NAME11":"Vijainagar","LOC_NAME":"Vijainagar"}},{"type":"Feature","id":4432,"geometry":{"type":"Point","coordinates":[71.199719317067903,26.495936023344054]},"properties":{"OBJECTID":4432,"stname":"RAJASTHAN","dtname":"Jaisalmer","STCODE11":"08","DTCODE11":"114","SDTCODE11":"00576","NAME11":"Fatehgarh","LOC_NAME":"Fatehgarh"}},{"type":"Feature","id":4433,"geometry":{"type":"Point","coordinates":[76.558890342273898,26.558296205560133]},"properties":{"OBJECTID":4433,"stname":"RAJASTHAN","dtname":"Sawai Madhopur","STCODE11":"08","DTCODE11":"108","SDTCODE11":"00527","NAME11":"Bamanwas","LOC_NAME":"Bamanwas"}},{"type":"Feature","id":4434,"geometry":{"type":"Point","coordinates":[76.196242088923825,25.732250489913653]},"properties":{"OBJECTID":4434,"stname":"RAJASTHAN","dtname":"Bundi","STCODE11":"08","DTCODE11":"121","SDTCODE11":"00624","NAME11":"Indragarh","LOC_NAME":"Indragarh"}},{"type":"Feature","id":4435,"geometry":{"type":"Point","coordinates":[74.568823129233891,25.449603027171861]},"properties":{"OBJECTID":4435,"stname":"RAJASTHAN","dtname":"Bhilwara","STCODE11":"08","DTCODE11":"122","SDTCODE11":"00631","NAME11":"Mandal","LOC_NAME":"Mandal"}},{"type":"Feature","id":4436,"geometry":{"type":"Point","coordinates":[73.582537926008442,25.150285558811873]},"properties":{"OBJECTID":4436,"stname":"RAJASTHAN","dtname":"Rajsamand","STCODE11":"08","DTCODE11":"123","SDTCODE11":"00642","NAME11":"Kumbhalgarh","LOC_NAME":"Kumbhalgarh"}},{"type":"Feature","id":4437,"geometry":{"type":"Point","coordinates":[74.123984232225681,25.032900503957528]},"properties":{"OBJECTID":4437,"stname":"RAJASTHAN","dtname":"Rajsamand","STCODE11":"08","DTCODE11":"123","SDTCODE11":"00644","NAME11":"Railmagra","LOC_NAME":"Railmagra"}},{"type":"Feature","id":5434,"geometry":{"type":"Point","coordinates":[74.637124910402861,25.347744656079321]},"properties":{"OBJECTID":5434,"stname":"RAJASTHAN","dtname":"Bhilwara","STCODE11":"08","DTCODE11":"122","SDTCODE11":"00634","NAME11":"Bhilwara","LOC_NAME":"Bhilwara"}},{"type":"Feature","id":5435,"geometry":{"type":"Point","coordinates":[74.04766777282164,24.154471079562597]},"properties":{"OBJECTID":5435,"stname":"RAJASTHAN","dtname":"Udaipur","STCODE11":"08","DTCODE11":"130","SDTCODE11":"00692","NAME11":"Salumbar","LOC_NAME":"Salumbar"}},{"type":"Feature","id":5436,"geometry":{"type":"Point","coordinates":[73.822783329660751,24.162723027483786]},"properties":{"OBJECTID":5436,"stname":"RAJASTHAN","dtname":"Udaipur","STCODE11":"08","DTCODE11":"130","SDTCODE11":"00693","NAME11":"Sarada","LOC_NAME":"Sarada"}},{"type":"Feature","id":5437,"geometry":{"type":"Point","coordinates":[74.807946546079535,23.89118926395059]},"properties":{"OBJECTID":5437,"stname":"RAJASTHAN","dtname":"Pratapgarh","STCODE11":"08","DTCODE11":"131","SDTCODE11":"00700","NAME11":"Arnod","LOC_NAME":"Arnod"}}]}